{"type": "FeatureCollection", "features": [{"geometry": {"type": "Point", "coordinates": [-75.269301, 39.957649]}, "type": "Feature", "properties": {"route": "101", "id": 1938, "name": "Avon Rd Station - FS"}}, {"geometry": {"type": "Point", "coordinates": [-75.282422, 39.951694]}, "type": "Feature", "properties": {"route": "101", "id": 1939, "name": "Lansdowne Av Station - FS"}}, {"geometry": {"type": "Point", "coordinates": [-75.292764, 39.947092]}, "type": "Feature", "properties": {"route": "101", "id": 1940, "name": "Drexel Hill Junction Station"}}, {"geometry": {"type": "Point", "coordinates": [-75.339812, 39.924707]}, "type": "Feature", "properties": {"route": "101", "id": 1943, "name": "Woodland Av Station"}}, {"geometry": {"type": "Point", "coordinates": [-75.348885, 39.918278]}, "type": "Feature", "properties": {"route": "101", "id": 1944, "name": "Springfield Mall Station"}}, {"geometry": {"type": "Point", "coordinates": [-75.364681, 39.915833]}, "type": "Feature", "properties": {"route": "101", "id": 1945, "name": "96 Signal - not a stop"}}, {"geometry": {"type": "Point", "coordinates": [-75.380567, 39.916786]}, "type": "Feature", "properties": {"route": "101", "id": 1946, "name": "Providence Rd Station"}}, {"geometry": {"type": "Point", "coordinates": [-75.393939, 39.918629]}, "type": "Feature", "properties": {"route": "101", "id": 1947, "name": "Orange St Station - MBFS"}}, {"geometry": {"type": "Point", "coordinates": [-75.393998, 39.918478]}, "type": "Feature", "properties": {"route": "101", "id": 1948, "name": "Orange St Station - MBNS"}}, {"geometry": {"type": "Point", "coordinates": [-75.380614, 39.916626]}, "type": "Feature", "properties": {"route": "101", "id": 1949, "name": "Providence Rd Station"}}, {"geometry": {"type": "Point", "coordinates": [-75.364598, 39.915681]}, "type": "Feature", "properties": {"route": "101", "id": 1950, "name": "96 Signal - not a stop"}}, {"geometry": {"type": "Point", "coordinates": [-75.348992, 39.918011]}, "type": "Feature", "properties": {"route": "101", "id": 1951, "name": "Springfield Mall Station"}}, {"geometry": {"type": "Point", "coordinates": [-75.339624, 39.924644]}, "type": "Feature", "properties": {"route": "101", "id": 1952, "name": "Woodland Av Station - FS"}}, {"geometry": {"type": "Point", "coordinates": [-75.325872, 39.940734]}, "type": "Feature", "properties": {"route": "101", "id": 1953, "name": "Scenic Rd Station"}}, {"geometry": {"type": "Point", "coordinates": [-75.292575, 39.947012]}, "type": "Feature", "properties": {"route": "101", "id": 1955, "name": "Drexel Hill Junction Station - FS"}}, {"geometry": {"type": "Point", "coordinates": [-75.268888, 39.95772]}, "type": "Feature", "properties": {"route": "101", "id": 1957, "name": "Avon Rd Station - FS"}}, {"geometry": {"type": "Point", "coordinates": [-75.263743, 39.960882]}, "type": "Feature", "properties": {"route": "101", "id": 15319, "name": "Fairfield Av Station - FS"}}, {"geometry": {"type": "Point", "coordinates": [-75.279101, 39.953092]}, "type": "Feature", "properties": {"route": "101", "id": 15322, "name": "Congress Av Station - FS"}}, {"geometry": {"type": "Point", "coordinates": [-75.279078, 39.952976]}, "type": "Feature", "properties": {"route": "101", "id": 15344, "name": "Congress Av Station"}}, {"geometry": {"type": "Point", "coordinates": [-75.263613, 39.960864]}, "type": "Feature", "properties": {"route": "101", "id": 15348, "name": "Fairfield Av Station"}}, {"geometry": {"type": "Point", "coordinates": [-75.29764, 39.947597]}, "type": "Feature", "properties": {"route": "101", "id": 15349, "name": "Huey Av Station - FS"}}, {"geometry": {"type": "Point", "coordinates": [-75.333645, 39.928772]}, "type": "Feature", "properties": {"route": "101", "id": 15355, "name": "Saxer Av Station"}}, {"geometry": {"type": "Point", "coordinates": [-75.370004, 39.915024]}, "type": "Feature", "properties": {"route": "101", "id": 15358, "name": "Pine Ridge Station - FS"}}, {"geometry": {"type": "Point", "coordinates": [-75.369922, 39.914872]}, "type": "Feature", "properties": {"route": "101", "id": 15366, "name": "Pine Ridge Station"}}, {"geometry": {"type": "Point", "coordinates": [-75.333492, 39.928656]}, "type": "Feature", "properties": {"route": "101", "id": 15370, "name": "Saxer Av Station - FS"}}, {"geometry": {"type": "Point", "coordinates": [-75.297688, 39.94741]}, "type": "Feature", "properties": {"route": "101", "id": 15376, "name": "Huey Av Station"}}, {"geometry": {"type": "Point", "coordinates": [-75.387518, 39.917726]}, "type": "Feature", "properties": {"route": "101", "id": 15379, "name": "Monroe St Station"}}, {"geometry": {"type": "Point", "coordinates": [-75.387766, 39.917592]}, "type": "Feature", "properties": {"route": "101", "id": 15380, "name": "Monroe St Station"}}, {"geometry": {"type": "Point", "coordinates": [-75.259689, 39.962179]}, "type": "Feature", "properties": {"route": "101", "id": 15497, "name": "69th St Transportation Center West "}}, {"geometry": {"type": "Point", "coordinates": [-75.306033, 39.949203]}, "type": "Feature", "properties": {"route": "101", "id": 16395, "name": "Aronimink Station"}}, {"geometry": {"type": "Point", "coordinates": [-75.306304, 39.949319]}, "type": "Feature", "properties": {"route": "101", "id": 16402, "name": "Aronimink Station"}}, {"geometry": {"type": "Point", "coordinates": [-75.2667, 39.958851]}, "type": "Feature", "properties": {"route": "101", "id": 18597, "name": "Walnut St Station - FS"}}, {"geometry": {"type": "Point", "coordinates": [-75.273131, 39.955896]}, "type": "Feature", "properties": {"route": "101", "id": 18598, "name": "Hilltop Rd Station - FS"}}, {"geometry": {"type": "Point", "coordinates": [-75.274822, 39.955095]}, "type": "Feature", "properties": {"route": "101", "id": 18599, "name": "Beverly Blvd Station - FS"}}, {"geometry": {"type": "Point", "coordinates": [-75.286772, 39.949915]}, "type": "Feature", "properties": {"route": "101", "id": 18600, "name": "Drexel Park Station"}}, {"geometry": {"type": "Point", "coordinates": [-75.288982, 39.948864]}, "type": "Feature", "properties": {"route": "101", "id": 18601, "name": "Irvington Rd Station"}}, {"geometry": {"type": "Point", "coordinates": [-75.299799, 39.948751]}, "type": "Feature", "properties": {"route": "101", "id": 18602, "name": "School Ln Station - FS"}}, {"geometry": {"type": "Point", "coordinates": [-75.312825, 39.94796]}, "type": "Feature", "properties": {"route": "101", "id": 18603, "name": "Anderson Av Station"}}, {"geometry": {"type": "Point", "coordinates": [-75.316144, 39.94724]}, "type": "Feature", "properties": {"route": "101", "id": 18604, "name": "Drexelbrook Station"}}, {"geometry": {"type": "Point", "coordinates": [-75.321757, 39.944666]}, "type": "Feature", "properties": {"route": "101", "id": 18605, "name": "Drexeline Station"}}, {"geometry": {"type": "Point", "coordinates": [-75.32986, 39.933963]}, "type": "Feature", "properties": {"route": "101", "id": 18606, "name": "Springfield Rd Station - FS"}}, {"geometry": {"type": "Point", "coordinates": [-75.345542, 39.921159]}, "type": "Feature", "properties": {"route": "101", "id": 18607, "name": "Thomson Av Station - FS"}}, {"geometry": {"type": "Point", "coordinates": [-75.376967, 39.916249]}, "type": "Feature", "properties": {"route": "101", "id": 18608, "name": "Beatty Rd Station"}}, {"geometry": {"type": "Point", "coordinates": [-75.382738, 39.917055]}, "type": "Feature", "properties": {"route": "101", "id": 18609, "name": "Manchester Av Station"}}, {"geometry": {"type": "Point", "coordinates": [-75.385524, 39.917467]}, "type": "Feature", "properties": {"route": "101", "id": 18610, "name": "Edgmont St Station"}}, {"geometry": {"type": "Point", "coordinates": [-75.389348, 39.917985]}, "type": "Feature", "properties": {"route": "101", "id": 18611, "name": "Jackson St Station"}}, {"geometry": {"type": "Point", "coordinates": [-75.390917, 39.9182]}, "type": "Feature", "properties": {"route": "101", "id": 18612, "name": "Olive St Station"}}, {"geometry": {"type": "Point", "coordinates": [-75.391897, 39.918343]}, "type": "Feature", "properties": {"route": "101", "id": 18613, "name": "Veterans Square Station"}}, {"geometry": {"type": "Point", "coordinates": [-75.337378, 39.926338]}, "type": "Feature", "properties": {"route": "101", "id": 18614, "name": "Leamy Av Station"}}, {"geometry": {"type": "Point", "coordinates": [-75.392145, 39.918209]}, "type": "Feature", "properties": {"route": "101", "id": 18615, "name": "Veterans Square Station"}}, {"geometry": {"type": "Point", "coordinates": [-75.391165, 39.918066]}, "type": "Feature", "properties": {"route": "101", "id": 18616, "name": "Olive St Station"}}, {"geometry": {"type": "Point", "coordinates": [-75.389584, 39.917843]}, "type": "Feature", "properties": {"route": "101", "id": 18617, "name": "Jackson St Station"}}, {"geometry": {"type": "Point", "coordinates": [-75.385772, 39.917333]}, "type": "Feature", "properties": {"route": "101", "id": 18618, "name": "Edgmont St Station"}}, {"geometry": {"type": "Point", "coordinates": [-75.382998, 39.91693]}, "type": "Feature", "properties": {"route": "101", "id": 18619, "name": "Manchester Av Station"}}, {"geometry": {"type": "Point", "coordinates": [-75.376861, 39.916071]}, "type": "Feature", "properties": {"route": "101", "id": 18620, "name": "Beatty Rd Station"}}, {"geometry": {"type": "Point", "coordinates": [-75.345341, 39.921123]}, "type": "Feature", "properties": {"route": "101", "id": 18621, "name": "Thomson Av Station"}}, {"geometry": {"type": "Point", "coordinates": [-75.337154, 39.926267]}, "type": "Feature", "properties": {"route": "101", "id": 18622, "name": "Leamy Av Station - FS"}}, {"geometry": {"type": "Point", "coordinates": [-75.329458, 39.934409]}, "type": "Feature", "properties": {"route": "101", "id": 18623, "name": "Springfield Rd Station - FS"}}, {"geometry": {"type": "Point", "coordinates": [-75.321592, 39.944559]}, "type": "Feature", "properties": {"route": "101", "id": 18624, "name": "Drexeline Station - FS"}}, {"geometry": {"type": "Point", "coordinates": [-75.315955, 39.947106]}, "type": "Feature", "properties": {"route": "101", "id": 18625, "name": "Drexelbrook Station - FS"}}, {"geometry": {"type": "Point", "coordinates": [-75.312636, 39.947826]}, "type": "Feature", "properties": {"route": "101", "id": 18626, "name": "Anderson Av Station - FS"}}, {"geometry": {"type": "Point", "coordinates": [-75.29987, 39.94859]}, "type": "Feature", "properties": {"route": "101", "id": 18627, "name": "School Ln Station"}}, {"geometry": {"type": "Point", "coordinates": [-75.289148, 39.948668]}, "type": "Feature", "properties": {"route": "101", "id": 18628, "name": "Irvington Rd Station"}}, {"geometry": {"type": "Point", "coordinates": [-75.286949, 39.949709]}, "type": "Feature", "properties": {"route": "101", "id": 18629, "name": "Drexel Park Station"}}, {"geometry": {"type": "Point", "coordinates": [-75.274066, 39.955326]}, "type": "Feature", "properties": {"route": "101", "id": 18630, "name": "Beverly Blvd Station"}}, {"geometry": {"type": "Point", "coordinates": [-75.272718, 39.955967]}, "type": "Feature", "properties": {"route": "101", "id": 18631, "name": "Hilltop Rd Station - FS"}}, {"geometry": {"type": "Point", "coordinates": [-75.266263, 39.958921]}, "type": "Feature", "properties": {"route": "101", "id": 18632, "name": "Walnut St Station"}}, {"geometry": {"type": "Point", "coordinates": [-75.358036, 39.915428]}, "type": "Feature", "properties": {"route": "101", "id": 20024, "name": "Paper Mill Rd Station"}}, {"geometry": {"type": "Point", "coordinates": [-75.357953, 39.915276]}, "type": "Feature", "properties": {"route": "101", "id": 20025, "name": "Paper Mill Rd Station - FS"}}, {"geometry": {"type": "Point", "coordinates": [-75.282328, 39.951614]}, "type": "Feature", "properties": {"route": "101", "id": 30494, "name": "Lansdowne Av Station"}}, {"geometry": {"type": "Point", "coordinates": [-75.32612, 39.940752]}, "type": "Feature", "properties": {"route": "101", "id": 30607, "name": "Scenic Rd Station"}}]}