{"type": "FeatureCollection", "features": [{"geometry": {"type": "Point", "coordinates": [-75.276276, 39.965244]}, "type": "Feature", "properties": {"route": "112", "id": 1968, "name": "West Chester Pk &amp; Carol Blvd"}}, {"geometry": {"type": "Point", "coordinates": [-75.319989, 39.973278]}, "type": "Feature", "properties": {"route": "112", "id": 1983, "name": "West Chester Pk &amp; Eagle Rd - FS"}}, {"geometry": {"type": "Point", "coordinates": [-75.361749, 39.982125]}, "type": "Feature", "properties": {"route": "112", "id": 1985, "name": "West Chester Pk &amp; Sproul Rd - FS"}}, {"geometry": {"type": "Point", "coordinates": [-75.36071, 39.981625]}, "type": "Feature", "properties": {"route": "112", "id": 1996, "name": "West Chester Pk &amp; Sproul Rd - FS"}}, {"geometry": {"type": "Point", "coordinates": [-75.319139, 39.972813]}, "type": "Feature", "properties": {"route": "112", "id": 1998, "name": "West Chester Pk &amp; Eagle Rd - FS"}}, {"geometry": {"type": "Point", "coordinates": [-75.393572, 39.967751]}, "type": "Feature", "properties": {"route": "112", "id": 2168, "name": "Delaware County Community College"}}, {"geometry": {"type": "Point", "coordinates": [-75.296844, 39.969132]}, "type": "Feature", "properties": {"route": "112", "id": 2197, "name": "West Chester Pk &amp; Darby Rd"}}, {"geometry": {"type": "Point", "coordinates": [-75.334277, 39.977002]}, "type": "Feature", "properties": {"route": "112", "id": 2199, "name": "West Chester Pk &amp; Lawrence Rd"}}, {"geometry": {"type": "Point", "coordinates": [-75.33377, 39.976573]}, "type": "Feature", "properties": {"route": "112", "id": 2200, "name": "West Chester Pk &amp; Lawrence Rd - MBF"}}, {"geometry": {"type": "Point", "coordinates": [-75.296455, 39.968739]}, "type": "Feature", "properties": {"route": "112", "id": 2202, "name": "West Chester Pk &amp; Darby Rd - FS"}}, {"geometry": {"type": "Point", "coordinates": [-75.259689, 39.962179]}, "type": "Feature", "properties": {"route": "112", "id": 15497, "name": "69th St Transportation Center West "}}, {"geometry": {"type": "Point", "coordinates": [-75.263184, 39.962621]}, "type": "Feature", "properties": {"route": "112", "id": 18639, "name": "West Chester Pk &amp; Brief Av"}}, {"geometry": {"type": "Point", "coordinates": [-75.265722, 39.963294]}, "type": "Feature", "properties": {"route": "112", "id": 18640, "name": "West Chester Pk &amp; College Av"}}, {"geometry": {"type": "Point", "coordinates": [-75.2678, 39.96368]}, "type": "Feature", "properties": {"route": "112", "id": 18641, "name": "West Chester Pk &amp; Golf Rd"}}, {"geometry": {"type": "Point", "coordinates": [-75.270621, 39.964202]}, "type": "Feature", "properties": {"route": "112", "id": 18642, "name": "West Chester Pk &amp; Ardsley Rd - FS"}}, {"geometry": {"type": "Point", "coordinates": [-75.271873, 39.964426]}, "type": "Feature", "properties": {"route": "112", "id": 18643, "name": "West Chester Pk &amp; Kenmore Rd"}}, {"geometry": {"type": "Point", "coordinates": [-75.274529, 39.964929]}, "type": "Feature", "properties": {"route": "112", "id": 18644, "name": "West Chester Pk &amp; Pennock Av - FS"}}, {"geometry": {"type": "Point", "coordinates": [-75.282758, 39.966457]}, "type": "Feature", "properties": {"route": "112", "id": 18646, "name": "West Chester Pk &amp; S Lynn Blvd - MBF"}}, {"geometry": {"type": "Point", "coordinates": [-75.284706, 39.966816]}, "type": "Feature", "properties": {"route": "112", "id": 18647, "name": "West Chester Pk &amp; Cloverdale Rd"}}, {"geometry": {"type": "Point", "coordinates": [-75.28891, 39.967615]}, "type": "Feature", "properties": {"route": "112", "id": 18648, "name": "West Chester Pk &amp; Linden Av"}}, {"geometry": {"type": "Point", "coordinates": [-75.291295, 39.968073]}, "type": "Feature", "properties": {"route": "112", "id": 18649, "name": "West Chester Pk &amp; Brighton Av - FS"}}, {"geometry": {"type": "Point", "coordinates": [-75.294672, 39.968728]}, "type": "Feature", "properties": {"route": "112", "id": 18650, "name": "West Chester Pk &amp; Township Line Rd "}}, {"geometry": {"type": "Point", "coordinates": [-75.279098, 39.965756]}, "type": "Feature", "properties": {"route": "112", "id": 18651, "name": "West Chester Pk &amp; Saint Laurence Rd"}}, {"geometry": {"type": "Point", "coordinates": [-75.299395, 39.969625]}, "type": "Feature", "properties": {"route": "112", "id": 18652, "name": "West Chester Pk &amp; Vernon Rd - MBNS"}}, {"geometry": {"type": "Point", "coordinates": [-75.302724, 39.970289]}, "type": "Feature", "properties": {"route": "112", "id": 18653, "name": "West Chester Pk &amp; Gilmore Rd - FS"}}, {"geometry": {"type": "Point", "coordinates": [-75.305806, 39.970837]}, "type": "Feature", "properties": {"route": "112", "id": 18654, "name": "West Chester Pk &amp; Westwood Ln - FS"}}, {"geometry": {"type": "Point", "coordinates": [-75.309762, 39.971501]}, "type": "Feature", "properties": {"route": "112", "id": 18655, "name": "West Chester Pk &amp; Sycamore Rd"}}, {"geometry": {"type": "Point", "coordinates": [-75.313529, 39.972165]}, "type": "Feature", "properties": {"route": "112", "id": 18656, "name": "West Chester Pk &amp; Manoa Rd - FS"}}, {"geometry": {"type": "Point", "coordinates": [-75.317934, 39.97291]}, "type": "Feature", "properties": {"route": "112", "id": 18657, "name": "West Chester Pk &amp; Washington Av - F"}}, {"geometry": {"type": "Point", "coordinates": [-75.32228, 39.97369]}, "type": "Feature", "properties": {"route": "112", "id": 18659, "name": "West Chester Pk &amp; Glendale Rd - FS"}}, {"geometry": {"type": "Point", "coordinates": [-75.325599, 39.974255]}, "type": "Feature", "properties": {"route": "112", "id": 18660, "name": "West Chester Pk &amp; Stanton Rd"}}, {"geometry": {"type": "Point", "coordinates": [-75.327051, 39.974551]}, "type": "Feature", "properties": {"route": "112", "id": 18661, "name": "West Chester Pk &amp; Glen Gary Dr"}}, {"geometry": {"type": "Point", "coordinates": [-75.330617, 39.975848]}, "type": "Feature", "properties": {"route": "112", "id": 18662, "name": "West Chester Pk &amp; Robinson Av"}}, {"geometry": {"type": "Point", "coordinates": [-75.331892, 39.976349]}, "type": "Feature", "properties": {"route": "112", "id": 18663, "name": "West Chester Pk &amp; Old W Chester Pk"}}, {"geometry": {"type": "Point", "coordinates": [-75.346725, 39.979804]}, "type": "Feature", "properties": {"route": "112", "id": 18664, "name": "West Chester Pk &amp; New Ardmore Av - "}}, {"geometry": {"type": "Point", "coordinates": [-75.349678, 39.980297]}, "type": "Feature", "properties": {"route": "112", "id": 18665, "name": "West Chester Pk &amp; Raymond Rd - FS"}}, {"geometry": {"type": "Point", "coordinates": [-75.353788, 39.980907]}, "type": "Feature", "properties": {"route": "112", "id": 18666, "name": "West Chester Pk &amp; Edgewood Rd - FS"}}, {"geometry": {"type": "Point", "coordinates": [-75.356812, 39.981373]}, "type": "Feature", "properties": {"route": "112", "id": 18667, "name": "West Chester Pk &amp; Church Rd"}}, {"geometry": {"type": "Point", "coordinates": [-75.36521, 39.9826]}, "type": "Feature", "properties": {"route": "112", "id": 18668, "name": "West Chester Pk &amp; Malin Rd - FS"}}, {"geometry": {"type": "Point", "coordinates": [-75.36736, 39.982887]}, "type": "Feature", "properties": {"route": "112", "id": 18669, "name": "West Chester Pk &amp; E Garden Rd - FS"}}, {"geometry": {"type": "Point", "coordinates": [-75.369758, 39.983227]}, "type": "Feature", "properties": {"route": "112", "id": 18670, "name": "West Chester Pk &amp; James Rd"}}, {"geometry": {"type": "Point", "coordinates": [-75.373869, 39.983809]}, "type": "Feature", "properties": {"route": "112", "id": 18671, "name": "West Chester Pk &amp; Ann Rd"}}, {"geometry": {"type": "Point", "coordinates": [-75.372582, 39.983326]}, "type": "Feature", "properties": {"route": "112", "id": 18799, "name": "West Chester Pk &amp; Latches Ln"}}, {"geometry": {"type": "Point", "coordinates": [-75.370113, 39.982959]}, "type": "Feature", "properties": {"route": "112", "id": 18800, "name": "West Chester Pk &amp; Hawthorne Rd"}}, {"geometry": {"type": "Point", "coordinates": [-75.367715, 39.982637]}, "type": "Feature", "properties": {"route": "112", "id": 18801, "name": "West Chester Pk &amp; Rittenhouse Rd"}}, {"geometry": {"type": "Point", "coordinates": [-75.365069, 39.982252]}, "type": "Feature", "properties": {"route": "112", "id": 18802, "name": "West Chester Pk &amp; Malin Rd"}}, {"geometry": {"type": "Point", "coordinates": [-75.357001, 39.981069]}, "type": "Feature", "properties": {"route": "112", "id": 18803, "name": "West Chester Pk &amp; Berkley Rd"}}, {"geometry": {"type": "Point", "coordinates": [-75.354001, 39.980594]}, "type": "Feature", "properties": {"route": "112", "id": 18804, "name": "West Chester Pk &amp; Edgewood Rd"}}, {"geometry": {"type": "Point", "coordinates": [-75.349962, 39.979994]}, "type": "Feature", "properties": {"route": "112", "id": 18805, "name": "West Chester Pk &amp; Raymond Rd"}}, {"geometry": {"type": "Point", "coordinates": [-75.346855, 39.979501]}, "type": "Feature", "properties": {"route": "112", "id": 18806, "name": "West Chester Pk &amp; New Ardmore Av"}}, {"geometry": {"type": "Point", "coordinates": [-75.331396, 39.97584]}, "type": "Feature", "properties": {"route": "112", "id": 18807, "name": "West Chester Pk &amp; Robinson Av"}}, {"geometry": {"type": "Point", "coordinates": [-75.327524, 39.974328]}, "type": "Feature", "properties": {"route": "112", "id": 18808, "name": "West Chester Pk &amp; Glen Gary Dr"}}, {"geometry": {"type": "Point", "coordinates": [-75.325091, 39.973853]}, "type": "Feature", "properties": {"route": "112", "id": 18809, "name": "West Chester Pk &amp; Ivy Rock Ln"}}, {"geometry": {"type": "Point", "coordinates": [-75.322469, 39.973396]}, "type": "Feature", "properties": {"route": "112", "id": 18810, "name": "West Chester Pk &amp; Glendale Rd"}}, {"geometry": {"type": "Point", "coordinates": [-75.317675, 39.972562]}, "type": "Feature", "properties": {"route": "112", "id": 18811, "name": "West Chester Pk &amp; Washington Av"}}, {"geometry": {"type": "Point", "coordinates": [-75.316647, 39.972391]}, "type": "Feature", "properties": {"route": "112", "id": 18812, "name": "West Chester Pk &amp; Pinzon Av - FS"}}, {"geometry": {"type": "Point", "coordinates": [-75.313306, 39.971799]}, "type": "Feature", "properties": {"route": "112", "id": 18813, "name": "West Chester Pk &amp; Manoa Rd - FS"}}, {"geometry": {"type": "Point", "coordinates": [-75.309798, 39.971198]}, "type": "Feature", "properties": {"route": "112", "id": 18814, "name": "West Chester Pk &amp; Westwood Park - 1"}}, {"geometry": {"type": "Point", "coordinates": [-75.304248, 39.970273]}, "type": "Feature", "properties": {"route": "112", "id": 18815, "name": "West Chester Pk &amp; Steel Rd"}}, {"geometry": {"type": "Point", "coordinates": [-75.302205, 39.969905]}, "type": "Feature", "properties": {"route": "112", "id": 18816, "name": "West Chester Pk &amp; Gilmore Rd - FS"}}, {"geometry": {"type": "Point", "coordinates": [-75.298262, 39.969098]}, "type": "Feature", "properties": {"route": "112", "id": 18817, "name": "West Chester Pk &amp; Darby Rd - MBNS"}}, {"geometry": {"type": "Point", "coordinates": [-75.294389, 39.968344]}, "type": "Feature", "properties": {"route": "112", "id": 18818, "name": "West Chester Pk &amp; Township Line - F"}}, {"geometry": {"type": "Point", "coordinates": [-75.290953, 39.967706]}, "type": "Feature", "properties": {"route": "112", "id": 18819, "name": "West Chester Pk &amp; Brighton Av - FS"}}, {"geometry": {"type": "Point", "coordinates": [-75.288851, 39.967302]}, "type": "Feature", "properties": {"route": "112", "id": 18820, "name": "West Chester Pk &amp; Linden Av - FS"}}, {"geometry": {"type": "Point", "coordinates": [-75.284967, 39.966575]}, "type": "Feature", "properties": {"route": "112", "id": 18821, "name": "West Chester Pk &amp; Cloverdale Av"}}, {"geometry": {"type": "Point", "coordinates": [-75.282676, 39.966144]}, "type": "Feature", "properties": {"route": "112", "id": 18822, "name": "West Chester Pk &amp; S Lynn Blvd"}}, {"geometry": {"type": "Point", "coordinates": [-75.280398, 39.965704]}, "type": "Feature", "properties": {"route": "112", "id": 18823, "name": "West Chester Pk &amp; Park Av"}}, {"geometry": {"type": "Point", "coordinates": [-75.278509, 39.965354]}, "type": "Feature", "properties": {"route": "112", "id": 18824, "name": "West Chester Pk &amp; Cedar Ln - FS"}}, {"geometry": {"type": "Point", "coordinates": [-75.276312, 39.964958]}, "type": "Feature", "properties": {"route": "112", "id": 18825, "name": "West Chester Pk &amp; Carol Blvd - FS"}}, {"geometry": {"type": "Point", "coordinates": [-75.274471, 39.964635]}, "type": "Feature", "properties": {"route": "112", "id": 18826, "name": "West Chester Pk &amp; Pennock Av"}}, {"geometry": {"type": "Point", "coordinates": [-75.272121, 39.964204]}, "type": "Feature", "properties": {"route": "112", "id": 18827, "name": "West Chester Pk &amp; Kenmore Rd"}}, {"geometry": {"type": "Point", "coordinates": [-75.269571, 39.963745]}, "type": "Feature", "properties": {"route": "112", "id": 18828, "name": "West Chester Pk &amp; Berbro Av"}}, {"geometry": {"type": "Point", "coordinates": [-75.268048, 39.963475]}, "type": "Feature", "properties": {"route": "112", "id": 18829, "name": "West Chester Pk &amp; Elm Av"}}, {"geometry": {"type": "Point", "coordinates": [-75.265935, 39.963089]}, "type": "Feature", "properties": {"route": "112", "id": 18830, "name": "West Chester Pk &amp; College Av"}}, {"geometry": {"type": "Point", "coordinates": [-75.378654, 39.98365]}, "type": "Feature", "properties": {"route": "112", "id": 19488, "name": "Media Line Rd &amp; West Chester Pk - F"}}, {"geometry": {"type": "Point", "coordinates": [-75.378241, 39.983722]}, "type": "Feature", "properties": {"route": "112", "id": 19489, "name": "Media Line Rd &amp; West Chester Pk"}}, {"geometry": {"type": "Point", "coordinates": [-75.38077, 39.982152]}, "type": "Feature", "properties": {"route": "112", "id": 29850, "name": "Media Line Rd &amp; Larchmont Cir"}}, {"geometry": {"type": "Point", "coordinates": [-75.384304, 39.979699]}, "type": "Feature", "properties": {"route": "112", "id": 29852, "name": "Media Line Rd &amp; Highland Av"}}, {"geometry": {"type": "Point", "coordinates": [-75.385793, 39.978673]}, "type": "Feature", "properties": {"route": "112", "id": 29853, "name": "Media Line Rd &amp; Eastburn Av - FS"}}, {"geometry": {"type": "Point", "coordinates": [-75.387306, 39.977558]}, "type": "Feature", "properties": {"route": "112", "id": 29854, "name": "Media Line Rd &amp; Old Cedar Grove Rd"}}, {"geometry": {"type": "Point", "coordinates": [-75.388677, 39.976594]}, "type": "Feature", "properties": {"route": "112", "id": 29855, "name": "Media Line Rd &amp; Malley St"}}, {"geometry": {"type": "Point", "coordinates": [-75.390567, 39.975256]}, "type": "Feature", "properties": {"route": "112", "id": 29856, "name": "Media Line Rd &amp; Heather Rd"}}, {"geometry": {"type": "Point", "coordinates": [-75.394988, 39.970331]}, "type": "Feature", "properties": {"route": "112", "id": 29858, "name": "Media Line Rd &amp; Drew Cir"}}, {"geometry": {"type": "Point", "coordinates": [-75.395425, 39.969769]}, "type": "Feature", "properties": {"route": "112", "id": 29859, "name": "Media Line Rd &amp; Drew Cir"}}, {"geometry": {"type": "Point", "coordinates": [-75.391832, 39.9734]}, "type": "Feature", "properties": {"route": "112", "id": 29860, "name": "Media Line Rd &amp; Dogwood Ln - FS"}}, {"geometry": {"type": "Point", "coordinates": [-75.39052, 39.975096]}, "type": "Feature", "properties": {"route": "112", "id": 29861, "name": "Media Line Rd &amp; Heather Rd"}}, {"geometry": {"type": "Point", "coordinates": [-75.388842, 39.976282]}, "type": "Feature", "properties": {"route": "112", "id": 29862, "name": "Media Line Rd &amp; Malley St"}}, {"geometry": {"type": "Point", "coordinates": [-75.387128, 39.977522]}, "type": "Feature", "properties": {"route": "112", "id": 29863, "name": "Media Line Rd &amp; Old Cedar Grove Rd "}}, {"geometry": {"type": "Point", "coordinates": [-75.385994, 39.978343]}, "type": "Feature", "properties": {"route": "112", "id": 29864, "name": "Media Line &amp; Eastburn Av"}}, {"geometry": {"type": "Point", "coordinates": [-75.382661, 39.980662]}, "type": "Feature", "properties": {"route": "112", "id": 29866, "name": "Media Line Rd &amp; Pennview Av - FS"}}, {"geometry": {"type": "Point", "coordinates": [-75.381255, 39.981652]}, "type": "Feature", "properties": {"route": "112", "id": 29867, "name": "Media Line Rd &amp; Mark Ter - FS"}}, {"geometry": {"type": "Point", "coordinates": [-75.305795, 39.970515]}, "type": "Feature", "properties": {"route": "112", "id": 30480, "name": "West Chester Pk &amp; Westwood Park - 2"}}, {"geometry": {"type": "Point", "coordinates": [-75.384564, 39.979315]}, "type": "Feature", "properties": {"route": "112", "id": 31180, "name": "Media Line Rd &amp; Highland Av"}}, {"geometry": {"type": "Point", "coordinates": [-75.376646, 39.983792]}, "type": "Feature", "properties": {"route": "112", "id": 31729, "name": "West Chester Pk &amp; Evergreen Av"}}, {"geometry": {"type": "Point", "coordinates": [-75.372358, 39.983085]}, "type": "Feature", "properties": {"route": "112", "id": 31741, "name": "Latches Ln &amp; West Chester Pk"}}, {"geometry": {"type": "Point", "coordinates": [-75.392033, 39.973293]}, "type": "Feature", "properties": {"route": "112", "id": 31872, "name": "Media Line Rd &amp; Dogwood Ln"}}]}