{"type": "FeatureCollection", "features": [{"geometry": {"type": "Point", "coordinates": [-75.20724, 40.014897]}, "type": "Feature", "properties": {"route": "124", "id": 28, "name": "Wissahickon Trans Ctr - onsite"}}, {"geometry": {"type": "Point", "coordinates": [-75.18319, 39.955591]}, "type": "Feature", "properties": {"route": "124", "id": 1537, "name": "30th St &amp; Market St - MBNS"}}, {"geometry": {"type": "Point", "coordinates": [-75.342029, 40.071355]}, "type": "Feature", "properties": {"route": "124", "id": 1641, "name": "Gulph Mills Station - on street"}}, {"geometry": {"type": "Point", "coordinates": [-75.161283, 39.952672]}, "type": "Feature", "properties": {"route": "124", "id": 1721, "name": "13th St &amp; Market St - MBFS"}}, {"geometry": {"type": "Point", "coordinates": [-75.467624, 40.069408]}, "type": "Feature", "properties": {"route": "124", "id": 1725, "name": "Morris Dr &amp; Liberty Ridge Dr - MBFS"}}, {"geometry": {"type": "Point", "coordinates": [-75.393107, 40.089829]}, "type": "Feature", "properties": {"route": "124", "id": 1827, "name": "Plaza at King of Prussia"}}, {"geometry": {"type": "Point", "coordinates": [-75.173194, 39.95392]}, "type": "Feature", "properties": {"route": "124", "id": 2821, "name": "20th St &amp; Market St"}}, {"geometry": {"type": "Point", "coordinates": [-75.164041, 39.950804]}, "type": "Feature", "properties": {"route": "124", "id": 6115, "name": "Chestnut St &amp; Broad St"}}, {"geometry": {"type": "Point", "coordinates": [-75.381548, 40.088629]}, "type": "Feature", "properties": {"route": "124", "id": 6675, "name": "DeKalb Pk &amp; Allendale Rd"}}, {"geometry": {"type": "Point", "coordinates": [-75.373122, 40.091545]}, "type": "Feature", "properties": {"route": "124", "id": 6678, "name": "DeKalb Pk &amp; Brandywine Ln"}}, {"geometry": {"type": "Point", "coordinates": [-75.370873, 40.092311]}, "type": "Feature", "properties": {"route": "124", "id": 6694, "name": "DeKalb Pk &amp; King Cr - FS"}}, {"geometry": {"type": "Point", "coordinates": [-75.38517, 40.086748]}, "type": "Feature", "properties": {"route": "124", "id": 6698, "name": "DeKalb Pk &amp; Wilson Rd"}}, {"geometry": {"type": "Point", "coordinates": [-75.364636, 40.094031]}, "type": "Feature", "properties": {"route": "124", "id": 6707, "name": "DeKalb Pk &amp; Henderson Rd - MBNS"}}, {"geometry": {"type": "Point", "coordinates": [-75.368731, 40.092747]}, "type": "Feature", "properties": {"route": "124", "id": 6712, "name": "DeKalb Pk &amp; Town Center Rd - MBNS"}}, {"geometry": {"type": "Point", "coordinates": [-75.411496, 40.080828]}, "type": "Feature", "properties": {"route": "124", "id": 7726, "name": "Swedesford Rd &amp; Drummers Ln - FS"}}, {"geometry": {"type": "Point", "coordinates": [-75.418417, 40.077883]}, "type": "Feature", "properties": {"route": "124", "id": 7733, "name": "Swedesford Rd &amp; Wembley Dr - MBFS"}}, {"geometry": {"type": "Point", "coordinates": [-75.418358, 40.078044]}, "type": "Feature", "properties": {"route": "124", "id": 7734, "name": "Swedesford Rd &amp; Wembley Dr - MBNS"}}, {"geometry": {"type": "Point", "coordinates": [-75.431205, 40.072993]}, "type": "Feature", "properties": {"route": "124", "id": 7741, "name": "Swedesford Rd &amp; Gateway Shop Ctr - "}}, {"geometry": {"type": "Point", "coordinates": [-75.403605, 40.082004]}, "type": "Feature", "properties": {"route": "124", "id": 7742, "name": "Swedesford Rd &amp; South Warner Rd - F"}}, {"geometry": {"type": "Point", "coordinates": [-75.346875, 40.074233]}, "type": "Feature", "properties": {"route": "124", "id": 8347, "name": "South Gulph Rd &amp; Crooked Ln"}}, {"geometry": {"type": "Point", "coordinates": [-75.345291, 40.073401]}, "type": "Feature", "properties": {"route": "124", "id": 8351, "name": "South Gulph Rd &amp; Gypsy Ln"}}, {"geometry": {"type": "Point", "coordinates": [-75.358359, 40.088618]}, "type": "Feature", "properties": {"route": "124", "id": 8505, "name": "Henderson Rd &amp; Saulin Blvd - MBFS"}}, {"geometry": {"type": "Point", "coordinates": [-75.361325, 40.092636]}, "type": "Feature", "properties": {"route": "124", "id": 8508, "name": "Henderson Rd &amp; Monroe Rd - FS"}}, {"geometry": {"type": "Point", "coordinates": [-75.356426, 40.080852]}, "type": "Feature", "properties": {"route": "124", "id": 8510, "name": "Henderson Rd &amp; Shoemaker Rd - FS"}}, {"geometry": {"type": "Point", "coordinates": [-75.354926, 40.078941]}, "type": "Feature", "properties": {"route": "124", "id": 8513, "name": "Henderson Rd &amp; GulphMills Village D"}}, {"geometry": {"type": "Point", "coordinates": [-75.168056, 39.954061]}, "type": "Feature", "properties": {"route": "124", "id": 8936, "name": "JFK Blvd &amp; 17th St"}}, {"geometry": {"type": "Point", "coordinates": [-75.169567, 39.954251]}, "type": "Feature", "properties": {"route": "124", "id": 8938, "name": "JFK Blvd &amp; 18th St"}}, {"geometry": {"type": "Point", "coordinates": [-75.171208, 39.95446]}, "type": "Feature", "properties": {"route": "124", "id": 8939, "name": "JFK Blvd &amp; 19th St"}}, {"geometry": {"type": "Point", "coordinates": [-75.165475, 39.952547]}, "type": "Feature", "properties": {"route": "124", "id": 10266, "name": "Market St &amp; 15th St"}}, {"geometry": {"type": "Point", "coordinates": [-75.170173, 39.953119]}, "type": "Feature", "properties": {"route": "124", "id": 10272, "name": "Market St &amp; 18th St"}}, {"geometry": {"type": "Point", "coordinates": [-75.17172, 39.953319]}, "type": "Feature", "properties": {"route": "124", "id": 10275, "name": "Market St &amp; 19th St"}}, {"geometry": {"type": "Point", "coordinates": [-75.174918, 39.95387]}, "type": "Feature", "properties": {"route": "124", "id": 10279, "name": "Market St &amp; 21st St"}}, {"geometry": {"type": "Point", "coordinates": [-75.1765, 39.954069]}, "type": "Feature", "properties": {"route": "124", "id": 10281, "name": "Market St &amp; 22nd St"}}, {"geometry": {"type": "Point", "coordinates": [-75.177657, 39.954214]}, "type": "Feature", "properties": {"route": "124", "id": 10282, "name": "Market St &amp; 23rd St"}}, {"geometry": {"type": "Point", "coordinates": [-75.177929, 39.95409]}, "type": "Feature", "properties": {"route": "124", "id": 10283, "name": "Market St &amp; 23rd St"}}, {"geometry": {"type": "Point", "coordinates": [-75.179251, 39.954253]}, "type": "Feature", "properties": {"route": "124", "id": 10285, "name": "Market St &amp; 24th St"}}, {"geometry": {"type": "Point", "coordinates": [-75.401001, 40.084869]}, "type": "Feature", "properties": {"route": "124", "id": 11055, "name": "North Warner Rd &amp; North Gulph Rd - "}}, {"geometry": {"type": "Point", "coordinates": [-75.357228, 40.083887]}, "type": "Feature", "properties": {"route": "124", "id": 14952, "name": "Henderson Rd &amp; Queens Dr"}}, {"geometry": {"type": "Point", "coordinates": [-75.387701, 40.087632]}, "type": "Feature", "properties": {"route": "124", "id": 14953, "name": "Mall Blvd &amp; Court Blvd"}}, {"geometry": {"type": "Point", "coordinates": [-75.414619, 40.079525]}, "type": "Feature", "properties": {"route": "124", "id": 14962, "name": "Swedesford Rd &amp; Old Eagle School Rd"}}, {"geometry": {"type": "Point", "coordinates": [-75.426521, 40.074537]}, "type": "Feature", "properties": {"route": "124", "id": 14963, "name": "Swedesford Rd &amp; West Valley Rd - FS"}}, {"geometry": {"type": "Point", "coordinates": [-75.40461, 40.081737]}, "type": "Feature", "properties": {"route": "124", "id": 14964, "name": "Swedesford Rd &amp; South Warner - MBNS"}}, {"geometry": {"type": "Point", "coordinates": [-75.400823, 40.084958]}, "type": "Feature", "properties": {"route": "124", "id": 14965, "name": "North Warner Rd &amp; North Gulph Rd"}}, {"geometry": {"type": "Point", "coordinates": [-75.381655, 40.088255]}, "type": "Feature", "properties": {"route": "124", "id": 14967, "name": "DeKalb Pk &amp; Allendale Rd - FS"}}, {"geometry": {"type": "Point", "coordinates": [-75.371963, 40.091651]}, "type": "Feature", "properties": {"route": "124", "id": 14968, "name": "DeKalb Pk &amp; Pinecrest Ln - FS"}}, {"geometry": {"type": "Point", "coordinates": [-75.371146, 40.091927]}, "type": "Feature", "properties": {"route": "124", "id": 14969, "name": "DeKalb Pk &amp; Kings Circle - MBNS"}}, {"geometry": {"type": "Point", "coordinates": [-75.361821, 40.093074]}, "type": "Feature", "properties": {"route": "124", "id": 14970, "name": "Henderson Rd &amp; Tyler Rd"}}, {"geometry": {"type": "Point", "coordinates": [-75.357686, 40.087047]}, "type": "Feature", "properties": {"route": "124", "id": 14972, "name": "Henderson Rd &amp; Hansen Access Rd"}}, {"geometry": {"type": "Point", "coordinates": [-75.355104, 40.078888]}, "type": "Feature", "properties": {"route": "124", "id": 14974, "name": "Henderson Rd &amp; Shoemaker Rd - MBFS"}}, {"geometry": {"type": "Point", "coordinates": [-75.347136, 40.074143]}, "type": "Feature", "properties": {"route": "124", "id": 14975, "name": "South Gulph Rd &amp; Crooked Ln"}}, {"geometry": {"type": "Point", "coordinates": [-75.389084, 40.090248]}, "type": "Feature", "properties": {"route": "124", "id": 14978, "name": "Mall Blvd &amp; Wills Blvd - MBFS"}}, {"geometry": {"type": "Point", "coordinates": [-75.364222, 40.094423]}, "type": "Feature", "properties": {"route": "124", "id": 15197, "name": "DeKalb Pk &amp; Henderson Rd - MBFS"}}, {"geometry": {"type": "Point", "coordinates": [-75.164763, 39.953652]}, "type": "Feature", "properties": {"route": "124", "id": 17842, "name": "JFK Blvd &amp; 15th St"}}, {"geometry": {"type": "Point", "coordinates": [-75.174871, 39.9537]}, "type": "Feature", "properties": {"route": "124", "id": 18447, "name": "Market St &amp; 21st St - FS"}}, {"geometry": {"type": "Point", "coordinates": [-75.173325, 39.953509]}, "type": "Feature", "properties": {"route": "124", "id": 18448, "name": "Market St &amp; 20th St"}}, {"geometry": {"type": "Point", "coordinates": [-75.167045, 39.952738]}, "type": "Feature", "properties": {"route": "124", "id": 18451, "name": "Market St &amp; 16th St"}}, {"geometry": {"type": "Point", "coordinates": [-75.439568, 40.071189]}, "type": "Feature", "properties": {"route": "124", "id": 19085, "name": "Swedesford Rd &amp; Valley Forge Rd - M"}}, {"geometry": {"type": "Point", "coordinates": [-75.443542, 40.070868]}, "type": "Feature", "properties": {"route": "124", "id": 19086, "name": "Swedesford Rd &amp; Contention Ln - MBN"}}, {"geometry": {"type": "Point", "coordinates": [-75.446877, 40.069564]}, "type": "Feature", "properties": {"route": "124", "id": 19087, "name": "Swedesford Rd &amp; Contention Ln"}}, {"geometry": {"type": "Point", "coordinates": [-75.452022, 40.067377]}, "type": "Feature", "properties": {"route": "124", "id": 19088, "name": "Swedesford Rd &amp; Contention Ln - MBF"}}, {"geometry": {"type": "Point", "coordinates": [-75.462015, 40.063215]}, "type": "Feature", "properties": {"route": "124", "id": 19089, "name": "Swedesford Rd &amp; Chesterbrook Blvd"}}, {"geometry": {"type": "Point", "coordinates": [-75.451845, 40.067323]}, "type": "Feature", "properties": {"route": "124", "id": 19093, "name": "Swedesford Rd &amp; Contention Ln - MBN"}}, {"geometry": {"type": "Point", "coordinates": [-75.446582, 40.069546]}, "type": "Feature", "properties": {"route": "124", "id": 19094, "name": "Swedesford Rd &amp; Contention Ln - FS"}}, {"geometry": {"type": "Point", "coordinates": [-75.442903, 40.070912]}, "type": "Feature", "properties": {"route": "124", "id": 19095, "name": "Swedesford Rd &amp; Contention Ln - MBF"}}, {"geometry": {"type": "Point", "coordinates": [-75.438621, 40.070886]}, "type": "Feature", "properties": {"route": "124", "id": 19096, "name": "Swedesford Rd &amp; Valley Forge Rd - M"}}, {"geometry": {"type": "Point", "coordinates": [-75.353414, 40.076682]}, "type": "Feature", "properties": {"route": "124", "id": 19097, "name": "Henderson Rd &amp; South Gulph Rd - MBF"}}, {"geometry": {"type": "Point", "coordinates": [-75.463507, 40.068231]}, "type": "Feature", "properties": {"route": "124", "id": 19099, "name": "Duportail Rd &amp; Liberty Ridge Dr"}}, {"geometry": {"type": "Point", "coordinates": [-75.387997, 40.087587]}, "type": "Feature", "properties": {"route": "124", "id": 19101, "name": "Mall Blvd &amp; Court Blvd - FS"}}, {"geometry": {"type": "Point", "coordinates": [-75.176453, 39.953899]}, "type": "Feature", "properties": {"route": "124", "id": 20644, "name": "Market St &amp; 22nd St - FS"}}, {"geometry": {"type": "Point", "coordinates": [-75.181541, 39.954552]}, "type": "Feature", "properties": {"route": "124", "id": 21529, "name": "Market St &amp; Schuylkill Av"}}, {"geometry": {"type": "Point", "coordinates": [-75.17938, 39.954432]}, "type": "Feature", "properties": {"route": "124", "id": 21536, "name": "Market St &amp; 24th St - MBFS"}}, {"geometry": {"type": "Point", "coordinates": [-75.378294, 40.089708]}, "type": "Feature", "properties": {"route": "124", "id": 26818, "name": "DeKalb Pk &amp; Colonial Dr - MBNS"}}, {"geometry": {"type": "Point", "coordinates": [-75.411094, 40.080774]}, "type": "Feature", "properties": {"route": "124", "id": 26819, "name": "Swedesford Rd &amp; Drummers Ln"}}, {"geometry": {"type": "Point", "coordinates": [-75.396266, 40.090375]}, "type": "Feature", "properties": {"route": "124", "id": 26820, "name": "Mall Blvd &amp; Goddard Blvd - FS"}}, {"geometry": {"type": "Point", "coordinates": [-75.436327, 40.070993]}, "type": "Feature", "properties": {"route": "124", "id": 26989, "name": "Swedesford Rd &amp; Valley Forge Rd - F"}}, {"geometry": {"type": "Point", "coordinates": [-75.429667, 40.072475]}, "type": "Feature", "properties": {"route": "124", "id": 29483, "name": "Swedesford Rd &amp; W Valley Rd - MBNS"}}, {"geometry": {"type": "Point", "coordinates": [-75.427857, 40.074117]}, "type": "Feature", "properties": {"route": "124", "id": 29484, "name": "Swedesford Rd &amp; W Valley Rd - FS"}}, {"geometry": {"type": "Point", "coordinates": [-75.390669, 40.090837]}, "type": "Feature", "properties": {"route": "124", "id": 29607, "name": "Mall Blvd &amp; Ballys"}}, {"geometry": {"type": "Point", "coordinates": [-75.402445, 40.082067]}, "type": "Feature", "properties": {"route": "124", "id": 29610, "name": "Swedesford Rd &amp; South Warner Rd - M"}}, {"geometry": {"type": "Point", "coordinates": [-75.396575, 40.086778]}, "type": "Feature", "properties": {"route": "124", "id": 29782, "name": "Mall Blvd &amp; Pulaski Dr"}}, {"geometry": {"type": "Point", "coordinates": [-75.396232, 40.086822]}, "type": "Feature", "properties": {"route": "124", "id": 29783, "name": "Mall Blvd &amp; Pulaski Rd - FS"}}, {"geometry": {"type": "Point", "coordinates": [-75.353781, 40.076959]}, "type": "Feature", "properties": {"route": "124", "id": 29784, "name": "Henderson Rd &amp; South Gulph Rd - MBN"}}, {"geometry": {"type": "Point", "coordinates": [-75.341982, 40.071141]}, "type": "Feature", "properties": {"route": "124", "id": 30333, "name": "Gulph Mills Station  - onsite"}}, {"geometry": {"type": "Point", "coordinates": [-75.180795, 39.955131]}, "type": "Feature", "properties": {"route": "124", "id": 30576, "name": "Schuylkill Av &amp; JFK Blvd"}}, {"geometry": {"type": "Point", "coordinates": [-75.356769, 40.081816]}, "type": "Feature", "properties": {"route": "124", "id": 31571, "name": "Henderson Rd &amp; Shoemaker Rd - FS"}}, {"geometry": {"type": "Point", "coordinates": [-75.368838, 40.092962]}, "type": "Feature", "properties": {"route": "124", "id": 31572, "name": "DeKalb Pk &amp; Town Center Rd - MBFS"}}, {"geometry": {"type": "Point", "coordinates": [-75.463188, 40.068517]}, "type": "Feature", "properties": {"route": "124", "id": 31750, "name": "Dupotail Rd &amp; Liberty Ridge Dr"}}, {"geometry": {"type": "Point", "coordinates": [-75.461837, 40.063046]}, "type": "Feature", "properties": {"route": "124", "id": 31938, "name": "Swedesford Rd &amp; Chesterbrook Blvd -"}}, {"geometry": {"type": "Point", "coordinates": [-75.357393, 40.083887]}, "type": "Feature", "properties": {"route": "124", "id": 32002, "name": "Henderson Rd &amp; Queens Dr - FS"}}, {"geometry": {"type": "Point", "coordinates": [-75.357509, 40.086976]}, "type": "Feature", "properties": {"route": "124", "id": 32003, "name": "Henderson Rd &amp; Hansen Access Rd"}}, {"geometry": {"type": "Point", "coordinates": [-75.358512, 40.089029]}, "type": "Feature", "properties": {"route": "124", "id": 32004, "name": "Henderson Rd &amp; Saulin Blvd - MBNS"}}, {"geometry": {"type": "Point", "coordinates": [-75.414797, 40.079587]}, "type": "Feature", "properties": {"route": "124", "id": 32005, "name": "Swedesford Rd &amp; Old Eagle School Rd"}}]}