{"type": "FeatureCollection", "features": [{"geometry": {"type": "Point", "coordinates": [-75.20724, 40.014897]}, "type": "Feature", "properties": {"route": "125", "id": 28, "name": "Wissahickon Trans Ctr - onsite"}}, {"geometry": {"type": "Point", "coordinates": [-75.18319, 39.955591]}, "type": "Feature", "properties": {"route": "125", "id": 1537, "name": "30th St &amp; Market St - MBNS"}}, {"geometry": {"type": "Point", "coordinates": [-75.342029, 40.071355]}, "type": "Feature", "properties": {"route": "125", "id": 1641, "name": "Gulph Mills Station - on street"}}, {"geometry": {"type": "Point", "coordinates": [-75.414699, 40.095171]}, "type": "Feature", "properties": {"route": "125", "id": 1703, "name": "1st Av &amp; Freedom Business Center Dr"}}, {"geometry": {"type": "Point", "coordinates": [-75.414533, 40.094912]}, "type": "Feature", "properties": {"route": "125", "id": 1716, "name": "1st Av &amp; Freedom Business Center Dr"}}, {"geometry": {"type": "Point", "coordinates": [-75.161283, 39.952672]}, "type": "Feature", "properties": {"route": "125", "id": 1721, "name": "13th St &amp; Market St - MBFS"}}, {"geometry": {"type": "Point", "coordinates": [-75.363397, 40.077955]}, "type": "Feature", "properties": {"route": "125", "id": 1732, "name": "S Gulph Rd &amp; Hilltop Dr"}}, {"geometry": {"type": "Point", "coordinates": [-75.422117, 40.101688]}, "type": "Feature", "properties": {"route": "125", "id": 1737, "name": "Valley Forge National Historic Park"}}, {"geometry": {"type": "Point", "coordinates": [-75.41317, 40.104293]}, "type": "Feature", "properties": {"route": "125", "id": 1738, "name": "Valley Forge Towers"}}, {"geometry": {"type": "Point", "coordinates": [-75.393107, 40.089829]}, "type": "Feature", "properties": {"route": "125", "id": 1827, "name": "Plaza at King of Prussia"}}, {"geometry": {"type": "Point", "coordinates": [-75.399576, 40.096248]}, "type": "Feature", "properties": {"route": "125", "id": 2793, "name": "1st Av &amp; American Av"}}, {"geometry": {"type": "Point", "coordinates": [-75.410735, 40.095206]}, "type": "Feature", "properties": {"route": "125", "id": 2795, "name": "1st Av &amp; Moore Rd"}}, {"geometry": {"type": "Point", "coordinates": [-75.173194, 39.95392]}, "type": "Feature", "properties": {"route": "125", "id": 2821, "name": "20th St &amp; Market St"}}, {"geometry": {"type": "Point", "coordinates": [-75.39806, 40.101229]}, "type": "Feature", "properties": {"route": "125", "id": 4351, "name": "Allendale Rd &amp; 3rd Av - FS"}}, {"geometry": {"type": "Point", "coordinates": [-75.395126, 40.099157]}, "type": "Feature", "properties": {"route": "125", "id": 4379, "name": "Allendale Rd &amp; 1st Av - MBFS"}}, {"geometry": {"type": "Point", "coordinates": [-75.164041, 39.950804]}, "type": "Feature", "properties": {"route": "125", "id": 6115, "name": "Chestnut St &amp; Broad St"}}, {"geometry": {"type": "Point", "coordinates": [-75.401008, 40.095731]}, "type": "Feature", "properties": {"route": "125", "id": 7360, "name": "1st Av &amp; Clark Av - FS"}}, {"geometry": {"type": "Point", "coordinates": [-75.410747, 40.094939]}, "type": "Feature", "properties": {"route": "125", "id": 7361, "name": "1st Av &amp; Moore Rd - FS"}}, {"geometry": {"type": "Point", "coordinates": [-75.403943, 40.095402]}, "type": "Feature", "properties": {"route": "125", "id": 7363, "name": "1st Av &amp; Clark Av - MBFS"}}, {"geometry": {"type": "Point", "coordinates": [-75.396985, 40.097283]}, "type": "Feature", "properties": {"route": "125", "id": 7365, "name": "1st Av &amp; Allendale Rd - MBNS"}}, {"geometry": {"type": "Point", "coordinates": [-75.375224, 40.081344]}, "type": "Feature", "properties": {"route": "125", "id": 8345, "name": "South Gulph Rd &amp; Brooks Rd"}}, {"geometry": {"type": "Point", "coordinates": [-75.373403, 40.080914]}, "type": "Feature", "properties": {"route": "125", "id": 8346, "name": "South Gulph Rd &amp; Church Rd"}}, {"geometry": {"type": "Point", "coordinates": [-75.346875, 40.074233]}, "type": "Feature", "properties": {"route": "125", "id": 8347, "name": "South Gulph Rd &amp; Crooked Ln"}}, {"geometry": {"type": "Point", "coordinates": [-75.365573, 40.078608]}, "type": "Feature", "properties": {"route": "125", "id": 8349, "name": "South Gulph Rd &amp; Valley View Rd - M"}}, {"geometry": {"type": "Point", "coordinates": [-75.345291, 40.073401]}, "type": "Feature", "properties": {"route": "125", "id": 8351, "name": "South Gulph Rd &amp; Gypsy Ln"}}, {"geometry": {"type": "Point", "coordinates": [-75.361363, 40.077383]}, "type": "Feature", "properties": {"route": "125", "id": 8354, "name": "South Gulph Rd &amp; Lewis Rd - FS"}}, {"geometry": {"type": "Point", "coordinates": [-75.380665, 40.082649]}, "type": "Feature", "properties": {"route": "125", "id": 8355, "name": "South Gulph Rd &amp; Long Rd - FS"}}, {"geometry": {"type": "Point", "coordinates": [-75.368211, 40.079404]}, "type": "Feature", "properties": {"route": "125", "id": 8356, "name": "South Gulph Rd &amp; Orchard Rd"}}, {"geometry": {"type": "Point", "coordinates": [-75.168056, 39.954061]}, "type": "Feature", "properties": {"route": "125", "id": 8936, "name": "JFK Blvd &amp; 17th St"}}, {"geometry": {"type": "Point", "coordinates": [-75.169567, 39.954251]}, "type": "Feature", "properties": {"route": "125", "id": 8938, "name": "JFK Blvd &amp; 18th St"}}, {"geometry": {"type": "Point", "coordinates": [-75.171208, 39.95446]}, "type": "Feature", "properties": {"route": "125", "id": 8939, "name": "JFK Blvd &amp; 19th St"}}, {"geometry": {"type": "Point", "coordinates": [-75.165475, 39.952547]}, "type": "Feature", "properties": {"route": "125", "id": 10266, "name": "Market St &amp; 15th St"}}, {"geometry": {"type": "Point", "coordinates": [-75.170173, 39.953119]}, "type": "Feature", "properties": {"route": "125", "id": 10272, "name": "Market St &amp; 18th St"}}, {"geometry": {"type": "Point", "coordinates": [-75.17172, 39.953319]}, "type": "Feature", "properties": {"route": "125", "id": 10275, "name": "Market St &amp; 19th St"}}, {"geometry": {"type": "Point", "coordinates": [-75.174918, 39.95387]}, "type": "Feature", "properties": {"route": "125", "id": 10279, "name": "Market St &amp; 21st St"}}, {"geometry": {"type": "Point", "coordinates": [-75.1765, 39.954069]}, "type": "Feature", "properties": {"route": "125", "id": 10281, "name": "Market St &amp; 22nd St"}}, {"geometry": {"type": "Point", "coordinates": [-75.177657, 39.954214]}, "type": "Feature", "properties": {"route": "125", "id": 10282, "name": "Market St &amp; 23rd St"}}, {"geometry": {"type": "Point", "coordinates": [-75.177929, 39.95409]}, "type": "Feature", "properties": {"route": "125", "id": 10283, "name": "Market St &amp; 23rd St"}}, {"geometry": {"type": "Point", "coordinates": [-75.179251, 39.954253]}, "type": "Feature", "properties": {"route": "125", "id": 10285, "name": "Market St &amp; 24th St"}}, {"geometry": {"type": "Point", "coordinates": [-75.415918, 40.092413]}, "type": "Feature", "properties": {"route": "125", "id": 10909, "name": "North Gulph Rd &amp; Freedom Business C"}}, {"geometry": {"type": "Point", "coordinates": [-75.413091, 40.089932]}, "type": "Feature", "properties": {"route": "125", "id": 10910, "name": "North Gulph Rd &amp; Guthrie Rd"}}, {"geometry": {"type": "Point", "coordinates": [-75.375556, 40.081246]}, "type": "Feature", "properties": {"route": "125", "id": 12964, "name": "South Gulph Rd &amp; Brooks Rd"}}, {"geometry": {"type": "Point", "coordinates": [-75.373876, 40.080879]}, "type": "Feature", "properties": {"route": "125", "id": 12965, "name": "South Gulph Rd &amp; Church Rd - FS"}}, {"geometry": {"type": "Point", "coordinates": [-75.38755, 40.084365]}, "type": "Feature", "properties": {"route": "125", "id": 12967, "name": "South Gulph Rd &amp; DeKalb Pk - FS"}}, {"geometry": {"type": "Point", "coordinates": [-75.365763, 40.078474]}, "type": "Feature", "properties": {"route": "125", "id": 12968, "name": "South Gulph Rd &amp; Valley View Rd - M"}}, {"geometry": {"type": "Point", "coordinates": [-75.3539, 40.075888]}, "type": "Feature", "properties": {"route": "125", "id": 12970, "name": "South Gulph Rd &amp; Henderson Rd"}}, {"geometry": {"type": "Point", "coordinates": [-75.361682, 40.07733]}, "type": "Feature", "properties": {"route": "125", "id": 12972, "name": "South Gulph Rd &amp; Lewis Rd"}}, {"geometry": {"type": "Point", "coordinates": [-75.380311, 40.082408]}, "type": "Feature", "properties": {"route": "125", "id": 12973, "name": "South Gulph Rd &amp; Long Rd - FS"}}, {"geometry": {"type": "Point", "coordinates": [-75.368305, 40.079252]}, "type": "Feature", "properties": {"route": "125", "id": 12974, "name": "South Gulph Rd &amp; Orchard Rd - FS"}}, {"geometry": {"type": "Point", "coordinates": [-75.370446, 40.079922]}, "type": "Feature", "properties": {"route": "125", "id": 12976, "name": "South Gulph Rd &amp; Glen Arbor Court -"}}, {"geometry": {"type": "Point", "coordinates": [-75.400698, 40.103023]}, "type": "Feature", "properties": {"route": "125", "id": 13882, "name": "Valley Forge Rd &amp; Geerdes Blvd"}}, {"geometry": {"type": "Point", "coordinates": [-75.387701, 40.087632]}, "type": "Feature", "properties": {"route": "125", "id": 14953, "name": "Mall Blvd &amp; Court Blvd"}}, {"geometry": {"type": "Point", "coordinates": [-75.347136, 40.074143]}, "type": "Feature", "properties": {"route": "125", "id": 14975, "name": "South Gulph Rd &amp; Crooked Ln"}}, {"geometry": {"type": "Point", "coordinates": [-75.369665, 40.079895]}, "type": "Feature", "properties": {"route": "125", "id": 14977, "name": "South Gulph Rd &amp; Glen Arbor Court"}}, {"geometry": {"type": "Point", "coordinates": [-75.389084, 40.090248]}, "type": "Feature", "properties": {"route": "125", "id": 14978, "name": "Mall Blvd &amp; Wills Blvd - MBFS"}}, {"geometry": {"type": "Point", "coordinates": [-75.398059, 40.101532]}, "type": "Feature", "properties": {"route": "125", "id": 14979, "name": "Allendale Rd &amp; 3rd Av"}}, {"geometry": {"type": "Point", "coordinates": [-75.39747, 40.097257]}, "type": "Feature", "properties": {"route": "125", "id": 14982, "name": "1st Av &amp; Allendale Rd - MBFS"}}, {"geometry": {"type": "Point", "coordinates": [-75.406215, 40.095152]}, "type": "Feature", "properties": {"route": "125", "id": 14983, "name": "1st Av &amp; Park Av"}}, {"geometry": {"type": "Point", "coordinates": [-75.412913, 40.089575]}, "type": "Feature", "properties": {"route": "125", "id": 14984, "name": "North Gulph Rd &amp; Guthrie Rd - FS"}}, {"geometry": {"type": "Point", "coordinates": [-75.382865, 40.082998]}, "type": "Feature", "properties": {"route": "125", "id": 14986, "name": "South Gulph Rd &amp; Hayley Jackson Way"}}, {"geometry": {"type": "Point", "coordinates": [-75.164763, 39.953652]}, "type": "Feature", "properties": {"route": "125", "id": 17842, "name": "JFK Blvd &amp; 15th St"}}, {"geometry": {"type": "Point", "coordinates": [-75.174871, 39.9537]}, "type": "Feature", "properties": {"route": "125", "id": 18447, "name": "Market St &amp; 21st St - FS"}}, {"geometry": {"type": "Point", "coordinates": [-75.173325, 39.953509]}, "type": "Feature", "properties": {"route": "125", "id": 18448, "name": "Market St &amp; 20th St"}}, {"geometry": {"type": "Point", "coordinates": [-75.167045, 39.952738]}, "type": "Feature", "properties": {"route": "125", "id": 18451, "name": "Market St &amp; 16th St"}}, {"geometry": {"type": "Point", "coordinates": [-75.387997, 40.087587]}, "type": "Feature", "properties": {"route": "125", "id": 19101, "name": "Mall Blvd &amp; Court Blvd - FS"}}, {"geometry": {"type": "Point", "coordinates": [-75.176453, 39.953899]}, "type": "Feature", "properties": {"route": "125", "id": 20644, "name": "Market St &amp; 22nd St - FS"}}, {"geometry": {"type": "Point", "coordinates": [-75.181541, 39.954552]}, "type": "Feature", "properties": {"route": "125", "id": 21529, "name": "Market St &amp; Schuylkill Av"}}, {"geometry": {"type": "Point", "coordinates": [-75.17938, 39.954432]}, "type": "Feature", "properties": {"route": "125", "id": 21536, "name": "Market St &amp; 24th St - MBFS"}}, {"geometry": {"type": "Point", "coordinates": [-75.395138, 40.098336]}, "type": "Feature", "properties": {"route": "125", "id": 27844, "name": "1st Av &amp; Allendale Rd - FS"}}, {"geometry": {"type": "Point", "coordinates": [-75.4067, 40.094992]}, "type": "Feature", "properties": {"route": "125", "id": 27921, "name": "1st Av &amp; Park Av - FS"}}, {"geometry": {"type": "Point", "coordinates": [-75.395115, 40.098184]}, "type": "Feature", "properties": {"route": "125", "id": 27923, "name": "1st Av &amp; Allendale Rd"}}, {"geometry": {"type": "Point", "coordinates": [-75.399389, 40.091937]}, "type": "Feature", "properties": {"route": "125", "id": 28978, "name": "Goddard Blvd &amp; Mall Blvd - MBFS"}}, {"geometry": {"type": "Point", "coordinates": [-75.408347, 40.088958]}, "type": "Feature", "properties": {"route": "125", "id": 28979, "name": "Goddard Blvd &amp; North Gulph Rd"}}, {"geometry": {"type": "Point", "coordinates": [-75.408039, 40.089119]}, "type": "Feature", "properties": {"route": "125", "id": 28980, "name": "Goddard Blvd &amp; North Gulph Rd - FS"}}, {"geometry": {"type": "Point", "coordinates": [-75.397319, 40.091169]}, "type": "Feature", "properties": {"route": "125", "id": 28981, "name": "Goddard Blvd &amp; Mall Blvd - 2 MBNS"}}, {"geometry": {"type": "Point", "coordinates": [-75.390669, 40.090837]}, "type": "Feature", "properties": {"route": "125", "id": 29607, "name": "Mall Blvd &amp; Ballys"}}, {"geometry": {"type": "Point", "coordinates": [-75.408555, 40.105363]}, "type": "Feature", "properties": {"route": "125", "id": 29725, "name": "Valley Forge Rd &amp; Mancill Mill Rd"}}, {"geometry": {"type": "Point", "coordinates": [-75.404011, 40.103899]}, "type": "Feature", "properties": {"route": "125", "id": 29726, "name": "Valley Forge Rd &amp; 5th Av - FS"}}, {"geometry": {"type": "Point", "coordinates": [-75.409135, 40.104712]}, "type": "Feature", "properties": {"route": "125", "id": 29730, "name": "Valley Forge Rd &amp; Mancill Mill Rd -"}}, {"geometry": {"type": "Point", "coordinates": [-75.40207, 40.10372]}, "type": "Feature", "properties": {"route": "125", "id": 29731, "name": "Valley Forge Rd &amp; Vandenberg Blvd"}}, {"geometry": {"type": "Point", "coordinates": [-75.399779, 40.092]}, "type": "Feature", "properties": {"route": "125", "id": 29779, "name": "Goddard Blvd &amp; Mall Blvd - 1 MBNS"}}, {"geometry": {"type": "Point", "coordinates": [-75.341982, 40.071141]}, "type": "Feature", "properties": {"route": "125", "id": 30333, "name": "Gulph Mills Station  - onsite"}}, {"geometry": {"type": "Point", "coordinates": [-75.411253, 40.103177]}, "type": "Feature", "properties": {"route": "125", "id": 30490, "name": "BNY Mellon"}}, {"geometry": {"type": "Point", "coordinates": [-75.180795, 39.955131]}, "type": "Feature", "properties": {"route": "125", "id": 30576, "name": "Schuylkill Av &amp; JFK Blvd"}}, {"geometry": {"type": "Point", "coordinates": [-75.385444, 40.08374]}, "type": "Feature", "properties": {"route": "125", "id": 31598, "name": "South Gulph Rd &amp; Bill Smith Blvd - "}}, {"geometry": {"type": "Point", "coordinates": [-75.38542, 40.083936]}, "type": "Feature", "properties": {"route": "125", "id": 31599, "name": "South Gulph Rd &amp; Bill Smith Dlvd"}}, {"geometry": {"type": "Point", "coordinates": [-75.383078, 40.083275]}, "type": "Feature", "properties": {"route": "125", "id": 31600, "name": "South Gulph Rd &amp; Hayley Jackson Way"}}, {"geometry": {"type": "Point", "coordinates": [-75.387904, 40.084713]}, "type": "Feature", "properties": {"route": "125", "id": 31601, "name": "South Gulph Rd &amp; Dekalb Pk - MBNS"}}, {"geometry": {"type": "Point", "coordinates": [-75.353344, 40.075941]}, "type": "Feature", "properties": {"route": "125", "id": 31756, "name": "South Gulph Rd &amp; Henderson Rd - FS"}}, {"geometry": {"type": "Point", "coordinates": [-75.404236, 40.104157]}, "type": "Feature", "properties": {"route": "125", "id": 31760, "name": "Valley Forge Rd &amp; 5th Av"}}]}