{"type": "FeatureCollection", "features": [{"geometry": {"type": "Point", "coordinates": [-75.536039, 40.133516]}, "type": "Feature", "properties": {"route": "139", "id": 1707, "name": "Phoenixville Plaza"}}, {"geometry": {"type": "Point", "coordinates": [-75.547575, 40.179625]}, "type": "Feature", "properties": {"route": "139", "id": 1708, "name": "New St &amp; Main St"}}, {"geometry": {"type": "Point", "coordinates": [-75.525709, 40.199566]}, "type": "Feature", "properties": {"route": "139", "id": 1709, "name": "Limerick Square Shopping Center"}}, {"geometry": {"type": "Point", "coordinates": [-75.547717, 40.179768]}, "type": "Feature", "properties": {"route": "139", "id": 1711, "name": "Main St &amp; New St"}}, {"geometry": {"type": "Point", "coordinates": [-75.393107, 40.089829]}, "type": "Feature", "properties": {"route": "139", "id": 1827, "name": "Plaza at King of Prussia"}}, {"geometry": {"type": "Point", "coordinates": [-75.415918, 40.092413]}, "type": "Feature", "properties": {"route": "139", "id": 10909, "name": "North Gulph Rd &amp; Freedom Business C"}}, {"geometry": {"type": "Point", "coordinates": [-75.413091, 40.089932]}, "type": "Feature", "properties": {"route": "139", "id": 10910, "name": "North Gulph Rd &amp; Guthrie Rd"}}, {"geometry": {"type": "Point", "coordinates": [-75.412913, 40.089575]}, "type": "Feature", "properties": {"route": "139", "id": 14984, "name": "North Gulph Rd &amp; Guthrie Rd - FS"}}, {"geometry": {"type": "Point", "coordinates": [-75.417515, 40.095671]}, "type": "Feature", "properties": {"route": "139", "id": 19687, "name": "North Gulph Rd &amp; 1st Av"}}, {"geometry": {"type": "Point", "coordinates": [-75.515865, 40.132728]}, "type": "Feature", "properties": {"route": "139", "id": 19688, "name": "Main St &amp; Church St - FS"}}, {"geometry": {"type": "Point", "coordinates": [-75.417219, 40.095859]}, "type": "Feature", "properties": {"route": "139", "id": 19689, "name": "North Gulph Rd &amp; 1st Av - MBFS"}}, {"geometry": {"type": "Point", "coordinates": [-75.515723, 40.132809]}, "type": "Feature", "properties": {"route": "139", "id": 19690, "name": "Main St &amp; Church St"}}, {"geometry": {"type": "Point", "coordinates": [-75.481458, 40.112192]}, "type": "Feature", "properties": {"route": "139", "id": 19691, "name": "Valley Forge Rd &amp; Ferry Ln"}}, {"geometry": {"type": "Point", "coordinates": [-75.481589, 40.112049]}, "type": "Feature", "properties": {"route": "139", "id": 19692, "name": "Valley Forge Rd &amp; Country Club Rd -"}}, {"geometry": {"type": "Point", "coordinates": [-75.500235, 40.214561]}, "type": "Feature", "properties": {"route": "139", "id": 20420, "name": "Township Line Rd &amp; Ridge Pk - FS"}}, {"geometry": {"type": "Point", "coordinates": [-75.518352, 40.133771]}, "type": "Feature", "properties": {"route": "139", "id": 27887, "name": "Bridge St &amp; Gay St"}}, {"geometry": {"type": "Point", "coordinates": [-75.420461, 40.100929]}, "type": "Feature", "properties": {"route": "139", "id": 28851, "name": "North Gulph Rd &amp; Valley Forge Rd - "}}, {"geometry": {"type": "Point", "coordinates": [-75.436105, 40.104455]}, "type": "Feature", "properties": {"route": "139", "id": 28853, "name": "Valley Forge Park Dr &amp; Washington M"}}, {"geometry": {"type": "Point", "coordinates": [-75.461641, 40.100024]}, "type": "Feature", "properties": {"route": "139", "id": 28854, "name": "Valley Forge Rd &amp; Valley Creek Rd"}}, {"geometry": {"type": "Point", "coordinates": [-75.477407, 40.106374]}, "type": "Feature", "properties": {"route": "139", "id": 28858, "name": "Valley Forge Rd &amp; Eastgate Dr"}}, {"geometry": {"type": "Point", "coordinates": [-75.484585, 40.115118]}, "type": "Feature", "properties": {"route": "139", "id": 28862, "name": "Valley Forge Rd &amp; Lafayette Rd"}}, {"geometry": {"type": "Point", "coordinates": [-75.488162, 40.117981]}, "type": "Feature", "properties": {"route": "139", "id": 28863, "name": "Valley Forge Rd &amp; McAvoy Ln"}}, {"geometry": {"type": "Point", "coordinates": [-75.497894, 40.12044]}, "type": "Feature", "properties": {"route": "139", "id": 28864, "name": "Valley Forge Rd &amp; Morehall Dr"}}, {"geometry": {"type": "Point", "coordinates": [-75.502936, 40.120089]}, "type": "Feature", "properties": {"route": "139", "id": 28866, "name": "Valley Forge Rd &amp; Whitehorse Rd"}}, {"geometry": {"type": "Point", "coordinates": [-75.513382, 40.12559]}, "type": "Feature", "properties": {"route": "139", "id": 28872, "name": "Main St &amp; 5th Av"}}, {"geometry": {"type": "Point", "coordinates": [-75.514024, 40.127526]}, "type": "Feature", "properties": {"route": "139", "id": 28874, "name": "Main St &amp; 3rd Av"}}, {"geometry": {"type": "Point", "coordinates": [-75.514641, 40.129445]}, "type": "Feature", "properties": {"route": "139", "id": 28876, "name": "Main St &amp; 1st Av"}}, {"geometry": {"type": "Point", "coordinates": [-75.51495, 40.130435]}, "type": "Feature", "properties": {"route": "139", "id": 28877, "name": "Main St &amp; Washington Av"}}, {"geometry": {"type": "Point", "coordinates": [-75.51857, 40.137814]}, "type": "Feature", "properties": {"route": "139", "id": 28879, "name": "Franklin St &amp; High St"}}, {"geometry": {"type": "Point", "coordinates": [-75.52166, 40.137633]}, "type": "Feature", "properties": {"route": "139", "id": 28880, "name": "High St &amp; Fairview St"}}, {"geometry": {"type": "Point", "coordinates": [-75.523945, 40.137337]}, "type": "Feature", "properties": {"route": "139", "id": 28881, "name": "High St &amp; Taylor St"}}, {"geometry": {"type": "Point", "coordinates": [-75.532104, 40.13858]}, "type": "Feature", "properties": {"route": "139", "id": 28882, "name": "Mowere Rd &amp; Northridge Dr - FS"}}, {"geometry": {"type": "Point", "coordinates": [-75.53878, 40.137539]}, "type": "Feature", "properties": {"route": "139", "id": 28884, "name": "Township Line Rd &amp; Szabo Farm Ln"}}, {"geometry": {"type": "Point", "coordinates": [-75.535197, 40.13233]}, "type": "Feature", "properties": {"route": "139", "id": 28885, "name": "Schuylkill Rd &amp; Kimberton Rd - FS"}}, {"geometry": {"type": "Point", "coordinates": [-75.543456, 40.136982]}, "type": "Feature", "properties": {"route": "139", "id": 28886, "name": "Schuylkill Rd &amp; Otis Ln - MBNS"}}, {"geometry": {"type": "Point", "coordinates": [-75.546646, 40.140237]}, "type": "Feature", "properties": {"route": "139", "id": 28888, "name": "Schuylkill Rd &amp; Mowere Rd - FS"}}, {"geometry": {"type": "Point", "coordinates": [-75.54844, 40.144323]}, "type": "Feature", "properties": {"route": "139", "id": 28889, "name": "Schuylkill Rd &amp; Ridge Rd - FS"}}, {"geometry": {"type": "Point", "coordinates": [-75.551535, 40.154005]}, "type": "Feature", "properties": {"route": "139", "id": 28891, "name": "Schuylkill Rd &amp; Hares Hill Rd"}}, {"geometry": {"type": "Point", "coordinates": [-75.553154, 40.158636]}, "type": "Feature", "properties": {"route": "139", "id": 28892, "name": "Schuylkill Rd &amp; Spring Hollow Rd"}}, {"geometry": {"type": "Point", "coordinates": [-75.558487, 40.173911]}, "type": "Feature", "properties": {"route": "139", "id": 28895, "name": "Schuylkill Rd &amp; Park Rd"}}, {"geometry": {"type": "Point", "coordinates": [-75.557234, 40.175626]}, "type": "Feature", "properties": {"route": "139", "id": 28896, "name": "New St &amp; Vincent Heights Cr - FS"}}, {"geometry": {"type": "Point", "coordinates": [-75.551292, 40.178069]}, "type": "Feature", "properties": {"route": "139", "id": 28898, "name": "New St &amp; Penn St"}}, {"geometry": {"type": "Point", "coordinates": [-75.549126, 40.178972]}, "type": "Feature", "properties": {"route": "139", "id": 28899, "name": "New St &amp; Church St"}}, {"geometry": {"type": "Point", "coordinates": [-75.548264, 40.180955]}, "type": "Feature", "properties": {"route": "139", "id": 28900, "name": "Main St &amp; Yost St - MBFS"}}, {"geometry": {"type": "Point", "coordinates": [-75.543434, 40.182932]}, "type": "Feature", "properties": {"route": "139", "id": 28903, "name": "Main St &amp; 1st Av - MBFS"}}, {"geometry": {"type": "Point", "coordinates": [-75.5409, 40.183657]}, "type": "Feature", "properties": {"route": "139", "id": 28905, "name": "Main St &amp; 3rd Av"}}, {"geometry": {"type": "Point", "coordinates": [-75.539125, 40.185105]}, "type": "Feature", "properties": {"route": "139", "id": 28906, "name": "Main St &amp; 4th Av"}}, {"geometry": {"type": "Point", "coordinates": [-75.537563, 40.1864]}, "type": "Feature", "properties": {"route": "139", "id": 28907, "name": "Main St &amp; 5th Av"}}, {"geometry": {"type": "Point", "coordinates": [-75.534522, 40.188884]}, "type": "Feature", "properties": {"route": "139", "id": 28909, "name": "Main St &amp; 7th Av"}}, {"geometry": {"type": "Point", "coordinates": [-75.532143, 40.19085]}, "type": "Feature", "properties": {"route": "139", "id": 28910, "name": "Main St &amp; Lewis Rd"}}, {"geometry": {"type": "Point", "coordinates": [-75.532037, 40.19118]}, "type": "Feature", "properties": {"route": "139", "id": 28919, "name": "Main St &amp; Lewis Rd"}}, {"geometry": {"type": "Point", "coordinates": [-75.53754, 40.186641]}, "type": "Feature", "properties": {"route": "139", "id": 28922, "name": "Main St &amp; 5th Av"}}, {"geometry": {"type": "Point", "coordinates": [-75.539101, 40.185337]}, "type": "Feature", "properties": {"route": "139", "id": 28923, "name": "Main St &amp; 4th Av"}}, {"geometry": {"type": "Point", "coordinates": [-75.540379, 40.184291]}, "type": "Feature", "properties": {"route": "139", "id": 28924, "name": "Main St &amp; 3rd Av"}}, {"geometry": {"type": "Point", "coordinates": [-75.542285, 40.183361]}, "type": "Feature", "properties": {"route": "139", "id": 28925, "name": "Main St &amp; 2nd Av"}}, {"geometry": {"type": "Point", "coordinates": [-75.548346, 40.180606]}, "type": "Feature", "properties": {"route": "139", "id": 28928, "name": "Main St &amp; Yost St"}}, {"geometry": {"type": "Point", "coordinates": [-75.548972, 40.179196]}, "type": "Feature", "properties": {"route": "139", "id": 28929, "name": "New St &amp; Church St"}}, {"geometry": {"type": "Point", "coordinates": [-75.551174, 40.178283]}, "type": "Feature", "properties": {"route": "139", "id": 28930, "name": "New St &amp; Penn St"}}, {"geometry": {"type": "Point", "coordinates": [-75.557187, 40.175778]}, "type": "Feature", "properties": {"route": "139", "id": 28932, "name": "New St &amp; Schuykill Rd - MBNS"}}, {"geometry": {"type": "Point", "coordinates": [-75.558867, 40.174277]}, "type": "Feature", "properties": {"route": "139", "id": 28933, "name": "Schuylkill Rd Rd &amp; Cypress Av"}}, {"geometry": {"type": "Point", "coordinates": [-75.553367, 40.158591]}, "type": "Feature", "properties": {"route": "139", "id": 28936, "name": "Schuylkill Rd &amp; Bonnie Brae Rd"}}, {"geometry": {"type": "Point", "coordinates": [-75.551177, 40.152264]}, "type": "Feature", "properties": {"route": "139", "id": 28937, "name": "Schuylkill Rd &amp; Hares Hill Rd - MBF"}}, {"geometry": {"type": "Point", "coordinates": [-75.548522, 40.143573]}, "type": "Feature", "properties": {"route": "139", "id": 28939, "name": "Schuylkill Rd &amp; Ridge Rd"}}, {"geometry": {"type": "Point", "coordinates": [-75.542922, 40.136143]}, "type": "Feature", "properties": {"route": "139", "id": 28942, "name": "Schuylkill Rd &amp; Shoppes at Valley F"}}, {"geometry": {"type": "Point", "coordinates": [-75.538626, 40.137406]}, "type": "Feature", "properties": {"route": "139", "id": 28943, "name": "Township Line Rd &amp; Westridge Dr"}}, {"geometry": {"type": "Point", "coordinates": [-75.533418, 40.138454]}, "type": "Feature", "properties": {"route": "139", "id": 28945, "name": "Mowere Rd &amp; Westridge Dr"}}, {"geometry": {"type": "Point", "coordinates": [-75.524205, 40.137176]}, "type": "Feature", "properties": {"route": "139", "id": 28946, "name": "High St &amp; Taylor St"}}, {"geometry": {"type": "Point", "coordinates": [-75.521849, 40.137464]}, "type": "Feature", "properties": {"route": "139", "id": 28947, "name": "High St &amp; Fairview St"}}, {"geometry": {"type": "Point", "coordinates": [-75.518807, 40.137885]}, "type": "Feature", "properties": {"route": "139", "id": 28948, "name": "High St &amp; Franklin St"}}, {"geometry": {"type": "Point", "coordinates": [-75.515187, 40.130569]}, "type": "Feature", "properties": {"route": "139", "id": 28951, "name": "Main St &amp; Washington Av"}}, {"geometry": {"type": "Point", "coordinates": [-75.514878, 40.129569]}, "type": "Feature", "properties": {"route": "139", "id": 28952, "name": "Main St &amp; 1st Av"}}, {"geometry": {"type": "Point", "coordinates": [-75.514261, 40.127642]}, "type": "Feature", "properties": {"route": "139", "id": 28954, "name": "Main St &amp; 3rd Av"}}, {"geometry": {"type": "Point", "coordinates": [-75.51356, 40.125456]}, "type": "Feature", "properties": {"route": "139", "id": 28956, "name": "Main St &amp; 5th Av - FS"}}, {"geometry": {"type": "Point", "coordinates": [-75.51312, 40.124126]}, "type": "Feature", "properties": {"route": "139", "id": 28957, "name": "Main St &amp; Nutt Rd"}}, {"geometry": {"type": "Point", "coordinates": [-75.503492, 40.11999]}, "type": "Feature", "properties": {"route": "139", "id": 28962, "name": "Valley Forge Rd &amp; Whitehorse Rd"}}, {"geometry": {"type": "Point", "coordinates": [-75.498178, 40.120261]}, "type": "Feature", "properties": {"route": "139", "id": 28964, "name": "Valley Forge Rd &amp; Dorchester Way"}}, {"geometry": {"type": "Point", "coordinates": [-75.487522, 40.1175]}, "type": "Feature", "properties": {"route": "139", "id": 28965, "name": "Valley Forge Rd &amp; Pawlings Rd"}}, {"geometry": {"type": "Point", "coordinates": [-75.484929, 40.115216]}, "type": "Feature", "properties": {"route": "139", "id": 28966, "name": "Valley Forge Rd &amp; Lafayette Cr"}}, {"geometry": {"type": "Point", "coordinates": [-75.477774, 40.106516]}, "type": "Feature", "properties": {"route": "139", "id": 28970, "name": "Valley Forge Rd &amp; Eastgate Dr"}}, {"geometry": {"type": "Point", "coordinates": [-75.461428, 40.099872]}, "type": "Feature", "properties": {"route": "139", "id": 28972, "name": "Valley Forge Rd &amp; Valley Creek Rd -"}}, {"geometry": {"type": "Point", "coordinates": [-75.438661, 40.104169]}, "type": "Feature", "properties": {"route": "139", "id": 28975, "name": "Valley Forge Park Dr &amp; Washingtom M"}}, {"geometry": {"type": "Point", "coordinates": [-75.420567, 40.10075]}, "type": "Feature", "properties": {"route": "139", "id": 28977, "name": "North Gulph Rd &amp; Valley Forge Rd"}}, {"geometry": {"type": "Point", "coordinates": [-75.399389, 40.091937]}, "type": "Feature", "properties": {"route": "139", "id": 28978, "name": "Goddard Blvd &amp; Mall Blvd - MBFS"}}, {"geometry": {"type": "Point", "coordinates": [-75.408347, 40.088958]}, "type": "Feature", "properties": {"route": "139", "id": 28979, "name": "Goddard Blvd &amp; North Gulph Rd"}}, {"geometry": {"type": "Point", "coordinates": [-75.408039, 40.089119]}, "type": "Feature", "properties": {"route": "139", "id": 28980, "name": "Goddard Blvd &amp; North Gulph Rd - FS"}}, {"geometry": {"type": "Point", "coordinates": [-75.397319, 40.091169]}, "type": "Feature", "properties": {"route": "139", "id": 28981, "name": "Goddard Blvd &amp; Mall Blvd - 2 MBNS"}}, {"geometry": {"type": "Point", "coordinates": [-75.553896, 40.176933]}, "type": "Feature", "properties": {"route": "139", "id": 29695, "name": "New St &amp; Wall St"}}, {"geometry": {"type": "Point", "coordinates": [-75.547839, 40.181732]}, "type": "Feature", "properties": {"route": "139", "id": 29778, "name": "Bridge St &amp; Main St"}}, {"geometry": {"type": "Point", "coordinates": [-75.399779, 40.092]}, "type": "Feature", "properties": {"route": "139", "id": 29779, "name": "Goddard Blvd &amp; Mall Blvd - 1 MBNS"}}, {"geometry": {"type": "Point", "coordinates": [-75.50058, 40.215507]}, "type": "Feature", "properties": {"route": "139", "id": 30437, "name": "Ridge Pike &amp; Township Line Rd - FS"}}, {"geometry": {"type": "Point", "coordinates": [-75.512824, 40.123867]}, "type": "Feature", "properties": {"route": "139", "id": 30502, "name": "Main St &amp; Nutt Rd - FS"}}, {"geometry": {"type": "Point", "coordinates": [-75.547259, 40.181795]}, "type": "Feature", "properties": {"route": "139", "id": 30579, "name": "Bridge St &amp; Main St - MBFS"}}, {"geometry": {"type": "Point", "coordinates": [-75.530418, 40.19402]}, "type": "Feature", "properties": {"route": "139", "id": 30580, "name": "10th Av &amp; Church St"}}, {"geometry": {"type": "Point", "coordinates": [-75.53164, 40.19534]}, "type": "Feature", "properties": {"route": "139", "id": 30581, "name": "10th Av &amp; Royersford Rd"}}, {"geometry": {"type": "Point", "coordinates": [-75.531723, 40.195509]}, "type": "Feature", "properties": {"route": "139", "id": 30582, "name": "Royersford Rd &amp; 10th Av"}}, {"geometry": {"type": "Point", "coordinates": [-75.529552, 40.193253]}, "type": "Feature", "properties": {"route": "139", "id": 30583, "name": "10th &amp; Main St"}}, {"geometry": {"type": "Point", "coordinates": [-75.507565, 40.12147]}, "type": "Feature", "properties": {"route": "139", "id": 30584, "name": "Valley Forge Rd &amp; Kleyona Av"}}, {"geometry": {"type": "Point", "coordinates": [-75.516482, 40.133862]}, "type": "Feature", "properties": {"route": "139", "id": 30620, "name": "Bridge St &amp; Main St"}}, {"geometry": {"type": "Point", "coordinates": [-75.51244, 40.201977]}, "type": "Feature", "properties": {"route": "139", "id": 31133, "name": "Township Line Rd &amp; Rittenhouse Rd"}}, {"geometry": {"type": "Point", "coordinates": [-75.507563, 40.206961]}, "type": "Feature", "properties": {"route": "139", "id": 31134, "name": "Township Line Rd &amp; Linfield Rd"}}, {"geometry": {"type": "Point", "coordinates": [-75.500957, 40.213659]}, "type": "Feature", "properties": {"route": "139", "id": 31135, "name": "Township Line Rd &amp; Ridge Pk - MBNS"}}, {"geometry": {"type": "Point", "coordinates": [-75.501813, 40.216265]}, "type": "Feature", "properties": {"route": "139", "id": 31136, "name": "Ridge Pike &amp; Township Line Rd - MBF"}}, {"geometry": {"type": "Point", "coordinates": [-75.507492, 40.2073]}, "type": "Feature", "properties": {"route": "139", "id": 31138, "name": "Township Line Rd &amp; Linfield Rd"}}, {"geometry": {"type": "Point", "coordinates": [-75.512784, 40.201914]}, "type": "Feature", "properties": {"route": "139", "id": 31139, "name": "Township Line &amp; Rittenhouse Rd"}}, {"geometry": {"type": "Point", "coordinates": [-75.472492, 40.099681]}, "type": "Feature", "properties": {"route": "139", "id": 31193, "name": "Valley Forge Rd &amp; Valley Park Rd - "}}, {"geometry": {"type": "Point", "coordinates": [-75.471296, 40.099253]}, "type": "Feature", "properties": {"route": "139", "id": 31194, "name": "Valley Forge Rd &amp; Valley Park Rd - "}}, {"geometry": {"type": "Point", "coordinates": [-75.552642, 40.177639]}, "type": "Feature", "properties": {"route": "139", "id": 31224, "name": "New St &amp; Cedar St"}}, {"geometry": {"type": "Point", "coordinates": [-75.553672, 40.17721]}, "type": "Feature", "properties": {"route": "139", "id": 31225, "name": "New St &amp; Wall St"}}, {"geometry": {"type": "Point", "coordinates": [-75.508797, 40.121933]}, "type": "Feature", "properties": {"route": "139", "id": 31268, "name": "Nutt Rd &amp; Starr St"}}, {"geometry": {"type": "Point", "coordinates": [-75.507779, 40.121737]}, "type": "Feature", "properties": {"route": "139", "id": 31271, "name": "Nutt Rd &amp; Valley Rd"}}, {"geometry": {"type": "Point", "coordinates": [-75.518902, 40.138019]}, "type": "Feature", "properties": {"route": "139", "id": 31272, "name": "High St &amp; Gay St - FS"}}, {"geometry": {"type": "Point", "coordinates": [-75.525721, 40.199468]}, "type": "Feature", "properties": {"route": "139", "id": 32047, "name": "Limerick Square Shopping Center"}}]}