{"type": "FeatureCollection", "features": [{"geometry": {"type": "Point", "coordinates": [-75.157404, 40.013246]}, "type": "Feature", "properties": {"route": "2", "id": 30, "name": "Pulaski Av &amp; Pike St"}}, {"geometry": {"type": "Point", "coordinates": [-75.159784, 39.993099]}, "type": "Feature", "properties": {"route": "2", "id": 31, "name": "17th St &amp; Huntingdon St"}}, {"geometry": {"type": "Point", "coordinates": [-75.164352, 39.972153]}, "type": "Feature", "properties": {"route": "2", "id": 32, "name": "17th St &amp; Girard Av"}}, {"geometry": {"type": "Point", "coordinates": [-75.166346, 39.963169]}, "type": "Feature", "properties": {"route": "2", "id": 33, "name": "17th St &amp; Spring Garden St"}}, {"geometry": {"type": "Point", "coordinates": [-75.168497, 39.953071]}, "type": "Feature", "properties": {"route": "2", "id": 34, "name": "17th St &amp; Market St"}}, {"geometry": {"type": "Point", "coordinates": [-75.169997, 39.946264]}, "type": "Feature", "properties": {"route": "2", "id": 35, "name": "17th St &amp; Pine St"}}, {"geometry": {"type": "Point", "coordinates": [-75.171655, 39.938592]}, "type": "Feature", "properties": {"route": "2", "id": 36, "name": "17th St &amp; Washington Av"}}, {"geometry": {"type": "Point", "coordinates": [-75.174548, 39.925122]}, "type": "Feature", "properties": {"route": "2", "id": 37, "name": "17th St &amp; Snyder Av"}}, {"geometry": {"type": "Point", "coordinates": [-75.179732, 39.91428]}, "type": "Feature", "properties": {"route": "2", "id": 38, "name": "19th St &amp; Moyamensing Av"}}, {"geometry": {"type": "Point", "coordinates": [-75.181094, 39.916621]}, "type": "Feature", "properties": {"route": "2", "id": 40, "name": "20th St &amp; Johnston St"}}, {"geometry": {"type": "Point", "coordinates": [-75.17292, 39.924771]}, "type": "Feature", "properties": {"route": "2", "id": 41, "name": "16th St &amp; Snyder Av"}}, {"geometry": {"type": "Point", "coordinates": [-75.169968, 39.938196]}, "type": "Feature", "properties": {"route": "2", "id": 42, "name": "16th St &amp; Washington Av"}}, {"geometry": {"type": "Point", "coordinates": [-75.168275, 39.945895]}, "type": "Feature", "properties": {"route": "2", "id": 43, "name": "16th St &amp; Pine St"}}, {"geometry": {"type": "Point", "coordinates": [-75.162628, 39.971737]}, "type": "Feature", "properties": {"route": "2", "id": 45, "name": "16th St &amp; Girard Av"}}, {"geometry": {"type": "Point", "coordinates": [-75.158379, 39.992882]}, "type": "Feature", "properties": {"route": "2", "id": 46, "name": "Huntingdon St &amp; 16th St - FS"}}, {"geometry": {"type": "Point", "coordinates": [-75.159341, 39.994391]}, "type": "Feature", "properties": {"route": "2", "id": 47, "name": "17th St &amp; Lehigh Av"}}, {"geometry": {"type": "Point", "coordinates": [-75.157992, 40.013935]}, "type": "Feature", "properties": {"route": "2", "id": 48, "name": "Hunting Park Av &amp; Pulaski Av"}}, {"geometry": {"type": "Point", "coordinates": [-75.168887, 39.94311]}, "type": "Feature", "properties": {"route": "2", "id": 2654, "name": "16th St &amp; Bainbridge St"}}, {"geometry": {"type": "Point", "coordinates": [-75.160406, 39.981998]}, "type": "Feature", "properties": {"route": "2", "id": 2655, "name": "16th St &amp; Berks St"}}, {"geometry": {"type": "Point", "coordinates": [-75.165236, 39.959883]}, "type": "Feature", "properties": {"route": "2", "id": 2657, "name": "16th St &amp; Callowhill St"}}, {"geometry": {"type": "Point", "coordinates": [-75.169319, 39.94114]}, "type": "Feature", "properties": {"route": "2", "id": 2658, "name": "16th St &amp; Catherine St"}}, {"geometry": {"type": "Point", "coordinates": [-75.161089, 39.978909]}, "type": "Feature", "properties": {"route": "2", "id": 2659, "name": "16th St &amp; Cecil B Moore Av"}}, {"geometry": {"type": "Point", "coordinates": [-75.167146, 39.95114]}, "type": "Feature", "properties": {"route": "2", "id": 2660, "name": "16th St &amp; Chestnut St"}}, {"geometry": {"type": "Point", "coordinates": [-75.158762, 39.997755]}, "type": "Feature", "properties": {"route": "2", "id": 2661, "name": "17th St &amp; Cambria St"}}, {"geometry": {"type": "Point", "coordinates": [-75.158645, 39.997523]}, "type": "Feature", "properties": {"route": "2", "id": 2662, "name": "17th St &amp; Cambria St - FS"}}, {"geometry": {"type": "Point", "coordinates": [-75.171412, 39.939764]}, "type": "Feature", "properties": {"route": "2", "id": 2663, "name": "17th St &amp; Carpenter St"}}, {"geometry": {"type": "Point", "coordinates": [-75.171018, 39.941527]}, "type": "Feature", "properties": {"route": "2", "id": 2664, "name": "17th St &amp; Catherine St"}}, {"geometry": {"type": "Point", "coordinates": [-75.162789, 39.979379]}, "type": "Feature", "properties": {"route": "2", "id": 2665, "name": "17th St &amp; Cecil B Moore Av"}}, {"geometry": {"type": "Point", "coordinates": [-75.168845, 39.951519]}, "type": "Feature", "properties": {"route": "2", "id": 2666, "name": "17th St &amp; Chestnut St"}}, {"geometry": {"type": "Point", "coordinates": [-75.171186, 39.94076]}, "type": "Feature", "properties": {"route": "2", "id": 2667, "name": "17th St &amp; Christian St"}}, {"geometry": {"type": "Point", "coordinates": [-75.158159, 40.000482]}, "type": "Feature", "properties": {"route": "2", "id": 2668, "name": "17th St &amp; Clearfield Rd - FS"}}, {"geometry": {"type": "Point", "coordinates": [-75.158019, 40.000501]}, "type": "Feature", "properties": {"route": "2", "id": 2669, "name": "17Th St &amp; Clearfield St"}}, {"geometry": {"type": "Point", "coordinates": [-75.160132, 39.991618]}, "type": "Feature", "properties": {"route": "2", "id": 2670, "name": "17th St &amp; Cumberland St"}}, {"geometry": {"type": "Point", "coordinates": [-75.160794, 39.988594]}, "type": "Feature", "properties": {"route": "2", "id": 2671, "name": "17th St &amp; Dauphin St"}}, {"geometry": {"type": "Point", "coordinates": [-75.161479, 39.985462]}, "type": "Feature", "properties": {"route": "2", "id": 2672, "name": "17th St &amp; Diamond St"}}, {"geometry": {"type": "Point", "coordinates": [-75.172999, 39.932455]}, "type": "Feature", "properties": {"route": "2", "id": 2673, "name": "17th St &amp; Dickinson St"}}, {"geometry": {"type": "Point", "coordinates": [-75.171859, 39.937575]}, "type": "Feature", "properties": {"route": "2", "id": 2674, "name": "17th St &amp; Ellsworth St"}}, {"geometry": {"type": "Point", "coordinates": [-75.15608, 40.010048]}, "type": "Feature", "properties": {"route": "2", "id": 2675, "name": "17th St &amp; Erie Av"}}, {"geometry": {"type": "Point", "coordinates": [-75.155987, 40.009745]}, "type": "Feature", "properties": {"route": "2", "id": 2676, "name": "17th St &amp; Erie Av"}}, {"geometry": {"type": "Point", "coordinates": [-75.165421, 39.967237]}, "type": "Feature", "properties": {"route": "2", "id": 2677, "name": "17th St &amp; Fairmount Av"}}, {"geometry": {"type": "Point", "coordinates": [-75.172063, 39.936621]}, "type": "Feature", "properties": {"route": "2", "id": 2678, "name": "17th St &amp; Federal St"}}, {"geometry": {"type": "Point", "coordinates": [-75.170802, 39.942535]}, "type": "Feature", "properties": {"route": "2", "id": 2679, "name": "17th St &amp; Fitzwater St"}}, {"geometry": {"type": "Point", "coordinates": [-75.166034, 39.964463]}, "type": "Feature", "properties": {"route": "2", "id": 2681, "name": "17th St &amp; Green St"}}, {"geometry": {"type": "Point", "coordinates": [-75.166647, 39.961671]}, "type": "Feature", "properties": {"route": "2", "id": 2682, "name": "17th St &amp; Hamilton St - MBNS"}}, {"geometry": {"type": "Point", "coordinates": [-75.158841, 39.998755]}, "type": "Feature", "properties": {"route": "2", "id": 2684, "name": "17th St &amp; Indiana Av"}}, {"geometry": {"type": "Point", "coordinates": [-75.174824, 39.923891]}, "type": "Feature", "properties": {"route": "2", "id": 2685, "name": "17th St &amp; Jackson St"}}, {"geometry": {"type": "Point", "coordinates": [-75.163391, 39.976551]}, "type": "Feature", "properties": {"route": "2", "id": 2686, "name": "17th St &amp; Jefferson St"}}, {"geometry": {"type": "Point", "coordinates": [-75.168304, 39.954061]}, "type": "Feature", "properties": {"route": "2", "id": 2687, "name": "17th St &amp; JFK Blvd"}}, {"geometry": {"type": "Point", "coordinates": [-75.176503, 39.916219]}, "type": "Feature", "properties": {"route": "2", "id": 2688, "name": "17th St &amp; Johnston St"}}, {"geometry": {"type": "Point", "coordinates": [-75.159388, 39.994883]}, "type": "Feature", "properties": {"route": "2", "id": 2689, "name": "17th St &amp; Lehigh Av"}}, {"geometry": {"type": "Point", "coordinates": [-75.17019, 39.945372]}, "type": "Feature", "properties": {"route": "2", "id": 2692, "name": "17th St &amp; Lombard St"}}, {"geometry": {"type": "Point", "coordinates": [-75.163703, 39.975177]}, "type": "Feature", "properties": {"route": "2", "id": 2694, "name": "17th St &amp; Master St"}}, {"geometry": {"type": "Point", "coordinates": [-75.174284, 39.926344]}, "type": "Feature", "properties": {"route": "2", "id": 2695, "name": "17th St &amp; McKean St"}}, {"geometry": {"type": "Point", "coordinates": [-75.17402, 39.927566]}, "type": "Feature", "properties": {"route": "2", "id": 2696, "name": "17th St &amp; Mifflin St"}}, {"geometry": {"type": "Point", "coordinates": [-75.162428, 39.98093]}, "type": "Feature", "properties": {"route": "2", "id": 2697, "name": "17th St &amp; Montgomery Av"}}, {"geometry": {"type": "Point", "coordinates": [-75.173744, 39.928788]}, "type": "Feature", "properties": {"route": "2", "id": 2698, "name": "17th St &amp; Moore St"}}, {"geometry": {"type": "Point", "coordinates": [-75.173527, 39.930011]}, "type": "Feature", "properties": {"route": "2", "id": 2699, "name": "17th St &amp;  Morris St"}}, {"geometry": {"type": "Point", "coordinates": [-75.17621, 39.915665]}, "type": "Feature", "properties": {"route": "2", "id": 2700, "name": "17th St &amp; Moyamensing Av"}}, {"geometry": {"type": "Point", "coordinates": [-75.161792, 39.983848]}, "type": "Feature", "properties": {"route": "2", "id": 2701, "name": "17th St &amp; Norris St"}}, {"geometry": {"type": "Point", "coordinates": [-75.156985, 40.005159]}, "type": "Feature", "properties": {"route": "2", "id": 2702, "name": "17th St &amp; Ontario St"}}, {"geometry": {"type": "Point", "coordinates": [-75.176215, 39.917629]}, "type": "Feature", "properties": {"route": "2", "id": 2703, "name": "17th St &amp; Oregon St"}}, {"geometry": {"type": "Point", "coordinates": [-75.16309, 39.977978]}, "type": "Feature", "properties": {"route": "2", "id": 2704, "name": "17th St &amp; Oxford St"}}, {"geometry": {"type": "Point", "coordinates": [-75.175651, 39.920171]}, "type": "Feature", "properties": {"route": "2", "id": 2706, "name": "17th St &amp; Porter St"}}, {"geometry": {"type": "Point", "coordinates": [-75.167691, 39.956925]}, "type": "Feature", "properties": {"route": "2", "id": 2707, "name": "17th St &amp; Race St"}}, {"geometry": {"type": "Point", "coordinates": [-75.172723, 39.93365]}, "type": "Feature", "properties": {"route": "2", "id": 2708, "name": "17th St &amp; Reed St"}}, {"geometry": {"type": "Point", "coordinates": [-75.164724, 39.970609]}, "type": "Feature", "properties": {"route": "2", "id": 2709, "name": "17th St &amp; Ridge Av"}}, {"geometry": {"type": "Point", "coordinates": [-75.17534, 39.921384]}, "type": "Feature", "properties": {"route": "2", "id": 2710, "name": "17th St &amp; Ritner St"}}, {"geometry": {"type": "Point", "coordinates": [-75.158966, 39.996747]}, "type": "Feature", "properties": {"route": "2", "id": 2711, "name": "17th St &amp; Sedgley Av"}}, {"geometry": {"type": "Point", "coordinates": [-75.158826, 39.996667]}, "type": "Feature", "properties": {"route": "2", "id": 2712, "name": "17th St &amp; Sedgley Av - FS"}}, {"geometry": {"type": "Point", "coordinates": [-75.175939, 39.918931]}, "type": "Feature", "properties": {"route": "2", "id": 2713, "name": "17th St &amp; Shunk St"}}, {"geometry": {"type": "Point", "coordinates": [-75.170382, 39.944364]}, "type": "Feature", "properties": {"route": "2", "id": 2715, "name": "17th St &amp; South St"}}, {"geometry": {"type": "Point", "coordinates": [-75.161106, 39.987032]}, "type": "Feature", "properties": {"route": "2", "id": 2718, "name": "17th St &amp; Susquehanna Av"}}, {"geometry": {"type": "Point", "coordinates": [-75.173275, 39.931233]}, "type": "Feature", "properties": {"route": "2", "id": 2720, "name": "17th St &amp; Tasker St"}}, {"geometry": {"type": "Point", "coordinates": [-75.163967, 39.973901]}, "type": "Feature", "properties": {"route": "2", "id": 2721, "name": "17th St &amp; Thompson St"}}, {"geometry": {"type": "Point", "coordinates": [-75.156755, 40.006845]}, "type": "Feature", "properties": {"route": "2", "id": 2722, "name": "17th St &amp; Tioga St"}}, {"geometry": {"type": "Point", "coordinates": [-75.156672, 40.00663]}, "type": "Feature", "properties": {"route": "2", "id": 2723, "name": "17th St &amp; Tioga St"}}, {"geometry": {"type": "Point", "coordinates": [-75.156417, 40.008299]}, "type": "Feature", "properties": {"route": "2", "id": 2724, "name": "17th St &amp; Venango St"}}, {"geometry": {"type": "Point", "coordinates": [-75.156336, 40.008148]}, "type": "Feature", "properties": {"route": "2", "id": 2725, "name": "17th St &amp; Venango St"}}, {"geometry": {"type": "Point", "coordinates": [-75.167271, 39.958834]}, "type": "Feature", "properties": {"route": "2", "id": 2726, "name": "17th St &amp; Vine St"}}, {"geometry": {"type": "Point", "coordinates": [-75.165734, 39.965828]}, "type": "Feature", "properties": {"route": "2", "id": 2727, "name": "17th St &amp; Wallace St"}}, {"geometry": {"type": "Point", "coordinates": [-75.157427, 40.00383]}, "type": "Feature", "properties": {"route": "2", "id": 2729, "name": "17th St &amp; Westmoreland St"}}, {"geometry": {"type": "Point", "coordinates": [-75.157302, 40.00365]}, "type": "Feature", "properties": {"route": "2", "id": 2730, "name": "17th St &amp; Westmoreland St"}}, {"geometry": {"type": "Point", "coordinates": [-75.172435, 39.934881]}, "type": "Feature", "properties": {"route": "2", "id": 2731, "name": "17th St &amp; Wharton St"}}, {"geometry": {"type": "Point", "coordinates": [-75.175088, 39.922633]}, "type": "Feature", "properties": {"route": "2", "id": 2732, "name": "17th St &amp; Wolf St"}}, {"geometry": {"type": "Point", "coordinates": [-75.160421, 39.990065]}, "type": "Feature", "properties": {"route": "2", "id": 2733, "name": "17th St &amp; York St"}}, {"geometry": {"type": "Point", "coordinates": [-75.160763, 40.012549]}, "type": "Feature", "properties": {"route": "2", "id": 2814, "name": "20th St &amp; Hunting Park Av"}}, {"geometry": {"type": "Point", "coordinates": [-75.166137, 39.95561]}, "type": "Feature", "properties": {"route": "2", "id": 3024, "name": "16th St &amp; Cherry St"}}, {"geometry": {"type": "Point", "coordinates": [-75.158421, 39.991177]}, "type": "Feature", "properties": {"route": "2", "id": 3026, "name": "16th St &amp; Cumberland St"}}, {"geometry": {"type": "Point", "coordinates": [-75.159119, 39.988065]}, "type": "Feature", "properties": {"route": "2", "id": 3027, "name": "16th St &amp; Dauphin St"}}, {"geometry": {"type": "Point", "coordinates": [-75.159779, 39.985056]}, "type": "Feature", "properties": {"route": "2", "id": 3028, "name": "16th St &amp; Diamond St"}}, {"geometry": {"type": "Point", "coordinates": [-75.171312, 39.931995]}, "type": "Feature", "properties": {"route": "2", "id": 3029, "name": "16th St &amp; Dickinson St"}}, {"geometry": {"type": "Point", "coordinates": [-75.17016, 39.937197]}, "type": "Feature", "properties": {"route": "2", "id": 3030, "name": "16th St &amp; Ellsworth St"}}, {"geometry": {"type": "Point", "coordinates": [-75.163686, 39.967019]}, "type": "Feature", "properties": {"route": "2", "id": 3031, "name": "16th St &amp; Fairmount Av"}}, {"geometry": {"type": "Point", "coordinates": [-75.170376, 39.936153]}, "type": "Feature", "properties": {"route": "2", "id": 3032, "name": "16th St &amp; Federal St"}}, {"geometry": {"type": "Point", "coordinates": [-75.169114, 39.942129]}, "type": "Feature", "properties": {"route": "2", "id": 3033, "name": "16th St &amp; Fitzwater St"}}, {"geometry": {"type": "Point", "coordinates": [-75.164178, 39.964762]}, "type": "Feature", "properties": {"route": "2", "id": 3035, "name": "16th St &amp; Mt Vernon St"}}, {"geometry": {"type": "Point", "coordinates": [-75.164923, 39.961273]}, "type": "Feature", "properties": {"route": "2", "id": 3036, "name": "16th St &amp; Hamilton St"}}, {"geometry": {"type": "Point", "coordinates": [-75.173161, 39.923522]}, "type": "Feature", "properties": {"route": "2", "id": 3037, "name": "16th St &amp; Jackson St"}}, {"geometry": {"type": "Point", "coordinates": [-75.161703, 39.976136]}, "type": "Feature", "properties": {"route": "2", "id": 3038, "name": "16th St &amp; Jefferson St"}}, {"geometry": {"type": "Point", "coordinates": [-75.166569, 39.953654]}, "type": "Feature", "properties": {"route": "2", "id": 3040, "name": "16th St &amp; JFK Blvd"}}, {"geometry": {"type": "Point", "coordinates": [-75.167698, 39.948535]}, "type": "Feature", "properties": {"route": "2", "id": 3042, "name": "16th St &amp; Locust St"}}, {"geometry": {"type": "Point", "coordinates": [-75.162003, 39.974772]}, "type": "Feature", "properties": {"route": "2", "id": 3044, "name": "16th St &amp; Master St"}}, {"geometry": {"type": "Point", "coordinates": [-75.172609, 39.925948]}, "type": "Feature", "properties": {"route": "2", "id": 3045, "name": "16th St &amp; McKean St"}}, {"geometry": {"type": "Point", "coordinates": [-75.172321, 39.927134]}, "type": "Feature", "properties": {"route": "2", "id": 3046, "name": "16th St &amp; Mifflin St"}}, {"geometry": {"type": "Point", "coordinates": [-75.160741, 39.980542]}, "type": "Feature", "properties": {"route": "2", "id": 3047, "name": "16th St &amp; Montgomery Av"}}, {"geometry": {"type": "Point", "coordinates": [-75.172045, 39.928392]}, "type": "Feature", "properties": {"route": "2", "id": 3048, "name": "16th St &amp; Moore St"}}, {"geometry": {"type": "Point", "coordinates": [-75.171781, 39.929614]}, "type": "Feature", "properties": {"route": "2", "id": 3049, "name": "16th St &amp; Morris St"}}, {"geometry": {"type": "Point", "coordinates": [-75.160092, 39.983528]}, "type": "Feature", "properties": {"route": "2", "id": 3051, "name": "16th St &amp; Norris St"}}, {"geometry": {"type": "Point", "coordinates": [-75.174553, 39.917125]}, "type": "Feature", "properties": {"route": "2", "id": 3052, "name": "16th St &amp; Oregon Av"}}, {"geometry": {"type": "Point", "coordinates": [-75.161402, 39.977564]}, "type": "Feature", "properties": {"route": "2", "id": 3053, "name": "16th St &amp; Oxford St"}}, {"geometry": {"type": "Point", "coordinates": [-75.162909, 39.970402]}, "type": "Feature", "properties": {"route": "2", "id": 3055, "name": "16th St &amp; Poplar St"}}, {"geometry": {"type": "Point", "coordinates": [-75.173977, 39.919739]}, "type": "Feature", "properties": {"route": "2", "id": 3056, "name": "16th St &amp; Porter S"}}, {"geometry": {"type": "Point", "coordinates": [-75.165945, 39.956528]}, "type": "Feature", "properties": {"route": "2", "id": 3057, "name": "16th St &amp; Race St"}}, {"geometry": {"type": "Point", "coordinates": [-75.171059, 39.933208]}, "type": "Feature", "properties": {"route": "2", "id": 3058, "name": "16th St &amp; Reed St"}}, {"geometry": {"type": "Point", "coordinates": [-75.16324, 39.968971]}, "type": "Feature", "properties": {"route": "2", "id": 3059, "name": "16th St &amp; Ridge Av"}}, {"geometry": {"type": "Point", "coordinates": [-75.173713, 39.921024]}, "type": "Feature", "properties": {"route": "2", "id": 3060, "name": "16th St &amp; Ritner St"}}, {"geometry": {"type": "Point", "coordinates": [-75.174253, 39.918472]}, "type": "Feature", "properties": {"route": "2", "id": 3061, "name": "16th St &amp; Shunk St"}}, {"geometry": {"type": "Point", "coordinates": [-75.168695, 39.943986]}, "type": "Feature", "properties": {"route": "2", "id": 3063, "name": "16th St &amp; South St"}}, {"geometry": {"type": "Point", "coordinates": [-75.167951, 39.947322]}, "type": "Feature", "properties": {"route": "2", "id": 3064, "name": "16th St &amp; Spruce St"}}, {"geometry": {"type": "Point", "coordinates": [-75.159442, 39.986653]}, "type": "Feature", "properties": {"route": "2", "id": 3066, "name": "16th St &amp; Susquehanna Av"}}, {"geometry": {"type": "Point", "coordinates": [-75.171576, 39.930774]}, "type": "Feature", "properties": {"route": "2", "id": 3067, "name": "16th St &amp; Tasker St"}}, {"geometry": {"type": "Point", "coordinates": [-75.16228, 39.973505]}, "type": "Feature", "properties": {"route": "2", "id": 3068, "name": "16th St &amp; Thompson St"}}, {"geometry": {"type": "Point", "coordinates": [-75.167482, 39.949642]}, "type": "Feature", "properties": {"route": "2", "id": 3069, "name": "16th St &amp; Walnut St"}}, {"geometry": {"type": "Point", "coordinates": [-75.170748, 39.934494]}, "type": "Feature", "properties": {"route": "2", "id": 3072, "name": "16th St &amp; Wharton St"}}, {"geometry": {"type": "Point", "coordinates": [-75.173437, 39.922255]}, "type": "Feature", "properties": {"route": "2", "id": 3073, "name": "16th St &amp; Wolf St"}}, {"geometry": {"type": "Point", "coordinates": [-75.158746, 39.989669]}, "type": "Feature", "properties": {"route": "2", "id": 3074, "name": "16th St &amp; York St"}}, {"geometry": {"type": "Point", "coordinates": [-75.157647, 40.002099]}, "type": "Feature", "properties": {"route": "2", "id": 3075, "name": "17th St &amp; Allegheny Av"}}, {"geometry": {"type": "Point", "coordinates": [-75.168076, 39.955096]}, "type": "Feature", "properties": {"route": "2", "id": 3076, "name": "17th St &amp; Arch St"}}, {"geometry": {"type": "Point", "coordinates": [-75.170574, 39.943499]}, "type": "Feature", "properties": {"route": "2", "id": 3077, "name": "17th St &amp; Bainbridge St"}}, {"geometry": {"type": "Point", "coordinates": [-75.167872, 39.956077]}, "type": "Feature", "properties": {"route": "2", "id": 3078, "name": "17th St &amp; Ben Franklin Pkwy"}}, {"geometry": {"type": "Point", "coordinates": [-75.162116, 39.98242]}, "type": "Feature", "properties": {"route": "2", "id": 3079, "name": "17th St &amp; Berks St"}}, {"geometry": {"type": "Point", "coordinates": [-75.165133, 39.968566]}, "type": "Feature", "properties": {"route": "2", "id": 3080, "name": "17th St &amp; Brown St"}}, {"geometry": {"type": "Point", "coordinates": [-75.166935, 39.960279]}, "type": "Feature", "properties": {"route": "2", "id": 3081, "name": "17th St &amp; Callowhill St"}}, {"geometry": {"type": "Point", "coordinates": [-75.15956, 39.993027]}, "type": "Feature", "properties": {"route": "2", "id": 8704, "name": "Huntingdon St &amp; 17th St"}}, {"geometry": {"type": "Point", "coordinates": [-75.158809, 40.013544]}, "type": "Feature", "properties": {"route": "2", "id": 8709, "name": "Hunting Park Av &amp; 19th St"}}, {"geometry": {"type": "Point", "coordinates": [-75.174768, 39.916251]}, "type": "Feature", "properties": {"route": "2", "id": 10848, "name": "16th St &amp; Moyamensing Av - FS"}}, {"geometry": {"type": "Point", "coordinates": [-75.176058, 39.915299]}, "type": "Feature", "properties": {"route": "2", "id": 10849, "name": "Moyamensing Av &amp; 17th St"}}, {"geometry": {"type": "Point", "coordinates": [-75.177418, 39.914739]}, "type": "Feature", "properties": {"route": "2", "id": 10851, "name": "Moyamensing Av &amp; 18th St"}}, {"geometry": {"type": "Point", "coordinates": [-75.179473, 39.917733]}, "type": "Feature", "properties": {"route": "2", "id": 11422, "name": "Oregon Av &amp; 19th St"}}, {"geometry": {"type": "Point", "coordinates": [-75.155863, 40.011155]}, "type": "Feature", "properties": {"route": "2", "id": 12058, "name": "Pulaski Av &amp; 17th St"}}, {"geometry": {"type": "Point", "coordinates": [-75.164244, 39.96952]}, "type": "Feature", "properties": {"route": "2", "id": 12270, "name": "Francis St &amp; Ridge Av - FS"}}, {"geometry": {"type": "Point", "coordinates": [-75.164623, 39.962702]}, "type": "Feature", "properties": {"route": "2", "id": 13188, "name": "16th St &amp; Spring Garden St"}}, {"geometry": {"type": "Point", "coordinates": [-75.157091, 40.005329]}, "type": "Feature", "properties": {"route": "2", "id": 15396, "name": "17th St &amp; Ontario St"}}, {"geometry": {"type": "Point", "coordinates": [-75.157765, 40.002269]}, "type": "Feature", "properties": {"route": "2", "id": 15397, "name": "17th St &amp; Allegheny Av"}}, {"geometry": {"type": "Point", "coordinates": [-75.167487, 39.957817]}, "type": "Feature", "properties": {"route": "2", "id": 15398, "name": "17th St &amp; Summer St - FS"}}, {"geometry": {"type": "Point", "coordinates": [-75.169181, 39.950074]}, "type": "Feature", "properties": {"route": "2", "id": 15399, "name": "17th St &amp; Walnut St"}}, {"geometry": {"type": "Point", "coordinates": [-75.169481, 39.948637]}, "type": "Feature", "properties": {"route": "2", "id": 15400, "name": "17th St &amp; Locust St - FS"}}, {"geometry": {"type": "Point", "coordinates": [-75.169673, 39.94771]}, "type": "Feature", "properties": {"route": "2", "id": 15401, "name": "17th St &amp; Spruce St"}}, {"geometry": {"type": "Point", "coordinates": [-75.17822, 39.914821]}, "type": "Feature", "properties": {"route": "2", "id": 15402, "name": "Moyamensing Av &amp; 18th St"}}, {"geometry": {"type": "Point", "coordinates": [-75.169488, 39.940364]}, "type": "Feature", "properties": {"route": "2", "id": 15403, "name": "16th St &amp; Christian St"}}, {"geometry": {"type": "Point", "coordinates": [-75.168479, 39.945003]}, "type": "Feature", "properties": {"route": "2", "id": 15404, "name": "16th St &amp; Lombard St"}}, {"geometry": {"type": "Point", "coordinates": [-75.157451, 40.010105]}, "type": "Feature", "properties": {"route": "2", "id": 18213, "name": "Erie Av &amp; 18th St"}}, {"geometry": {"type": "Point", "coordinates": [-75.15901, 40.010314]}, "type": "Feature", "properties": {"route": "2", "id": 18214, "name": "Erie Av &amp; 19th St"}}, {"geometry": {"type": "Point", "coordinates": [-75.160605, 40.010513]}, "type": "Feature", "properties": {"route": "2", "id": 18215, "name": "Erie Av &amp; 20th St"}}, {"geometry": {"type": "Point", "coordinates": [-75.17952, 39.914306]}, "type": "Feature", "properties": {"route": "2", "id": 21212, "name": "Moyamensing Av &amp; 19th St"}}, {"geometry": {"type": "Point", "coordinates": [-75.166798, 39.952639]}, "type": "Feature", "properties": {"route": "2", "id": 21213, "name": "16th St &amp; Market St"}}, {"geometry": {"type": "Point", "coordinates": [-75.180853, 39.917879]}, "type": "Feature", "properties": {"route": "2", "id": 21289, "name": "20th St &amp; Oregon Av"}}, {"geometry": {"type": "Point", "coordinates": [-75.179654, 39.916609]}, "type": "Feature", "properties": {"route": "2", "id": 21341, "name": "19th St &amp; Johnston St"}}, {"geometry": {"type": "Point", "coordinates": [-75.167352, 39.959414]}, "type": "Feature", "properties": {"route": "2", "id": 24172, "name": "17th St &amp; Franklintown Blvd"}}, {"geometry": {"type": "Point", "coordinates": [-75.169704, 39.939374]}, "type": "Feature", "properties": {"route": "2", "id": 26146, "name": "16th St &amp; Carpenter St"}}, {"geometry": {"type": "Point", "coordinates": [-75.164022, 39.965467]}, "type": "Feature", "properties": {"route": "2", "id": 26148, "name": "16th St &amp; Wallace St"}}, {"geometry": {"type": "Point", "coordinates": [-75.163902, 39.966029]}, "type": "Feature", "properties": {"route": "2", "id": 26149, "name": "16th St &amp; North St"}}, {"geometry": {"type": "Point", "coordinates": [-75.163434, 39.96809]}, "type": "Feature", "properties": {"route": "2", "id": 26150, "name": "16th St &amp; Brown St"}}, {"geometry": {"type": "Point", "coordinates": [-75.181682, 39.913659]}, "type": "Feature", "properties": {"route": "2", "id": 31456, "name": "Moyamensing Av &amp; 20th St"}}, {"geometry": {"type": "Point", "coordinates": [-75.165613, 39.966434]}, "type": "Feature", "properties": {"route": "2", "id": 31592, "name": "17th St &amp; North St"}}, {"geometry": {"type": "Point", "coordinates": [-75.164323, 39.964102]}, "type": "Feature", "properties": {"route": "2", "id": 31769, "name": "16th St &amp; Green St"}}]}