{"type": "FeatureCollection", "features": [{"geometry": {"type": "Point", "coordinates": [-75.141671, 39.92531]}, "type": "Feature", "properties": {"route": "25", "id": 101, "name": "Pier 70 WalMart &amp; Home Depot"}}, {"geometry": {"type": "Point", "coordinates": [-75.134351, 39.968774]}, "type": "Feature", "properties": {"route": "25", "id": 481, "name": "Frankford Av &amp; Girard Av"}}, {"geometry": {"type": "Point", "coordinates": [-75.117746, 39.981836]}, "type": "Feature", "properties": {"route": "25", "id": 482, "name": "Cedar St &amp; Lehigh Av"}}, {"geometry": {"type": "Point", "coordinates": [-75.09472, 39.994522]}, "type": "Feature", "properties": {"route": "25", "id": 483, "name": "Aramingo Av &amp; Castor Av"}}, {"geometry": {"type": "Point", "coordinates": [-75.073651, 39.997159]}, "type": "Feature", "properties": {"route": "25", "id": 485, "name": "Richmond St &amp; Orthodox St"}}, {"geometry": {"type": "Point", "coordinates": [-75.070592, 40.013341]}, "type": "Feature", "properties": {"route": "25", "id": 487, "name": "Bridge St &amp; Torresdale Av"}}, {"geometry": {"type": "Point", "coordinates": [-75.073614, 39.997338]}, "type": "Feature", "properties": {"route": "25", "id": 488, "name": "Orthodox St &amp; Richmond St"}}, {"geometry": {"type": "Point", "coordinates": [-75.094885, 39.994594]}, "type": "Feature", "properties": {"route": "25", "id": 489, "name": "Aramingo Av &amp; Castor Av - FS"}}, {"geometry": {"type": "Point", "coordinates": [-75.117757, 39.982042]}, "type": "Feature", "properties": {"route": "25", "id": 491, "name": "Lehigh Av &amp; Cedar St - FS"}}, {"geometry": {"type": "Point", "coordinates": [-75.134504, 39.9689]}, "type": "Feature", "properties": {"route": "25", "id": 493, "name": "Frankford Av &amp; Girard Av"}}, {"geometry": {"type": "Point", "coordinates": [-75.138767, 39.960458]}, "type": "Feature", "properties": {"route": "25", "id": 687, "name": "Spring Garden St &amp; Front St"}}, {"geometry": {"type": "Point", "coordinates": [-75.070776, 40.014305]}, "type": "Feature", "properties": {"route": "25", "id": 15774, "name": "Bridge St &amp; Ditman St"}}, {"geometry": {"type": "Point", "coordinates": [-75.071371, 40.015869]}, "type": "Feature", "properties": {"route": "25", "id": 15776, "name": "Bridge St &amp; Jackson St"}}, {"geometry": {"type": "Point", "coordinates": [-75.071756, 40.016905]}, "type": "Feature", "properties": {"route": "25", "id": 15777, "name": "Bridge St &amp; Cottage St"}}, {"geometry": {"type": "Point", "coordinates": [-75.072083, 40.017772]}, "type": "Feature", "properties": {"route": "25", "id": 15780, "name": "Bridge St &amp; Walker St"}}, {"geometry": {"type": "Point", "coordinates": [-75.072351, 40.01846]}, "type": "Feature", "properties": {"route": "25", "id": 15781, "name": "Bridge St &amp; Erdrick St - FS"}}, {"geometry": {"type": "Point", "coordinates": [-75.073267, 40.019623]}, "type": "Feature", "properties": {"route": "25", "id": 15783, "name": "Bridge St &amp; Charles St"}}, {"geometry": {"type": "Point", "coordinates": [-75.074325, 40.020875]}, "type": "Feature", "properties": {"route": "25", "id": 15785, "name": "Bridge St &amp; Hawthorne St"}}, {"geometry": {"type": "Point", "coordinates": [-75.074889, 40.021511]}, "type": "Feature", "properties": {"route": "25", "id": 15787, "name": "Bridge St &amp; Duffield St"}}, {"geometry": {"type": "Point", "coordinates": [-75.07596, 40.022513]}, "type": "Feature", "properties": {"route": "25", "id": 15788, "name": "Bridge St &amp; Darrah St"}}, {"geometry": {"type": "Point", "coordinates": [-75.076161, 40.022541]}, "type": "Feature", "properties": {"route": "25", "id": 15803, "name": "Bridge St &amp; Darrah St"}}, {"geometry": {"type": "Point", "coordinates": [-75.075102, 40.021547]}, "type": "Feature", "properties": {"route": "25", "id": 15804, "name": "Bridge St &amp; Duffield St"}}, {"geometry": {"type": "Point", "coordinates": [-75.074432, 40.020786]}, "type": "Feature", "properties": {"route": "25", "id": 15805, "name": "Bridge St &amp; Hawthorne St - FS"}}, {"geometry": {"type": "Point", "coordinates": [-75.073492, 40.019668]}, "type": "Feature", "properties": {"route": "25", "id": 15806, "name": "Bridge St &amp; Charles St"}}, {"geometry": {"type": "Point", "coordinates": [-75.072377, 40.018094]}, "type": "Feature", "properties": {"route": "25", "id": 15807, "name": "Bridge St &amp; Edrick St - FS"}}, {"geometry": {"type": "Point", "coordinates": [-75.071945, 40.016995]}, "type": "Feature", "properties": {"route": "25", "id": 15808, "name": "Bridge St &amp; Cottage St"}}, {"geometry": {"type": "Point", "coordinates": [-75.071548, 40.015967]}, "type": "Feature", "properties": {"route": "25", "id": 15809, "name": "Bridge St &amp; Jackson St"}}, {"geometry": {"type": "Point", "coordinates": [-75.070965, 40.014395]}, "type": "Feature", "properties": {"route": "25", "id": 15810, "name": "Bridge St &amp; Dittman St"}}, {"geometry": {"type": "Point", "coordinates": [-75.099102, 39.992383]}, "type": "Feature", "properties": {"route": "25", "id": 17768, "name": "Aramingo Av &amp; Tioga St"}}, {"geometry": {"type": "Point", "coordinates": [-75.101554, 39.991104]}, "type": "Feature", "properties": {"route": "25", "id": 17769, "name": "Aramingo Av &amp; Ontario St"}}, {"geometry": {"type": "Point", "coordinates": [-75.103828, 39.989914]}, "type": "Feature", "properties": {"route": "25", "id": 17772, "name": "Aramingo Av &amp; Westmoreland St"}}, {"geometry": {"type": "Point", "coordinates": [-75.106267, 39.988635]}, "type": "Feature", "properties": {"route": "25", "id": 17773, "name": "Aramingo Av &amp; Allegheny Av"}}, {"geometry": {"type": "Point", "coordinates": [-75.108742, 39.987365]}, "type": "Feature", "properties": {"route": "25", "id": 17775, "name": "Aramingo Av &amp; Clearfield St"}}, {"geometry": {"type": "Point", "coordinates": [-75.111525, 39.985908]}, "type": "Feature", "properties": {"route": "25", "id": 17782, "name": "Aramingo Av &amp; Ann St"}}, {"geometry": {"type": "Point", "coordinates": [-75.113337, 39.984958]}, "type": "Feature", "properties": {"route": "25", "id": 17783, "name": "Aramingo Av &amp; Cambria St"}}, {"geometry": {"type": "Point", "coordinates": [-75.115564, 39.983705]}, "type": "Feature", "properties": {"route": "25", "id": 17784, "name": "Aramingo Av &amp; Somerset St"}}, {"geometry": {"type": "Point", "coordinates": [-75.129599, 39.978045]}, "type": "Feature", "properties": {"route": "25", "id": 17803, "name": "Norris St &amp; Tulip St"}}, {"geometry": {"type": "Point", "coordinates": [-75.128715, 39.977525]}, "type": "Feature", "properties": {"route": "25", "id": 17804, "name": "Norris St &amp; Memphis St"}}, {"geometry": {"type": "Point", "coordinates": [-75.12756, 39.976853]}, "type": "Feature", "properties": {"route": "25", "id": 17805, "name": "Norris St &amp; Cedar St"}}, {"geometry": {"type": "Point", "coordinates": [-75.12601, 39.977483]}, "type": "Feature", "properties": {"route": "25", "id": 17806, "name": "Cedar St &amp; Dauphin St"}}, {"geometry": {"type": "Point", "coordinates": [-75.115671, 39.983455]}, "type": "Feature", "properties": {"route": "25", "id": 17814, "name": "Aramingo Av &amp; Somerset St"}}, {"geometry": {"type": "Point", "coordinates": [-75.113492, 39.984735]}, "type": "Feature", "properties": {"route": "25", "id": 17815, "name": "Aramingo Av &amp; Cambria St"}}, {"geometry": {"type": "Point", "coordinates": [-75.111668, 39.985685]}, "type": "Feature", "properties": {"route": "25", "id": 17816, "name": "Aramingo Av &amp; Ann St"}}, {"geometry": {"type": "Point", "coordinates": [-75.108885, 39.987133]}, "type": "Feature", "properties": {"route": "25", "id": 17817, "name": "Aramingo Av &amp; Clearfield St"}}, {"geometry": {"type": "Point", "coordinates": [-75.106434, 39.988394]}, "type": "Feature", "properties": {"route": "25", "id": 17818, "name": "Aramingo Av &amp; Allegheny Av"}}, {"geometry": {"type": "Point", "coordinates": [-75.103402, 39.989984]}, "type": "Feature", "properties": {"route": "25", "id": 17819, "name": "Aramingo Av &amp; Westmoreland St - FS"}}, {"geometry": {"type": "Point", "coordinates": [-75.101708, 39.990881]}, "type": "Feature", "properties": {"route": "25", "id": 17821, "name": "Aramingo Av &amp; Ontario St"}}, {"geometry": {"type": "Point", "coordinates": [-75.099387, 39.99208]}, "type": "Feature", "properties": {"route": "25", "id": 17822, "name": "Aramingo Av &amp; Tioga St"}}, {"geometry": {"type": "Point", "coordinates": [-75.073398, 40.012429]}, "type": "Feature", "properties": {"route": "25", "id": 17847, "name": "Torresdale Av &amp; Wakeling St"}}, {"geometry": {"type": "Point", "coordinates": [-75.071954, 40.012756]}, "type": "Feature", "properties": {"route": "25", "id": 17849, "name": "Torresdale Av &amp; Pratt St"}}, {"geometry": {"type": "Point", "coordinates": [-75.071811, 40.012934]}, "type": "Feature", "properties": {"route": "25", "id": 17982, "name": "Torresdale Av &amp; Pratt St"}}, {"geometry": {"type": "Point", "coordinates": [-75.073255, 40.012608]}, "type": "Feature", "properties": {"route": "25", "id": 17984, "name": "Torresdale Av &amp; Wakeling St"}}, {"geometry": {"type": "Point", "coordinates": [-75.07696, 40.011449]}, "type": "Feature", "properties": {"route": "25", "id": 18096, "name": "Torresdale Av &amp; Margaret St"}}, {"geometry": {"type": "Point", "coordinates": [-75.079153, 40.010188]}, "type": "Feature", "properties": {"route": "25", "id": 21960, "name": "Orthodox St &amp; Torresdale Av - FS"}}, {"geometry": {"type": "Point", "coordinates": [-75.077031, 40.023444]}, "type": "Feature", "properties": {"route": "25", "id": 21970, "name": "Frankford Transportation Center - R"}}, {"geometry": {"type": "Point", "coordinates": [-75.140704, 39.960453]}, "type": "Feature", "properties": {"route": "25", "id": 22030, "name": "Spring Garden St &amp; 2nd St - MBFS"}}, {"geometry": {"type": "Point", "coordinates": [-75.074776, 39.996725]}, "type": "Feature", "properties": {"route": "25", "id": 23782, "name": "Richmond St &amp; Sellers St"}}, {"geometry": {"type": "Point", "coordinates": [-75.076375, 39.995891]}, "type": "Feature", "properties": {"route": "25", "id": 23783, "name": "Richmond St &amp; Hedley St"}}, {"geometry": {"type": "Point", "coordinates": [-75.077536, 39.995296]}, "type": "Feature", "properties": {"route": "25", "id": 23784, "name": "Richmond St &amp; Alresford St"}}, {"geometry": {"type": "Point", "coordinates": [-75.078756, 39.994719]}, "type": "Feature", "properties": {"route": "25", "id": 23785, "name": "Richmond St &amp; Berkshire St"}}, {"geometry": {"type": "Point", "coordinates": [-75.081883, 39.993095]}, "type": "Feature", "properties": {"route": "25", "id": 23786, "name": "Richmond St &amp; Lewis St - FS"}}, {"geometry": {"type": "Point", "coordinates": [-75.083115, 39.992455]}, "type": "Feature", "properties": {"route": "25", "id": 23787, "name": "Richmond St &amp; Luzerne St"}}, {"geometry": {"type": "Point", "coordinates": [-75.08514, 39.991417]}, "type": "Feature", "properties": {"route": "25", "id": 23788, "name": "Richmond St &amp; Wheatsheaf Ln"}}, {"geometry": {"type": "Point", "coordinates": [-75.087355, 39.990298]}, "type": "Feature", "properties": {"route": "25", "id": 23789, "name": "Richmond St &amp; Butler St - FS"}}, {"geometry": {"type": "Point", "coordinates": [-75.089606, 39.989135]}, "type": "Feature", "properties": {"route": "25", "id": 23790, "name": "Richmond St &amp; Castor Av"}}, {"geometry": {"type": "Point", "coordinates": [-75.0852, 39.991265]}, "type": "Feature", "properties": {"route": "25", "id": 23796, "name": "Richmond St &amp; Wheatsheaf Ln"}}, {"geometry": {"type": "Point", "coordinates": [-75.083175, 39.992304]}, "type": "Feature", "properties": {"route": "25", "id": 23797, "name": "Richmond St &amp; Luzerne St"}}, {"geometry": {"type": "Point", "coordinates": [-75.081753, 39.993032]}, "type": "Feature", "properties": {"route": "25", "id": 23798, "name": "Richmond St &amp; Lewis St"}}, {"geometry": {"type": "Point", "coordinates": [-75.078555, 39.994629]}, "type": "Feature", "properties": {"route": "25", "id": 23799, "name": "Richmond St &amp; Berkshire St - FS"}}, {"geometry": {"type": "Point", "coordinates": [-75.077596, 39.995144]}, "type": "Feature", "properties": {"route": "25", "id": 23800, "name": "Richmond St &amp; Alresford St"}}, {"geometry": {"type": "Point", "coordinates": [-75.076506, 39.995677]}, "type": "Feature", "properties": {"route": "25", "id": 23801, "name": "Richmond St &amp; Hedley St"}}, {"geometry": {"type": "Point", "coordinates": [-75.074835, 39.996574]}, "type": "Feature", "properties": {"route": "25", "id": 23802, "name": "Richmond St &amp; Sellers St"}}, {"geometry": {"type": "Point", "coordinates": [-75.071044, 39.998517]}, "type": "Feature", "properties": {"route": "25", "id": 23804, "name": "Richmond St &amp; Lefevre St"}}, {"geometry": {"type": "Point", "coordinates": [-75.134346, 39.969979]}, "type": "Feature", "properties": {"route": "25", "id": 23929, "name": "Frankford Av &amp; Thompson St"}}, {"geometry": {"type": "Point", "coordinates": [-75.134327, 39.971702]}, "type": "Feature", "properties": {"route": "25", "id": 23930, "name": "Frankford Av &amp; Master St - FS"}}, {"geometry": {"type": "Point", "coordinates": [-75.134003, 39.972843]}, "type": "Feature", "properties": {"route": "25", "id": 23931, "name": "Frankford Av &amp; Jefferson St"}}, {"geometry": {"type": "Point", "coordinates": [-75.133373, 39.973922]}, "type": "Feature", "properties": {"route": "25", "id": 23932, "name": "Frankford Av &amp; Oxford St"}}, {"geometry": {"type": "Point", "coordinates": [-75.132659, 39.975179]}, "type": "Feature", "properties": {"route": "25", "id": 23933, "name": "Frankford Av &amp; Palmer St"}}, {"geometry": {"type": "Point", "coordinates": [-75.131778, 39.976738]}, "type": "Feature", "properties": {"route": "25", "id": 23934, "name": "Frankford Av &amp; Montgomery Av"}}, {"geometry": {"type": "Point", "coordinates": [-75.131326, 39.977523]}, "type": "Feature", "properties": {"route": "25", "id": 23935, "name": "Frankford Av &amp; Berks St"}}, {"geometry": {"type": "Point", "coordinates": [-75.130471, 39.97852]}, "type": "Feature", "properties": {"route": "25", "id": 23936, "name": "Frankford Av &amp; Norris St"}}, {"geometry": {"type": "Point", "coordinates": [-75.144508, 39.927405]}, "type": "Feature", "properties": {"route": "25", "id": 23977, "name": "Tasker St &amp; Columbus Blvd"}}, {"geometry": {"type": "Point", "coordinates": [-75.144145, 39.929733]}, "type": "Feature", "properties": {"route": "25", "id": 23978, "name": "Columbus Blvd &amp; Reed St"}}, {"geometry": {"type": "Point", "coordinates": [-75.14334, 39.933239]}, "type": "Feature", "properties": {"route": "25", "id": 23979, "name": "Columbus Blvd &amp; Washington Av"}}, {"geometry": {"type": "Point", "coordinates": [-75.142578, 39.934754]}, "type": "Feature", "properties": {"route": "25", "id": 23980, "name": "Columbus Blvd &amp; Christian St"}}, {"geometry": {"type": "Point", "coordinates": [-75.142067, 39.941482]}, "type": "Feature", "properties": {"route": "25", "id": 23981, "name": "Columbus Blvd &amp; Lombard Circle"}}, {"geometry": {"type": "Point", "coordinates": [-75.142032, 39.938421]}, "type": "Feature", "properties": {"route": "25", "id": 23982, "name": "Columbus Blvd &amp; Catherine St - MBFS"}}, {"geometry": {"type": "Point", "coordinates": [-75.141903, 39.944061]}, "type": "Feature", "properties": {"route": "25", "id": 23983, "name": "Columbus Blvd &amp; Spruce St"}}, {"geometry": {"type": "Point", "coordinates": [-75.141493, 39.946327]}, "type": "Feature", "properties": {"route": "25", "id": 23984, "name": "Columbus Blvd &amp; Walnut St"}}, {"geometry": {"type": "Point", "coordinates": [-75.140735, 39.949708]}, "type": "Feature", "properties": {"route": "25", "id": 23985, "name": "Columbus Blvd &amp; Penns Landing"}}, {"geometry": {"type": "Point", "coordinates": [-75.139752, 39.953401]}, "type": "Feature", "properties": {"route": "25", "id": 23986, "name": "Columbus Blvd &amp; Race St"}}, {"geometry": {"type": "Point", "coordinates": [-75.139071, 39.955291]}, "type": "Feature", "properties": {"route": "25", "id": 23987, "name": "Columbus Blvd &amp; Vine St - FS"}}, {"geometry": {"type": "Point", "coordinates": [-75.138617, 39.95662]}, "type": "Feature", "properties": {"route": "25", "id": 23988, "name": "Columbus Blvd &amp; Callowhill St"}}, {"geometry": {"type": "Point", "coordinates": [-75.134338, 39.966008]}, "type": "Feature", "properties": {"route": "25", "id": 23992, "name": "Frankford Av &amp; Richmond St"}}, {"geometry": {"type": "Point", "coordinates": [-75.124838, 39.978087]}, "type": "Feature", "properties": {"route": "25", "id": 23993, "name": "Cedar St &amp; York St"}}, {"geometry": {"type": "Point", "coordinates": [-75.123666, 39.978745]}, "type": "Feature", "properties": {"route": "25", "id": 23994, "name": "Cedar St &amp; Hagert St"}}, {"geometry": {"type": "Point", "coordinates": [-75.122494, 39.979349]}, "type": "Feature", "properties": {"route": "25", "id": 23995, "name": "Cedar St &amp; Cumberland St"}}, {"geometry": {"type": "Point", "coordinates": [-75.121298, 39.979971]}, "type": "Feature", "properties": {"route": "25", "id": 23996, "name": "Cedar St &amp; Sergeant St"}}, {"geometry": {"type": "Point", "coordinates": [-75.120173, 39.980548]}, "type": "Feature", "properties": {"route": "25", "id": 23997, "name": "Cedar St &amp; Huntingdon St"}}, {"geometry": {"type": "Point", "coordinates": [-75.119415, 39.980948]}, "type": "Feature", "properties": {"route": "25", "id": 23998, "name": "Cedar St &amp; Albert St"}}, {"geometry": {"type": "Point", "coordinates": [-75.097101, 39.993279]}, "type": "Feature", "properties": {"route": "25", "id": 23999, "name": "Aramingo Av &amp; Venango St"}}, {"geometry": {"type": "Point", "coordinates": [-75.071525, 39.999385]}, "type": "Feature", "properties": {"route": "25", "id": 24000, "name": "Lefevre St &amp; Salmon St"}}, {"geometry": {"type": "Point", "coordinates": [-75.07244, 40.000619]}, "type": "Feature", "properties": {"route": "25", "id": 24001, "name": "Lefevre St &amp; Thompson St"}}, {"geometry": {"type": "Point", "coordinates": [-75.073086, 40.001513]}, "type": "Feature", "properties": {"route": "25", "id": 24002, "name": "Lefevre St &amp; Almond St"}}, {"geometry": {"type": "Point", "coordinates": [-75.073943, 40.002658]}, "type": "Feature", "properties": {"route": "25", "id": 24003, "name": "Lefevre St &amp; Miller St"}}, {"geometry": {"type": "Point", "coordinates": [-75.075863, 40.006296]}, "type": "Feature", "properties": {"route": "25", "id": 24005, "name": "Margaret St &amp; Stiles St"}}, {"geometry": {"type": "Point", "coordinates": [-75.076602, 40.009788]}, "type": "Feature", "properties": {"route": "25", "id": 24007, "name": "Margaret St &amp; Worth St"}}, {"geometry": {"type": "Point", "coordinates": [-75.076973, 40.011244]}, "type": "Feature", "properties": {"route": "25", "id": 24008, "name": "Margaret St &amp; Torresdale Av"}}, {"geometry": {"type": "Point", "coordinates": [-75.078707, 40.009428]}, "type": "Feature", "properties": {"route": "25", "id": 24010, "name": "Orthodox St &amp; Worth St"}}, {"geometry": {"type": "Point", "coordinates": [-75.078268, 40.00749]}, "type": "Feature", "properties": {"route": "25", "id": 24011, "name": "Orthodox St &amp; Tacony St"}}, {"geometry": {"type": "Point", "coordinates": [-75.077979, 40.006123]}, "type": "Feature", "properties": {"route": "25", "id": 24012, "name": "Orthodox St &amp; Stiles St"}}, {"geometry": {"type": "Point", "coordinates": [-75.077667, 40.004766]}, "type": "Feature", "properties": {"route": "25", "id": 24013, "name": "Orthodox St &amp; Bermuda St"}}, {"geometry": {"type": "Point", "coordinates": [-75.077482, 40.003837]}, "type": "Feature", "properties": {"route": "25", "id": 24014, "name": "Orthodox St &amp; Aramingo Av - FS"}}, {"geometry": {"type": "Point", "coordinates": [-75.076693, 40.000818]}, "type": "Feature", "properties": {"route": "25", "id": 24015, "name": "Orthodox St &amp; Belgrade St"}}, {"geometry": {"type": "Point", "coordinates": [-75.076071, 40.000094]}, "type": "Feature", "properties": {"route": "25", "id": 24016, "name": "Orthodox St &amp; Almond St"}}, {"geometry": {"type": "Point", "coordinates": [-75.07533, 39.99927]}, "type": "Feature", "properties": {"route": "25", "id": 24017, "name": "Orthodox St &amp; Thompson St"}}, {"geometry": {"type": "Point", "coordinates": [-75.074284, 39.998089]}, "type": "Feature", "properties": {"route": "25", "id": 24018, "name": "Orthodox St &amp; Salmon St"}}, {"geometry": {"type": "Point", "coordinates": [-75.096958, 39.99351]}, "type": "Feature", "properties": {"route": "25", "id": 24019, "name": "Aramingo Av &amp; Venango St"}}, {"geometry": {"type": "Point", "coordinates": [-75.118876, 39.982705]}, "type": "Feature", "properties": {"route": "25", "id": 24020, "name": "Memphis St &amp; Lehigh Av - FS"}}, {"geometry": {"type": "Point", "coordinates": [-75.120178, 39.982021]}, "type": "Feature", "properties": {"route": "25", "id": 24021, "name": "Memphis St &amp; Albert St"}}, {"geometry": {"type": "Point", "coordinates": [-75.120948, 39.98163]}, "type": "Feature", "properties": {"route": "25", "id": 24022, "name": "Memphis St &amp; Huntingdon St"}}, {"geometry": {"type": "Point", "coordinates": [-75.122108, 39.981044]}, "type": "Feature", "properties": {"route": "25", "id": 24023, "name": "Memphis St &amp; Sergeant St"}}, {"geometry": {"type": "Point", "coordinates": [-75.123304, 39.980404]}, "type": "Feature", "properties": {"route": "25", "id": 24024, "name": "Memphis St &amp; Cumberland St"}}, {"geometry": {"type": "Point", "coordinates": [-75.124441, 39.979827]}, "type": "Feature", "properties": {"route": "25", "id": 24025, "name": "Memphis St &amp; Hagert St"}}, {"geometry": {"type": "Point", "coordinates": [-75.125578, 39.979205]}, "type": "Feature", "properties": {"route": "25", "id": 24026, "name": "Memphis St &amp; York St"}}, {"geometry": {"type": "Point", "coordinates": [-75.126762, 39.978574]}, "type": "Feature", "properties": {"route": "25", "id": 24027, "name": "Memphis St &amp; Dauphin St"}}, {"geometry": {"type": "Point", "coordinates": [-75.127945, 39.97797]}, "type": "Feature", "properties": {"route": "25", "id": 24028, "name": "Memphis St &amp; Susquehanna Av"}}, {"geometry": {"type": "Point", "coordinates": [-75.12862, 39.977597]}, "type": "Feature", "properties": {"route": "25", "id": 24029, "name": "Memphis St &amp; Norris St"}}, {"geometry": {"type": "Point", "coordinates": [-75.129132, 39.976803]}, "type": "Feature", "properties": {"route": "25", "id": 24030, "name": "Memphis St &amp; Berks St"}}, {"geometry": {"type": "Point", "coordinates": [-75.129715, 39.975796]}, "type": "Feature", "properties": {"route": "25", "id": 24031, "name": "Memphis St &amp; Montgomery St - FS"}}, {"geometry": {"type": "Point", "coordinates": [-75.130417, 39.974575]}, "type": "Feature", "properties": {"route": "25", "id": 24032, "name": "Memphis St &amp; Palmer St"}}, {"geometry": {"type": "Point", "coordinates": [-75.131278, 39.974872]}, "type": "Feature", "properties": {"route": "25", "id": 24033, "name": "Palmer St &amp; Tulip St"}}, {"geometry": {"type": "Point", "coordinates": [-75.132575, 39.975321]}, "type": "Feature", "properties": {"route": "25", "id": 24034, "name": "Palmer St &amp; Frankford Av"}}, {"geometry": {"type": "Point", "coordinates": [-75.134109, 39.972933]}, "type": "Feature", "properties": {"route": "25", "id": 24035, "name": "Frankford Av &amp; Jefferson St"}}, {"geometry": {"type": "Point", "coordinates": [-75.134481, 39.971479]}, "type": "Feature", "properties": {"route": "25", "id": 24036, "name": "Frankford Av &amp; Master St - FS"}}, {"geometry": {"type": "Point", "coordinates": [-75.134498, 39.970256]}, "type": "Feature", "properties": {"route": "25", "id": 24037, "name": "Frankford Av &amp; Thompson St"}}, {"geometry": {"type": "Point", "coordinates": [-75.134492, 39.966124]}, "type": "Feature", "properties": {"route": "25", "id": 24038, "name": "Frankford Av &amp; Richmond St"}}, {"geometry": {"type": "Point", "coordinates": [-75.134485, 39.964812]}, "type": "Feature", "properties": {"route": "25", "id": 24039, "name": "Frankford Av &amp; Delaware Av"}}, {"geometry": {"type": "Point", "coordinates": [-75.138503, 39.961332]}, "type": "Feature", "properties": {"route": "25", "id": 24041, "name": "Fairmount Av &amp; Front St"}}, {"geometry": {"type": "Point", "coordinates": [-75.139425, 39.955408]}, "type": "Feature", "properties": {"route": "25", "id": 24042, "name": "Columbus Blvd &amp; Vine St"}}, {"geometry": {"type": "Point", "coordinates": [-75.141017, 39.950182]}, "type": "Feature", "properties": {"route": "25", "id": 24043, "name": "Columbus Blvd &amp; Market St"}}, {"geometry": {"type": "Point", "coordinates": [-75.142257, 39.944232]}, "type": "Feature", "properties": {"route": "25", "id": 24044, "name": "Columbus Blvd &amp; Spruce St"}}, {"geometry": {"type": "Point", "coordinates": [-75.142432, 39.941715]}, "type": "Feature", "properties": {"route": "25", "id": 24045, "name": "Columbus Blvd &amp; I95 Ramp"}}, {"geometry": {"type": "Point", "coordinates": [-75.14242, 39.938788]}, "type": "Feature", "properties": {"route": "25", "id": 24046, "name": "Columbus Blvd &amp; I95 Ramp"}}, {"geometry": {"type": "Point", "coordinates": [-75.142778, 39.934996]}, "type": "Feature", "properties": {"route": "25", "id": 24047, "name": "Columbus Blvd &amp; Christian St"}}, {"geometry": {"type": "Point", "coordinates": [-75.14451, 39.929984]}, "type": "Feature", "properties": {"route": "25", "id": 24049, "name": "Columbus Blvd &amp; Reed St"}}, {"geometry": {"type": "Point", "coordinates": [-75.145074, 39.927513]}, "type": "Feature", "properties": {"route": "25", "id": 24050, "name": "Columbus Blvd &amp; Tasker St"}}, {"geometry": {"type": "Point", "coordinates": [-75.135306, 39.963422]}, "type": "Feature", "properties": {"route": "25", "id": 24072, "name": "Delaware Av &amp; Ellen St"}}, {"geometry": {"type": "Point", "coordinates": [-75.133407, 39.974145]}, "type": "Feature", "properties": {"route": "25", "id": 24092, "name": "Frankford Av &amp; Oxford St"}}, {"geometry": {"type": "Point", "coordinates": [-75.093473, 39.993323]}, "type": "Feature", "properties": {"route": "25", "id": 24106, "name": "Castor Av &amp; Gaul St"}}, {"geometry": {"type": "Point", "coordinates": [-75.091322, 39.990916]}, "type": "Feature", "properties": {"route": "25", "id": 24107, "name": "Castor Av &amp; Thompson St"}}, {"geometry": {"type": "Point", "coordinates": [-75.087202, 39.990253]}, "type": "Feature", "properties": {"route": "25", "id": 24108, "name": "Richmond St &amp; Butler St"}}, {"geometry": {"type": "Point", "coordinates": [-75.075456, 40.004813]}, "type": "Feature", "properties": {"route": "25", "id": 24109, "name": "Lefevre St &amp; Pearce St - FS"}}, {"geometry": {"type": "Point", "coordinates": [-75.142454, 39.924383]}, "type": "Feature", "properties": {"route": "25", "id": 24209, "name": "Pier 70 Blvd &amp; Columbus Blvd - FS"}}, {"geometry": {"type": "Point", "coordinates": [-75.144097, 39.92104]}, "type": "Feature", "properties": {"route": "25", "id": 24268, "name": "Snyder Av &amp; Dilworth St - MBNS"}}, {"geometry": {"type": "Point", "coordinates": [-75.14469, 39.929243]}, "type": "Feature", "properties": {"route": "25", "id": 24736, "name": "Columbus Blvd &amp; Reed St - MBFS"}}, {"geometry": {"type": "Point", "coordinates": [-75.144737, 39.920292]}, "type": "Feature", "properties": {"route": "25", "id": 28166, "name": "Weccacoe Av &amp; Vandalia St"}}, {"geometry": {"type": "Point", "coordinates": [-75.143108, 39.917307]}, "type": "Feature", "properties": {"route": "25", "id": 30090, "name": "Weccacoe Av &amp; Wolf St - MBNS"}}, {"geometry": {"type": "Point", "coordinates": [-75.145241, 39.921105]}, "type": "Feature", "properties": {"route": "25", "id": 30091, "name": "Weccacoe Av &amp; Snyder Av"}}, {"geometry": {"type": "Point", "coordinates": [-75.143011, 39.920895]}, "type": "Feature", "properties": {"route": "25", "id": 30092, "name": "Snyder Av &amp; Dilworth St - FS"}}, {"geometry": {"type": "Point", "coordinates": [-75.141228, 39.920989]}, "type": "Feature", "properties": {"route": "25", "id": 30093, "name": "Columbus Blvd &amp; Snyder Av - FS"}}, {"geometry": {"type": "Point", "coordinates": [-75.144445, 39.92852]}, "type": "Feature", "properties": {"route": "25", "id": 30094, "name": "Columbus Blvd &amp; Dickinson St"}}, {"geometry": {"type": "Point", "coordinates": [-75.143097, 39.923126]}, "type": "Feature", "properties": {"route": "25", "id": 30096, "name": "Delaware Av &amp; Dilworth St"}}, {"geometry": {"type": "Point", "coordinates": [-75.139592, 39.91688]}, "type": "Feature", "properties": {"route": "25", "id": 30280, "name": "Columbus Commons - 1"}}, {"geometry": {"type": "Point", "coordinates": [-75.14055, 39.916543]}, "type": "Feature", "properties": {"route": "25", "id": 30281, "name": "Columbus Commons - 2"}}, {"geometry": {"type": "Point", "coordinates": [-75.141555, 39.916162]}, "type": "Feature", "properties": {"route": "25", "id": 30282, "name": "Columbus Commons 3"}}, {"geometry": {"type": "Point", "coordinates": [-75.141087, 39.961936]}, "type": "Feature", "properties": {"route": "25", "id": 30301, "name": "Fairmount Av &amp; 2nd St"}}, {"geometry": {"type": "Point", "coordinates": [-75.090276, 39.989717]}, "type": "Feature", "properties": {"route": "25", "id": 30307, "name": "Castor Av &amp; Salmon St"}}, {"geometry": {"type": "Point", "coordinates": [-75.076475, 40.023434]}, "type": "Feature", "properties": {"route": "25", "id": 30388, "name": "Frankford Av &amp; Bridge St - FS"}}, {"geometry": {"type": "Point", "coordinates": [-75.075405, 40.027072]}, "type": "Feature", "properties": {"route": "25", "id": 30389, "name": "Cheltenham Av &amp; Bustleton Av"}}, {"geometry": {"type": "Point", "coordinates": [-75.137923, 39.958742]}, "type": "Feature", "properties": {"route": "25", "id": 30599, "name": "Columbus Blvd &amp; Noble St - FS"}}, {"geometry": {"type": "Point", "coordinates": [-75.139174, 39.956157]}, "type": "Feature", "properties": {"route": "25", "id": 30600, "name": "Columbus Av &amp; Callowhill St - MBFS"}}, {"geometry": {"type": "Point", "coordinates": [-75.136482, 39.961666]}, "type": "Feature", "properties": {"route": "25", "id": 30602, "name": "Delaware Av &amp; Penn St"}}, {"geometry": {"type": "Point", "coordinates": [-75.135494, 39.963681]}, "type": "Feature", "properties": {"route": "25", "id": 30603, "name": "Delaware Av &amp; Ellen St - FS"}}, {"geometry": {"type": "Point", "coordinates": [-75.141769, 39.945025]}, "type": "Feature", "properties": {"route": "25", "id": 30892, "name": "Columbus Blvd &amp; Dock St"}}, {"geometry": {"type": "Point", "coordinates": [-75.141216, 39.947612]}, "type": "Feature", "properties": {"route": "25", "id": 30893, "name": "Columbus Blvd &amp; Chestnut St"}}, {"geometry": {"type": "Point", "coordinates": [-75.130353, 39.978449]}, "type": "Feature", "properties": {"route": "25", "id": 30894, "name": "Norris St &amp; Frankford Av - FS"}}, {"geometry": {"type": "Point", "coordinates": [-75.078129, 40.006793]}, "type": "Feature", "properties": {"route": "25", "id": 30895, "name": "Orthodox St &amp; Melrose St"}}, {"geometry": {"type": "Point", "coordinates": [-75.091051, 39.990817]}, "type": "Feature", "properties": {"route": "25", "id": 30896, "name": "Castor Av &amp; Thompson St"}}, {"geometry": {"type": "Point", "coordinates": [-75.093202, 39.993215]}, "type": "Feature", "properties": {"route": "25", "id": 30897, "name": "Castor Av &amp; Gaul St"}}, {"geometry": {"type": "Point", "coordinates": [-75.140357, 39.952688]}, "type": "Feature", "properties": {"route": "25", "id": 30898, "name": "Columbus Blvd &amp; Race St - MBFS"}}, {"geometry": {"type": "Point", "coordinates": [-75.141834, 39.946605]}, "type": "Feature", "properties": {"route": "25", "id": 30899, "name": "Columbus Blvd &amp; Walnut St"}}, {"geometry": {"type": "Point", "coordinates": [-75.142099, 39.945222]}, "type": "Feature", "properties": {"route": "25", "id": 30900, "name": "Columbus Blvd &amp; Dock St"}}, {"geometry": {"type": "Point", "coordinates": [-75.142472, 39.940537]}, "type": "Feature", "properties": {"route": "25", "id": 30901, "name": "Columbus Blvd &amp; South St - FS"}}, {"geometry": {"type": "Point", "coordinates": [-75.143957, 39.932419]}, "type": "Feature", "properties": {"route": "25", "id": 30902, "name": "Columbus Blvd &amp; Washington Av - MBF"}}, {"geometry": {"type": "Point", "coordinates": [-75.143975, 39.924333]}, "type": "Feature", "properties": {"route": "25", "id": 30903, "name": "Columbus Blvd &amp; Pier 70 Blvd"}}, {"geometry": {"type": "Point", "coordinates": [-75.076128, 40.0076]}, "type": "Feature", "properties": {"route": "25", "id": 31195, "name": "Margaret St &amp; Tacony St"}}, {"geometry": {"type": "Point", "coordinates": [-75.134342, 39.965205]}, "type": "Feature", "properties": {"route": "25", "id": 31289, "name": "Frankford Av &amp; Delaware Av - FS"}}, {"geometry": {"type": "Point", "coordinates": [-75.141806, 39.921205]}, "type": "Feature", "properties": {"route": "25", "id": 31358, "name": "Columbus Blvd &amp; Snyder Av - 2 MBNS"}}, {"geometry": {"type": "Point", "coordinates": [-75.139027, 39.960253]}, "type": "Feature", "properties": {"route": "25", "id": 31687, "name": "Spring Garden St &amp; Front St"}}, {"geometry": {"type": "Point", "coordinates": [-75.136718, 39.961872]}, "type": "Feature", "properties": {"route": "25", "id": 31753, "name": "Delaware Av &amp; Penn St"}}, {"geometry": {"type": "Point", "coordinates": [-75.070415, 40.013358]}, "type": "Feature", "properties": {"route": "25", "id": 32063, "name": "Bridge St &amp; Torresdale Av - FS"}}]}