{"type": "FeatureCollection", "features": [{"geometry": {"type": "Point", "coordinates": [-75.20188, 39.957179]}, "type": "Feature", "properties": {"route": "30", "id": 300, "name": "Market St &amp; 40th St"}}, {"geometry": {"type": "Point", "coordinates": [-75.204961, 39.957586]}, "type": "Feature", "properties": {"route": "30", "id": 347, "name": "Market St &amp; 41st St"}}, {"geometry": {"type": "Point", "coordinates": [-75.205111, 39.958836]}, "type": "Feature", "properties": {"route": "30", "id": 351, "name": "41st St &amp; Powelton Av"}}, {"geometry": {"type": "Point", "coordinates": [-75.205375, 39.961246]}, "type": "Feature", "properties": {"route": "30", "id": 364, "name": "41st St &amp; Spring Garden Av"}}, {"geometry": {"type": "Point", "coordinates": [-75.202381, 39.955573]}, "type": "Feature", "properties": {"route": "30", "id": 421, "name": "Chestnut St &amp; 40th St"}}, {"geometry": {"type": "Point", "coordinates": [-75.258303, 39.973655]}, "type": "Feature", "properties": {"route": "30", "id": 551, "name": "Lansdowne Av &amp; Haverford Av"}}, {"geometry": {"type": "Point", "coordinates": [-75.249943, 39.967762]}, "type": "Feature", "properties": {"route": "30", "id": 552, "name": "Vine St &amp; 65th St"}}, {"geometry": {"type": "Point", "coordinates": [-75.237923, 39.966271]}, "type": "Feature", "properties": {"route": "30", "id": 553, "name": "Vine St &amp; 59th St"}}, {"geometry": {"type": "Point", "coordinates": [-75.224757, 39.964876]}, "type": "Feature", "properties": {"route": "30", "id": 554, "name": "Haverford Av &amp; 52nd St"}}, {"geometry": {"type": "Point", "coordinates": [-75.203535, 39.949167]}, "type": "Feature", "properties": {"route": "30", "id": 556, "name": "Woodland Av &amp; 40th St"}}, {"geometry": {"type": "Point", "coordinates": [-75.224521, 39.965045]}, "type": "Feature", "properties": {"route": "30", "id": 557, "name": "Haverford Av &amp; 52nd St"}}, {"geometry": {"type": "Point", "coordinates": [-75.237136, 39.96901]}, "type": "Feature", "properties": {"route": "30", "id": 558, "name": "Haverford Av &amp; 59th St"}}, {"geometry": {"type": "Point", "coordinates": [-75.248679, 39.972383]}, "type": "Feature", "properties": {"route": "30", "id": 559, "name": "Haverford Av &amp; 65th St"}}, {"geometry": {"type": "Point", "coordinates": [-75.189072, 39.95562]}, "type": "Feature", "properties": {"route": "30", "id": 573, "name": "Market St &amp; 33rd St"}}, {"geometry": {"type": "Point", "coordinates": [-75.204884, 39.95589]}, "type": "Feature", "properties": {"route": "30", "id": 592, "name": "Chestnut St &amp; 41st St"}}, {"geometry": {"type": "Point", "coordinates": [-75.200044, 39.955292]}, "type": "Feature", "properties": {"route": "30", "id": 598, "name": "Chestnut St &amp; 39th St"}}, {"geometry": {"type": "Point", "coordinates": [-75.258296, 39.962052]}, "type": "Feature", "properties": {"route": "30", "id": 1148, "name": "69th St Transportation Center South"}}, {"geometry": {"type": "Point", "coordinates": [-75.18319, 39.955591]}, "type": "Feature", "properties": {"route": "30", "id": 1537, "name": "30th St &amp; Market St - MBNS"}}, {"geometry": {"type": "Point", "coordinates": [-75.258601, 39.96282]}, "type": "Feature", "properties": {"route": "30", "id": 2024, "name": "69th St Transportation Center North"}}, {"geometry": {"type": "Point", "coordinates": [-75.258788, 39.973414]}, "type": "Feature", "properties": {"route": "30", "id": 19536, "name": "Lansdowne Av &amp; Haverford Av - FS"}}, {"geometry": {"type": "Point", "coordinates": [-75.203535, 39.949034]}, "type": "Feature", "properties": {"route": "30", "id": 20730, "name": "Woodland Av &amp; 40th St"}}, {"geometry": {"type": "Point", "coordinates": [-75.205757, 39.948466]}, "type": "Feature", "properties": {"route": "30", "id": 20803, "name": "Chester Av &amp; 41st St"}}, {"geometry": {"type": "Point", "coordinates": [-75.204977, 39.948599]}, "type": "Feature", "properties": {"route": "30", "id": 20805, "name": "Woodland Av &amp; Chester Av"}}, {"geometry": {"type": "Point", "coordinates": [-75.206879, 39.948549]}, "type": "Feature", "properties": {"route": "30", "id": 20807, "name": "Chester Av &amp; 42nd St"}}, {"geometry": {"type": "Point", "coordinates": [-75.204966, 39.948492]}, "type": "Feature", "properties": {"route": "30", "id": 20925, "name": "Woodland Av &amp; Chester Av"}}, {"geometry": {"type": "Point", "coordinates": [-75.240781, 39.970899]}, "type": "Feature", "properties": {"route": "30", "id": 21041, "name": "Haverford Av &amp; 61st St"}}, {"geometry": {"type": "Point", "coordinates": [-75.242704, 39.971642]}, "type": "Feature", "properties": {"route": "30", "id": 21042, "name": "Haverford Av &amp; 62nd St"}}, {"geometry": {"type": "Point", "coordinates": [-75.198533, 39.947641]}, "type": "Feature", "properties": {"route": "30", "id": 21230, "name": "University Av &amp; Curie Blvd"}}, {"geometry": {"type": "Point", "coordinates": [-75.202021, 39.957259]}, "type": "Feature", "properties": {"route": "30", "id": 21248, "name": "40th St &amp; Market St"}}, {"geometry": {"type": "Point", "coordinates": [-75.204994, 39.954462]}, "type": "Feature", "properties": {"route": "30", "id": 21365, "name": "Walnut St &amp; 41st St"}}, {"geometry": {"type": "Point", "coordinates": [-75.260114, 39.972158]}, "type": "Feature", "properties": {"route": "30", "id": 21392, "name": "Lansdowne Av &amp; 75th St"}}, {"geometry": {"type": "Point", "coordinates": [-75.25462, 39.972597]}, "type": "Feature", "properties": {"route": "30", "id": 21393, "name": "Haverford Av &amp; 68th St - FS"}}, {"geometry": {"type": "Point", "coordinates": [-75.253404, 39.972372]}, "type": "Feature", "properties": {"route": "30", "id": 21394, "name": "Haverford Av &amp; 67th St"}}, {"geometry": {"type": "Point", "coordinates": [-75.251515, 39.971958]}, "type": "Feature", "properties": {"route": "30", "id": 21395, "name": "66th St &amp; Haverford Av - FS"}}, {"geometry": {"type": "Point", "coordinates": [-75.251246, 39.970878]}, "type": "Feature", "properties": {"route": "30", "id": 21396, "name": "66th St &amp; Girard Av - FS"}}, {"geometry": {"type": "Point", "coordinates": [-75.251533, 39.969656]}, "type": "Feature", "properties": {"route": "30", "id": 21397, "name": "66th St &amp; Callowhill St"}}, {"geometry": {"type": "Point", "coordinates": [-75.250589, 39.969235]}, "type": "Feature", "properties": {"route": "30", "id": 21398, "name": "Daggett St &amp; Callowhill St - FS"}}, {"geometry": {"type": "Point", "coordinates": [-75.247959, 39.967527]}, "type": "Feature", "properties": {"route": "30", "id": 21399, "name": "Vine St &amp; 64th St"}}, {"geometry": {"type": "Point", "coordinates": [-75.245976, 39.967292]}, "type": "Feature", "properties": {"route": "30", "id": 21400, "name": "Vine St &amp; 63rd St"}}, {"geometry": {"type": "Point", "coordinates": [-75.243874, 39.967021]}, "type": "Feature", "properties": {"route": "30", "id": 21401, "name": "Vine St &amp; 62nd St"}}, {"geometry": {"type": "Point", "coordinates": [-75.241878, 39.966777]}, "type": "Feature", "properties": {"route": "30", "id": 21402, "name": "Vine St &amp; 61st St"}}, {"geometry": {"type": "Point", "coordinates": [-75.239918, 39.966524]}, "type": "Feature", "properties": {"route": "30", "id": 21403, "name": "Vine St &amp; 60th St"}}, {"geometry": {"type": "Point", "coordinates": [-75.235963, 39.966036]}, "type": "Feature", "properties": {"route": "30", "id": 21404, "name": "Vine St &amp; 58th St"}}, {"geometry": {"type": "Point", "coordinates": [-75.234003, 39.965783]}, "type": "Feature", "properties": {"route": "30", "id": 21405, "name": "Vine St &amp; 57th St"}}, {"geometry": {"type": "Point", "coordinates": [-75.232007, 39.965539]}, "type": "Feature", "properties": {"route": "30", "id": 21406, "name": "Vine St &amp; 56th St"}}, {"geometry": {"type": "Point", "coordinates": [-75.230036, 39.965295]}, "type": "Feature", "properties": {"route": "30", "id": 21407, "name": "Vine St &amp; 55th St"}}, {"geometry": {"type": "Point", "coordinates": [-75.227757, 39.964997]}, "type": "Feature", "properties": {"route": "30", "id": 21408, "name": "Vine St &amp; 54th St"}}, {"geometry": {"type": "Point", "coordinates": [-75.226175, 39.964825]}, "type": "Feature", "properties": {"route": "30", "id": 21409, "name": "Vine St &amp; 53rd St"}}, {"geometry": {"type": "Point", "coordinates": [-75.222066, 39.964211]}, "type": "Feature", "properties": {"route": "30", "id": 21410, "name": "Haverford Av &amp; 51st St"}}, {"geometry": {"type": "Point", "coordinates": [-75.220154, 39.963788]}, "type": "Feature", "properties": {"route": "30", "id": 21411, "name": "Haverford Av &amp; 50th St"}}, {"geometry": {"type": "Point", "coordinates": [-75.218207, 39.963125]}, "type": "Feature", "properties": {"route": "30", "id": 21412, "name": "Haverford Av &amp; 49th St"}}, {"geometry": {"type": "Point", "coordinates": [-75.216426, 39.962452]}, "type": "Feature", "properties": {"route": "30", "id": 21413, "name": "Haverford Av &amp; 48th St"}}, {"geometry": {"type": "Point", "coordinates": [-75.213272, 39.962518]}, "type": "Feature", "properties": {"route": "30", "id": 21415, "name": "Haverford Av &amp; 46th St"}}, {"geometry": {"type": "Point", "coordinates": [-75.210674, 39.962505]}, "type": "Feature", "properties": {"route": "30", "id": 21416, "name": "Haverford Av &amp; 44th St"}}, {"geometry": {"type": "Point", "coordinates": [-75.209186, 39.962288]}, "type": "Feature", "properties": {"route": "30", "id": 21417, "name": "Haverford Av &amp; 43rd St"}}, {"geometry": {"type": "Point", "coordinates": [-75.206965, 39.962445]}, "type": "Feature", "properties": {"route": "30", "id": 21418, "name": "Haverford Av &amp; 42nd St"}}, {"geometry": {"type": "Point", "coordinates": [-75.205654, 39.962541]}, "type": "Feature", "properties": {"route": "30", "id": 21419, "name": "Haverford Av &amp; 41st St"}}, {"geometry": {"type": "Point", "coordinates": [-75.204047, 39.962681]}, "type": "Feature", "properties": {"route": "30", "id": 21420, "name": "Haverford Av &amp; Preston St"}}, {"geometry": {"type": "Point", "coordinates": [-75.202441, 39.962812]}, "type": "Feature", "properties": {"route": "30", "id": 21421, "name": "Haverford Av &amp; 40th St"}}, {"geometry": {"type": "Point", "coordinates": [-75.202314, 39.961705]}, "type": "Feature", "properties": {"route": "30", "id": 21422, "name": "40th St &amp; Spring Garden St"}}, {"geometry": {"type": "Point", "coordinates": [-75.202177, 39.960464]}, "type": "Feature", "properties": {"route": "30", "id": 21423, "name": "40th St &amp; Baring St"}}, {"geometry": {"type": "Point", "coordinates": [-75.202039, 39.959232]}, "type": "Feature", "properties": {"route": "30", "id": 21424, "name": "40th St &amp; Powelton Av"}}, {"geometry": {"type": "Point", "coordinates": [-75.202321, 39.955752]}, "type": "Feature", "properties": {"route": "30", "id": 21425, "name": "40th St &amp; Chestnut St"}}, {"geometry": {"type": "Point", "coordinates": [-75.202633, 39.954208]}, "type": "Feature", "properties": {"route": "30", "id": 21426, "name": "40th St &amp; Walnut St"}}, {"geometry": {"type": "Point", "coordinates": [-75.20653, 39.954421]}, "type": "Feature", "properties": {"route": "30", "id": 21428, "name": "42nd St &amp; Walnut St - FS"}}, {"geometry": {"type": "Point", "coordinates": [-75.206721, 39.953546]}, "type": "Feature", "properties": {"route": "30", "id": 21429, "name": "42nd St &amp; Locust St"}}, {"geometry": {"type": "Point", "coordinates": [-75.206985, 39.952342]}, "type": "Feature", "properties": {"route": "30", "id": 21430, "name": "42nd St &amp; Spruce St"}}, {"geometry": {"type": "Point", "coordinates": [-75.207189, 39.951253]}, "type": "Feature", "properties": {"route": "30", "id": 21431, "name": "42nd St &amp; Pine St"}}, {"geometry": {"type": "Point", "coordinates": [-75.207241, 39.949879]}, "type": "Feature", "properties": {"route": "30", "id": 21432, "name": "42nd St &amp; Baltimore Av"}}, {"geometry": {"type": "Point", "coordinates": [-75.207174, 39.948594]}, "type": "Feature", "properties": {"route": "30", "id": 21433, "name": "42nd St &amp; Chester Av"}}, {"geometry": {"type": "Point", "coordinates": [-75.199415, 39.948821]}, "type": "Feature", "properties": {"route": "30", "id": 21435, "name": "University Av &amp; Baltimore Av - MBFS"}}, {"geometry": {"type": "Point", "coordinates": [-75.196815, 39.945835]}, "type": "Feature", "properties": {"route": "30", "id": 21437, "name": "Health Sciences Dr &amp; Civic Ctr Blvd"}}, {"geometry": {"type": "Point", "coordinates": [-75.192671, 39.949112]}, "type": "Feature", "properties": {"route": "30", "id": 21438, "name": "Civic Center Blvd &amp; Convention Av -"}}, {"geometry": {"type": "Point", "coordinates": [-75.194483, 39.947571]}, "type": "Feature", "properties": {"route": "30", "id": 21439, "name": "Civic Center Blvd &amp; Osler Cir"}}, {"geometry": {"type": "Point", "coordinates": [-75.191941, 39.95008]}, "type": "Feature", "properties": {"route": "30", "id": 21441, "name": "33rd St &amp; Spruce St"}}, {"geometry": {"type": "Point", "coordinates": [-75.190503, 39.951249]}, "type": "Feature", "properties": {"route": "30", "id": 21442, "name": "33rd St &amp; Locust St"}}, {"geometry": {"type": "Point", "coordinates": [-75.189991, 39.952444]}, "type": "Feature", "properties": {"route": "30", "id": 21443, "name": "33rd St &amp; Walnut St"}}, {"geometry": {"type": "Point", "coordinates": [-75.189438, 39.955406]}, "type": "Feature", "properties": {"route": "30", "id": 21445, "name": "33rd St &amp; Market St"}}, {"geometry": {"type": "Point", "coordinates": [-75.186956, 39.955735]}, "type": "Feature", "properties": {"route": "30", "id": 21446, "name": "JFK Blvd &amp; Market St - FS"}}, {"geometry": {"type": "Point", "coordinates": [-75.191839, 39.954474]}, "type": "Feature", "properties": {"route": "30", "id": 21448, "name": "34th St &amp; Chestnut St"}}, {"geometry": {"type": "Point", "coordinates": [-75.192247, 39.952493]}, "type": "Feature", "properties": {"route": "30", "id": 21449, "name": "34th St &amp; Walnut St - FS"}}, {"geometry": {"type": "Point", "coordinates": [-75.192643, 39.95054]}, "type": "Feature", "properties": {"route": "30", "id": 21450, "name": "34th St &amp; Spruce St"}}, {"geometry": {"type": "Point", "coordinates": [-75.19939, 39.949231]}, "type": "Feature", "properties": {"route": "30", "id": 21451, "name": "University Av &amp; Veterans Hosp"}}, {"geometry": {"type": "Point", "coordinates": [-75.201797, 39.949727]}, "type": "Feature", "properties": {"route": "30", "id": 21452, "name": "Woodland Av &amp; 39th St - FS"}}, {"geometry": {"type": "Point", "coordinates": [-75.207076, 39.949709]}, "type": "Feature", "properties": {"route": "30", "id": 21456, "name": "42nd St &amp; Baltimore Av"}}, {"geometry": {"type": "Point", "coordinates": [-75.206867, 39.952163]}, "type": "Feature", "properties": {"route": "30", "id": 21457, "name": "42nd St &amp; Spruce St"}}, {"geometry": {"type": "Point", "coordinates": [-75.206616, 39.953376]}, "type": "Feature", "properties": {"route": "30", "id": 21458, "name": "42nd St &amp; Locust St"}}, {"geometry": {"type": "Point", "coordinates": [-75.19835, 39.956762]}, "type": "Feature", "properties": {"route": "30", "id": 21463, "name": "Market St &amp; 38th St - FS"}}, {"geometry": {"type": "Point", "coordinates": [-75.199507, 39.956898]}, "type": "Feature", "properties": {"route": "30", "id": 21464, "name": "Market St &amp; 39th St"}}, {"geometry": {"type": "Point", "coordinates": [-75.205501, 39.962505]}, "type": "Feature", "properties": {"route": "30", "id": 21465, "name": "41st St &amp; Haverford Av"}}, {"geometry": {"type": "Point", "coordinates": [-75.206776, 39.96256]}, "type": "Feature", "properties": {"route": "30", "id": 21466, "name": "Haverford Av &amp; 42nd St"}}, {"geometry": {"type": "Point", "coordinates": [-75.208926, 39.962395]}, "type": "Feature", "properties": {"route": "30", "id": 21467, "name": "Haverford Av &amp; 43rd St"}}, {"geometry": {"type": "Point", "coordinates": [-75.210425, 39.962612]}, "type": "Feature", "properties": {"route": "30", "id": 21468, "name": "Haverford Av &amp; 44th St"}}, {"geometry": {"type": "Point", "coordinates": [-75.212917, 39.962652]}, "type": "Feature", "properties": {"route": "30", "id": 21469, "name": "Haverford Av &amp; 46th St"}}, {"geometry": {"type": "Point", "coordinates": [-75.216083, 39.962523]}, "type": "Feature", "properties": {"route": "30", "id": 21470, "name": "Haverford Av &amp; 48th St"}}, {"geometry": {"type": "Point", "coordinates": [-75.21803, 39.963187]}, "type": "Feature", "properties": {"route": "30", "id": 21471, "name": "Haverford Av &amp; 49th St"}}, {"geometry": {"type": "Point", "coordinates": [-75.220386, 39.963968]}, "type": "Feature", "properties": {"route": "30", "id": 21472, "name": "Haverford Av &amp; 50th St - FS"}}, {"geometry": {"type": "Point", "coordinates": [-75.22183, 39.964291]}, "type": "Feature", "properties": {"route": "30", "id": 21473, "name": "Haverford Av &amp; 51st St"}}, {"geometry": {"type": "Point", "coordinates": [-75.226043, 39.965538]}, "type": "Feature", "properties": {"route": "30", "id": 21474, "name": "Haverford Av &amp; 53rd St"}}, {"geometry": {"type": "Point", "coordinates": [-75.229807, 39.966946]}, "type": "Feature", "properties": {"route": "30", "id": 21475, "name": "Haverford Av &amp; 55th St"}}, {"geometry": {"type": "Point", "coordinates": [-75.231187, 39.967332]}, "type": "Feature", "properties": {"route": "30", "id": 21476, "name": "Haverford Av &amp; 56th St"}}, {"geometry": {"type": "Point", "coordinates": [-75.233595, 39.968014]}, "type": "Feature", "properties": {"route": "30", "id": 21477, "name": "Haverford Av &amp; 57th St"}}, {"geometry": {"type": "Point", "coordinates": [-75.234941, 39.968403]}, "type": "Feature", "properties": {"route": "30", "id": 21478, "name": "Haverford Av &amp; 58th St"}}, {"geometry": {"type": "Point", "coordinates": [-75.238988, 39.969861]}, "type": "Feature", "properties": {"route": "30", "id": 21479, "name": "Haverford Av &amp; 60th St"}}, {"geometry": {"type": "Point", "coordinates": [-75.244641, 39.971895]}, "type": "Feature", "properties": {"route": "30", "id": 21481, "name": "Haverford Av &amp; 63rd St"}}, {"geometry": {"type": "Point", "coordinates": [-75.246814, 39.972157]}, "type": "Feature", "properties": {"route": "30", "id": 21482, "name": "Haverford Av &amp; 64th St"}}, {"geometry": {"type": "Point", "coordinates": [-75.253191, 39.97247]}, "type": "Feature", "properties": {"route": "30", "id": 21483, "name": "Haverford Av &amp; 67th St"}}, {"geometry": {"type": "Point", "coordinates": [-75.260043, 39.972363]}, "type": "Feature", "properties": {"route": "30", "id": 21484, "name": "Lansdowne Av &amp; 75th St - FS"}}, {"geometry": {"type": "Point", "coordinates": [-75.191587, 39.955705]}, "type": "Feature", "properties": {"route": "30", "id": 21486, "name": "34th St &amp; Market St - FS"}}, {"geometry": {"type": "Point", "coordinates": [-75.251385, 39.972181]}, "type": "Feature", "properties": {"route": "30", "id": 21488, "name": "Haverford Av &amp; 66th St"}}, {"geometry": {"type": "Point", "coordinates": [-75.189692, 39.953827]}, "type": "Feature", "properties": {"route": "30", "id": 30196, "name": "33rd St &amp; Chestnut St - FS"}}, {"geometry": {"type": "Point", "coordinates": [-75.25475, 39.972757]}, "type": "Feature", "properties": {"route": "30", "id": 30306, "name": "Haverford Av &amp; 68th St"}}, {"geometry": {"type": "Point", "coordinates": [-75.19595, 39.946896]}, "type": "Feature", "properties": {"route": "30", "id": 30313, "name": "Civic Center Blvd &amp; Service Dr"}}, {"geometry": {"type": "Point", "coordinates": [-75.186935, 39.955348]}, "type": "Feature", "properties": {"route": "30", "id": 30653, "name": "Market St &amp; JFK Blvd"}}, {"geometry": {"type": "Point", "coordinates": [-75.201597, 39.949655]}, "type": "Feature", "properties": {"route": "30", "id": 30814, "name": "Woodland Av &amp; 39th St"}}, {"geometry": {"type": "Point", "coordinates": [-75.197108, 39.946389]}, "type": "Feature", "properties": {"route": "30", "id": 30815, "name": "Civic Center Blvd &amp; Health Sciences"}}, {"geometry": {"type": "Point", "coordinates": [-75.207072, 39.951075]}, "type": "Feature", "properties": {"route": "30", "id": 30820, "name": "42nd St &amp; Pine St"}}, {"geometry": {"type": "Point", "coordinates": [-75.206376, 39.954501]}, "type": "Feature", "properties": {"route": "30", "id": 30821, "name": "42nd St &amp; Walnut St"}}, {"geometry": {"type": "Point", "coordinates": [-75.206064, 39.956035]}, "type": "Feature", "properties": {"route": "30", "id": 30822, "name": "42nd St &amp; Chestnut St"}}, {"geometry": {"type": "Point", "coordinates": [-75.20526, 39.96005]}, "type": "Feature", "properties": {"route": "30", "id": 30823, "name": "41st St &amp; Baring St"}}, {"geometry": {"type": "Point", "coordinates": [-75.211429, 39.962694]}, "type": "Feature", "properties": {"route": "30", "id": 30825, "name": "Haverford Av &amp; 46th St - MBNS"}}, {"geometry": {"type": "Point", "coordinates": [-75.227706, 39.966175]}, "type": "Feature", "properties": {"route": "30", "id": 30826, "name": "Haverford Av &amp; 54th St"}}, {"geometry": {"type": "Point", "coordinates": [-75.193003, 39.948827]}, "type": "Feature", "properties": {"route": "30", "id": 31393, "name": "34th St &amp; Convention Av"}}, {"geometry": {"type": "Point", "coordinates": [-75.19884, 39.947677]}, "type": "Feature", "properties": {"route": "30", "id": 31743, "name": "University Av &amp; Curie Blvd"}}, {"geometry": {"type": "Point", "coordinates": [-75.191683, 39.947905]}, "type": "Feature", "properties": {"route": "30", "id": 31744, "name": "Convention Av &amp; Health Sciences Dr "}}]}