{"type": "FeatureCollection", "features": [{"geometry": {"type": "Point", "coordinates": [-75.20724, 40.014897]}, "type": "Feature", "properties": {"route": "35", "id": 28, "name": "Wissahickon Trans Ctr - onsite"}}, {"geometry": {"type": "Point", "coordinates": [-75.214703, 40.032921]}, "type": "Feature", "properties": {"route": "35", "id": 123, "name": "Ridge Av &amp; Lyceum Av"}}, {"geometry": {"type": "Point", "coordinates": [-75.231693, 40.045088]}, "type": "Feature", "properties": {"route": "35", "id": 907, "name": "Ridge Av &amp; Domino Ln - FS"}}, {"geometry": {"type": "Point", "coordinates": [-75.239669, 40.038335]}, "type": "Feature", "properties": {"route": "35", "id": 922, "name": "Umbria St &amp; Domino Ln"}}, {"geometry": {"type": "Point", "coordinates": [-75.22242, 40.037915]}, "type": "Feature", "properties": {"route": "35", "id": 12269, "name": "Ridge Av &amp; Fountain St - FS"}}, {"geometry": {"type": "Point", "coordinates": [-75.216082, 40.034155]}, "type": "Feature", "properties": {"route": "35", "id": 12275, "name": "Ridge Av &amp; Green Ln"}}, {"geometry": {"type": "Point", "coordinates": [-75.226356, 40.04241]}, "type": "Feature", "properties": {"route": "35", "id": 12322, "name": "Ridge Av &amp; Parker Av"}}, {"geometry": {"type": "Point", "coordinates": [-75.219003, 40.029912]}, "type": "Feature", "properties": {"route": "35", "id": 16024, "name": "Manayunk Av &amp; Lyceum Av"}}, {"geometry": {"type": "Point", "coordinates": [-75.212293, 40.016763]}, "type": "Feature", "properties": {"route": "35", "id": 16028, "name": "Main St &amp; Sumac St - FS"}}, {"geometry": {"type": "Point", "coordinates": [-75.213494, 40.018077]}, "type": "Feature", "properties": {"route": "35", "id": 16030, "name": "Main St &amp; Haines St"}}, {"geometry": {"type": "Point", "coordinates": [-75.218163, 40.02219]}, "type": "Feature", "properties": {"route": "35", "id": 16033, "name": "Main St &amp; Shurs Ln"}}, {"geometry": {"type": "Point", "coordinates": [-75.219177, 40.022969]}, "type": "Feature", "properties": {"route": "35", "id": 16034, "name": "Main St &amp; Jamestown St"}}, {"geometry": {"type": "Point", "coordinates": [-75.22005, 40.023648]}, "type": "Feature", "properties": {"route": "35", "id": 16036, "name": "Main St &amp; Pensdale St"}}, {"geometry": {"type": "Point", "coordinates": [-75.221288, 40.02457]}, "type": "Feature", "properties": {"route": "35", "id": 16037, "name": "Main St &amp; Rector St"}}, {"geometry": {"type": "Point", "coordinates": [-75.222587, 40.025081]}, "type": "Feature", "properties": {"route": "35", "id": 16038, "name": "Main St &amp; Cotton St"}}, {"geometry": {"type": "Point", "coordinates": [-75.224606, 40.025905]}, "type": "Feature", "properties": {"route": "35", "id": 16039, "name": "Main St &amp; Levering St"}}, {"geometry": {"type": "Point", "coordinates": [-75.226944, 40.026855]}, "type": "Feature", "properties": {"route": "35", "id": 16040, "name": "Main St &amp;  Green Ln"}}, {"geometry": {"type": "Point", "coordinates": [-75.230326, 40.030903]}, "type": "Feature", "properties": {"route": "35", "id": 16042, "name": "Umbria St &amp; Hermitage St"}}, {"geometry": {"type": "Point", "coordinates": [-75.232355, 40.032379]}, "type": "Feature", "properties": {"route": "35", "id": 16046, "name": "Umbria St &amp;  Fountain St"}}, {"geometry": {"type": "Point", "coordinates": [-75.217907, 40.028893]}, "type": "Feature", "properties": {"route": "35", "id": 16052, "name": "Manayunk Av &amp; Monastery Av"}}, {"geometry": {"type": "Point", "coordinates": [-75.225295, 40.041329]}, "type": "Feature", "properties": {"route": "35", "id": 16179, "name": "Ridge Av &amp; Fairthorne Av - MBFS"}}, {"geometry": {"type": "Point", "coordinates": [-75.22447, 40.040283]}, "type": "Feature", "properties": {"route": "35", "id": 16180, "name": "Ridge Av &amp; Cinnaminson St"}}, {"geometry": {"type": "Point", "coordinates": [-75.21752, 40.035657]}, "type": "Feature", "properties": {"route": "35", "id": 16181, "name": "Ridge Av &amp; Leverington Av"}}, {"geometry": {"type": "Point", "coordinates": [-75.213241, 40.031652]}, "type": "Feature", "properties": {"route": "35", "id": 16185, "name": "Ridge Av &amp; Monastary Av"}}, {"geometry": {"type": "Point", "coordinates": [-75.212415, 40.030927]}, "type": "Feature", "properties": {"route": "35", "id": 16186, "name": "Ridge Av &amp; Gerhard St"}}, {"geometry": {"type": "Point", "coordinates": [-75.211484, 40.030042]}, "type": "Feature", "properties": {"route": "35", "id": 16187, "name": "Ridge Av &amp; Roxborough Av"}}, {"geometry": {"type": "Point", "coordinates": [-75.21326, 40.029179]}, "type": "Feature", "properties": {"route": "35", "id": 16188, "name": "Roxborough Av &amp; Mitchell St"}}, {"geometry": {"type": "Point", "coordinates": [-75.214988, 40.028397]}, "type": "Feature", "properties": {"route": "35", "id": 16189, "name": "Roxborough Av &amp; Pechin St"}}, {"geometry": {"type": "Point", "coordinates": [-75.216574, 40.027694]}, "type": "Feature", "properties": {"route": "35", "id": 16190, "name": "Roxborough Av &amp; Manayunk Av"}}, {"geometry": {"type": "Point", "coordinates": [-75.220323, 40.031164]}, "type": "Feature", "properties": {"route": "35", "id": 16193, "name": "Manayunk Av &amp; Green Ln"}}, {"geometry": {"type": "Point", "coordinates": [-75.220925, 40.031736]}, "type": "Feature", "properties": {"route": "35", "id": 16194, "name": "Manayunk Av &amp; Dupont St"}}, {"geometry": {"type": "Point", "coordinates": [-75.22162, 40.03238]}, "type": "Feature", "properties": {"route": "35", "id": 16195, "name": "Manayunk Av &amp; Krams St"}}, {"geometry": {"type": "Point", "coordinates": [-75.222328, 40.033015]}, "type": "Feature", "properties": {"route": "35", "id": 16196, "name": "Manayunk Av &amp; Leverington Av"}}, {"geometry": {"type": "Point", "coordinates": [-75.222835, 40.025081]}, "type": "Feature", "properties": {"route": "35", "id": 16200, "name": "Main St &amp; Cotton St"}}, {"geometry": {"type": "Point", "coordinates": [-75.221643, 40.024615]}, "type": "Feature", "properties": {"route": "35", "id": 16201, "name": "Main St &amp; Rector St"}}, {"geometry": {"type": "Point", "coordinates": [-75.220274, 40.023675]}, "type": "Feature", "properties": {"route": "35", "id": 16202, "name": "Main St &amp; Pensdale St"}}, {"geometry": {"type": "Point", "coordinates": [-75.219402, 40.022996]}, "type": "Feature", "properties": {"route": "35", "id": 16203, "name": "Main St &amp; Jamestown St"}}, {"geometry": {"type": "Point", "coordinates": [-75.218376, 40.022209]}, "type": "Feature", "properties": {"route": "35", "id": 16204, "name": "Main St &amp; Shurs Ln"}}, {"geometry": {"type": "Point", "coordinates": [-75.215687, 40.020115]}, "type": "Feature", "properties": {"route": "35", "id": 16205, "name": "Main St &amp; Hermit St"}}, {"geometry": {"type": "Point", "coordinates": [-75.234807, 40.034882]}, "type": "Feature", "properties": {"route": "35", "id": 18024, "name": "Umbria St &amp; Parker St"}}, {"geometry": {"type": "Point", "coordinates": [-75.236529, 40.036277]}, "type": "Feature", "properties": {"route": "35", "id": 18027, "name": "Umbria St &amp; Paoli Av"}}, {"geometry": {"type": "Point", "coordinates": [-75.237828, 40.037109]}, "type": "Feature", "properties": {"route": "35", "id": 18028, "name": "Umbria St &amp; Paoli Av - MBFS"}}, {"geometry": {"type": "Point", "coordinates": [-75.238314, 40.040957]}, "type": "Feature", "properties": {"route": "35", "id": 18030, "name": "Domino Ln &amp; Umbria St - MBFS"}}, {"geometry": {"type": "Point", "coordinates": [-75.236487, 40.043355]}, "type": "Feature", "properties": {"route": "35", "id": 18031, "name": "Domino Ln &amp; Fowler St"}}, {"geometry": {"type": "Point", "coordinates": [-75.234403, 40.04428]}, "type": "Feature", "properties": {"route": "35", "id": 18032, "name": "Domino Ln &amp; Fowler St - MBFS"}}, {"geometry": {"type": "Point", "coordinates": [-75.218971, 40.036686]}, "type": "Feature", "properties": {"route": "35", "id": 18045, "name": "Ridge Av &amp; Hermitage St"}}, {"geometry": {"type": "Point", "coordinates": [-75.227051, 40.026784]}, "type": "Feature", "properties": {"route": "35", "id": 18393, "name": "Main St &amp; Green Ln - FS"}}, {"geometry": {"type": "Point", "coordinates": [-75.228705, 40.043923]}, "type": "Feature", "properties": {"route": "35", "id": 20404, "name": "Ridge Av &amp; Paoili Av"}}, {"geometry": {"type": "Point", "coordinates": [-75.223713, 40.032463]}, "type": "Feature", "properties": {"route": "35", "id": 27411, "name": "Levering Av &amp; Fleming St - FS"}}, {"geometry": {"type": "Point", "coordinates": [-75.229277, 40.029786]}, "type": "Feature", "properties": {"route": "35", "id": 30294, "name": "Umbria St &amp; Leverington Av - FS"}}, {"geometry": {"type": "Point", "coordinates": [-75.21051, 40.016099]}, "type": "Feature", "properties": {"route": "35", "id": 30319, "name": "Main St &amp; Rochelle Av"}}, {"geometry": {"type": "Point", "coordinates": [-75.21545, 40.020106]}, "type": "Feature", "properties": {"route": "35", "id": 30907, "name": "Main St &amp; Hermit St"}}, {"geometry": {"type": "Point", "coordinates": [-75.233876, 40.033836]}, "type": "Feature", "properties": {"route": "35", "id": 30910, "name": "Umbria St &amp; Lemonte St"}}, {"geometry": {"type": "Point", "coordinates": [-75.224772, 40.025861]}, "type": "Feature", "properties": {"route": "35", "id": 30913, "name": "Main St &amp; Levering St"}}, {"geometry": {"type": "Point", "coordinates": [-75.213695, 40.018184]}, "type": "Feature", "properties": {"route": "35", "id": 30914, "name": "Main St &amp; Dawson St"}}, {"geometry": {"type": "Point", "coordinates": [-75.212364, 40.016691]}, "type": "Feature", "properties": {"route": "35", "id": 30915, "name": "Main St &amp; Kalos St"}}, {"geometry": {"type": "Point", "coordinates": [-75.230153, 40.029288]}, "type": "Feature", "properties": {"route": "35", "id": 30918, "name": "Leverington Av &amp; Main St"}}, {"geometry": {"type": "Point", "coordinates": [-75.232497, 40.045071]}, "type": "Feature", "properties": {"route": "35", "id": 30919, "name": "Domino La &amp; Ridge Av"}}, {"geometry": {"type": "Point", "coordinates": [-75.225122, 40.031734]}, "type": "Feature", "properties": {"route": "35", "id": 31012, "name": "Leverington Av &amp; Silverwood St"}}, {"geometry": {"type": "Point", "coordinates": [-75.226696, 40.030906]}, "type": "Feature", "properties": {"route": "35", "id": 31013, "name": "Leverington Av &amp; Wilde St"}}, {"geometry": {"type": "Point", "coordinates": [-75.229135, 40.029723]}, "type": "Feature", "properties": {"route": "35", "id": 31014, "name": "Leverington Av &amp; Umbria St"}}, {"geometry": {"type": "Point", "coordinates": [-75.21051, 40.016206]}, "type": "Feature", "properties": {"route": "35", "id": 31059, "name": "Main St &amp; Ridge Av - MBFS"}}]}