{"type": "FeatureCollection", "features": [{"geometry": {"type": "Point", "coordinates": [-75.20724, 40.014897]}, "type": "Feature", "properties": {"route": "38", "id": 28, "name": "Wissahickon Trans Ctr - onsite"}}, {"geometry": {"type": "Point", "coordinates": [-75.209487, 40.006954]}, "type": "Feature", "properties": {"route": "38", "id": 634, "name": "Presidential Blvd &amp; Winding Dr - FS"}}, {"geometry": {"type": "Point", "coordinates": [-75.204495, 39.974418]}, "type": "Feature", "properties": {"route": "38", "id": 635, "name": "Parkside Av &amp; 40th St"}}, {"geometry": {"type": "Point", "coordinates": [-75.19227, 39.966898]}, "type": "Feature", "properties": {"route": "38", "id": 636, "name": "Mantua Av &amp; 34th St"}}, {"geometry": {"type": "Point", "coordinates": [-75.14876, 39.951047]}, "type": "Feature", "properties": {"route": "38", "id": 638, "name": "5th St &amp; Market St - FS"}}, {"geometry": {"type": "Point", "coordinates": [-75.182102, 39.966397]}, "type": "Feature", "properties": {"route": "38", "id": 640, "name": "Art Museum Dr &amp; Back Entrance - 2"}}, {"geometry": {"type": "Point", "coordinates": [-75.192399, 39.967059]}, "type": "Feature", "properties": {"route": "38", "id": 641, "name": "Mantua Av &amp; 34th St - FS"}}, {"geometry": {"type": "Point", "coordinates": [-75.204213, 39.973953]}, "type": "Feature", "properties": {"route": "38", "id": 642, "name": "40th St &amp; Girard Av"}}, {"geometry": {"type": "Point", "coordinates": [-75.20932, 40.007083]}, "type": "Feature", "properties": {"route": "38", "id": 643, "name": "Neill Dr &amp; Winding Dr"}}, {"geometry": {"type": "Point", "coordinates": [-75.190015, 39.963029]}, "type": "Feature", "properties": {"route": "38", "id": 679, "name": "Spring Garden St &amp; 33rd St"}}, {"geometry": {"type": "Point", "coordinates": [-75.210204, 40.008084]}, "type": "Feature", "properties": {"route": "38", "id": 740, "name": "Presidential Blvd &amp; City Line Av"}}, {"geometry": {"type": "Point", "coordinates": [-75.172331, 39.957345]}, "type": "Feature", "properties": {"route": "38", "id": 2836, "name": "20th St &amp; Race St"}}, {"geometry": {"type": "Point", "coordinates": [-75.158765, 39.950168]}, "type": "Feature", "properties": {"route": "38", "id": 6057, "name": "Chestnut St &amp; 11th St"}}, {"geometry": {"type": "Point", "coordinates": [-75.160335, 39.950349]}, "type": "Feature", "properties": {"route": "38", "id": 6058, "name": "Chestnut St &amp; 12th St"}}, {"geometry": {"type": "Point", "coordinates": [-75.161881, 39.95054]}, "type": "Feature", "properties": {"route": "38", "id": 6059, "name": "Chestnut St &amp; 13th St"}}, {"geometry": {"type": "Point", "coordinates": [-75.150916, 39.949187]}, "type": "Feature", "properties": {"route": "38", "id": 6111, "name": "Chestnut St &amp; 6th St"}}, {"geometry": {"type": "Point", "coordinates": [-75.152486, 39.949377]}, "type": "Feature", "properties": {"route": "38", "id": 6112, "name": "Chestnut St &amp; 7th St"}}, {"geometry": {"type": "Point", "coordinates": [-75.154068, 39.949568]}, "type": "Feature", "properties": {"route": "38", "id": 6113, "name": "Chestnut St &amp; 8th St"}}, {"geometry": {"type": "Point", "coordinates": [-75.155661, 39.949768]}, "type": "Feature", "properties": {"route": "38", "id": 6114, "name": "Chestnut St &amp; 9th St"}}, {"geometry": {"type": "Point", "coordinates": [-75.164041, 39.950804]}, "type": "Feature", "properties": {"route": "38", "id": 6115, "name": "Chestnut St &amp; Broad St"}}, {"geometry": {"type": "Point", "coordinates": [-75.168056, 39.954061]}, "type": "Feature", "properties": {"route": "38", "id": 8936, "name": "JFK Blvd &amp; 17th St"}}, {"geometry": {"type": "Point", "coordinates": [-75.169567, 39.954251]}, "type": "Feature", "properties": {"route": "38", "id": 8938, "name": "JFK Blvd &amp; 18th St"}}, {"geometry": {"type": "Point", "coordinates": [-75.171208, 39.95446]}, "type": "Feature", "properties": {"route": "38", "id": 8939, "name": "JFK Blvd &amp; 19th St"}}, {"geometry": {"type": "Point", "coordinates": [-75.17279, 39.954633]}, "type": "Feature", "properties": {"route": "38", "id": 8941, "name": "JFK Blvd &amp; 20th St"}}, {"geometry": {"type": "Point", "coordinates": [-75.15955, 39.951954]}, "type": "Feature", "properties": {"route": "38", "id": 10262, "name": "Market St &amp; 12th St"}}, {"geometry": {"type": "Point", "coordinates": [-75.165475, 39.952547]}, "type": "Feature", "properties": {"route": "38", "id": 10266, "name": "Market St &amp; 15th St"}}, {"geometry": {"type": "Point", "coordinates": [-75.170173, 39.953119]}, "type": "Feature", "properties": {"route": "38", "id": 10272, "name": "Market St &amp; 18th St"}}, {"geometry": {"type": "Point", "coordinates": [-75.17172, 39.953319]}, "type": "Feature", "properties": {"route": "38", "id": 10275, "name": "Market St &amp; 19th St"}}, {"geometry": {"type": "Point", "coordinates": [-75.157195, 39.949959]}, "type": "Feature", "properties": {"route": "38", "id": 14908, "name": "Chestnut St &amp; 10th St"}}, {"geometry": {"type": "Point", "coordinates": [-75.172716, 39.955507]}, "type": "Feature", "properties": {"route": "38", "id": 14916, "name": "20th St &amp; Arch St"}}, {"geometry": {"type": "Point", "coordinates": [-75.173513, 39.960507]}, "type": "Feature", "properties": {"route": "38", "id": 15951, "name": "Ben Franklin Pkwy &amp; 21th St"}}, {"geometry": {"type": "Point", "coordinates": [-75.174938, 39.961545]}, "type": "Feature", "properties": {"route": "38", "id": 15952, "name": "Ben Franklin Pkwy &amp; 22nd St"}}, {"geometry": {"type": "Point", "coordinates": [-75.157885, 39.951745]}, "type": "Feature", "properties": {"route": "38", "id": 17833, "name": "Market St &amp; 10th St - MBFS"}}, {"geometry": {"type": "Point", "coordinates": [-75.164763, 39.953652]}, "type": "Feature", "properties": {"route": "38", "id": 17842, "name": "JFK Blvd &amp; 15th St"}}, {"geometry": {"type": "Point", "coordinates": [-75.167045, 39.952738]}, "type": "Feature", "properties": {"route": "38", "id": 18451, "name": "Market St &amp; 16th St"}}, {"geometry": {"type": "Point", "coordinates": [-75.173026, 39.954669]}, "type": "Feature", "properties": {"route": "38", "id": 20962, "name": "20th St &amp; JFK Blvd"}}, {"geometry": {"type": "Point", "coordinates": [-75.181972, 39.966352]}, "type": "Feature", "properties": {"route": "38", "id": 21214, "name": "Art Museum Dr  &amp; Back Entrance - 2"}}, {"geometry": {"type": "Point", "coordinates": [-75.180035, 39.966526]}, "type": "Feature", "properties": {"route": "38", "id": 21215, "name": "Art Museum Dr  &amp; Kelly Dr - MBFS"}}, {"geometry": {"type": "Point", "coordinates": [-75.179964, 39.966348]}, "type": "Feature", "properties": {"route": "38", "id": 21216, "name": "Art Museum Dr  &amp; Kelly Dr 3 - 1 MBN"}}, {"geometry": {"type": "Point", "coordinates": [-75.187449, 39.963962]}, "type": "Feature", "properties": {"route": "38", "id": 21545, "name": "31st St &amp; Brandywine St"}}, {"geometry": {"type": "Point", "coordinates": [-75.188388, 39.96565]}, "type": "Feature", "properties": {"route": "38", "id": 21547, "name": "Mantua Av &amp; Wallace St"}}, {"geometry": {"type": "Point", "coordinates": [-75.190417, 39.966538]}, "type": "Feature", "properties": {"route": "38", "id": 21548, "name": "Mantua Av &amp; 33rd St"}}, {"geometry": {"type": "Point", "coordinates": [-75.19339, 39.967418]}, "type": "Feature", "properties": {"route": "38", "id": 21549, "name": "Mantua Av &amp; 35th St"}}, {"geometry": {"type": "Point", "coordinates": [-75.195101, 39.968037]}, "type": "Feature", "properties": {"route": "38", "id": 21550, "name": "Mantua Av &amp; 36th St"}}, {"geometry": {"type": "Point", "coordinates": [-75.196635, 39.968459]}, "type": "Feature", "properties": {"route": "38", "id": 21551, "name": "Mantua Av &amp; 37th St"}}, {"geometry": {"type": "Point", "coordinates": [-75.198405, 39.968953]}, "type": "Feature", "properties": {"route": "38", "id": 21552, "name": "Mantua Av &amp; 38th St"}}, {"geometry": {"type": "Point", "coordinates": [-75.200674, 39.968806]}, "type": "Feature", "properties": {"route": "38", "id": 21553, "name": "Parrish St &amp; 39th St"}}, {"geometry": {"type": "Point", "coordinates": [-75.203074, 39.968482]}, "type": "Feature", "properties": {"route": "38", "id": 21554, "name": "Parrish St &amp; 40th St"}}, {"geometry": {"type": "Point", "coordinates": [-75.209285, 39.976327]}, "type": "Feature", "properties": {"route": "38", "id": 21566, "name": "Parkside Av &amp; 42nd St"}}, {"geometry": {"type": "Point", "coordinates": [-75.212683, 39.977565]}, "type": "Feature", "properties": {"route": "38", "id": 21568, "name": "Parkside Av &amp; Belmont Av - MBNS"}}, {"geometry": {"type": "Point", "coordinates": [-75.213555, 39.978459]}, "type": "Feature", "properties": {"route": "38", "id": 21569, "name": "Belmont Av &amp; S  Concourse Dr"}}, {"geometry": {"type": "Point", "coordinates": [-75.214572, 39.982048]}, "type": "Feature", "properties": {"route": "38", "id": 21570, "name": "Belmont Av &amp; Lansdowne Dr - FS"}}, {"geometry": {"type": "Point", "coordinates": [-75.215589, 39.985575]}, "type": "Feature", "properties": {"route": "38", "id": 21571, "name": "Belmont Av &amp; Montgomery Dr"}}, {"geometry": {"type": "Point", "coordinates": [-75.218336, 39.995683]}, "type": "Feature", "properties": {"route": "38", "id": 21572, "name": "Belmont Av &amp; Monument Rd - FS"}}, {"geometry": {"type": "Point", "coordinates": [-75.219434, 39.999817]}, "type": "Feature", "properties": {"route": "38", "id": 21574, "name": "Belmont Av &amp; Conshohocken Av"}}, {"geometry": {"type": "Point", "coordinates": [-75.220054, 40.002094]}, "type": "Feature", "properties": {"route": "38", "id": 21575, "name": "Belmont Av &amp; Ford Rd"}}, {"geometry": {"type": "Point", "coordinates": [-75.215496, 40.001042]}, "type": "Feature", "properties": {"route": "38", "id": 21576, "name": "Ford Rd &amp; Monument Rd"}}, {"geometry": {"type": "Point", "coordinates": [-75.213169, 40.000467]}, "type": "Feature", "properties": {"route": "38", "id": 21577, "name": "Ford Rd &amp; Balwynne Park Rd"}}, {"geometry": {"type": "Point", "coordinates": [-75.21154, 40.000072]}, "type": "Feature", "properties": {"route": "38", "id": 21578, "name": "Ford Rd &amp; Balwynne Park Rd - MBFS"}}, {"geometry": {"type": "Point", "coordinates": [-75.209922, 39.99964]}, "type": "Feature", "properties": {"route": "38", "id": 21579, "name": "Ford Rd &amp; Cranston Rd"}}, {"geometry": {"type": "Point", "coordinates": [-75.21099, 40.002025]}, "type": "Feature", "properties": {"route": "38", "id": 21580, "name": "Cranston Rd &amp; Conshohocken Av"}}, {"geometry": {"type": "Point", "coordinates": [-75.210091, 40.002274]}, "type": "Feature", "properties": {"route": "38", "id": 21581, "name": "Conshohocken &amp; Cranston - MBFS"}}, {"geometry": {"type": "Point", "coordinates": [-75.207786, 40.002626]}, "type": "Feature", "properties": {"route": "38", "id": 21582, "name": "Conshohocken Av &amp; W Country Club"}}, {"geometry": {"type": "Point", "coordinates": [-75.206308, 40.002874]}, "type": "Feature", "properties": {"route": "38", "id": 21583, "name": "Conshohocken Av &amp; W Country Club - "}}, {"geometry": {"type": "Point", "coordinates": [-75.204771, 40.003094]}, "type": "Feature", "properties": {"route": "38", "id": 21584, "name": "Conshohocken Av &amp; E Country Club - "}}, {"geometry": {"type": "Point", "coordinates": [-75.203435, 40.003315]}, "type": "Feature", "properties": {"route": "38", "id": 21585, "name": "Conshohocken Av &amp; E Country Club"}}, {"geometry": {"type": "Point", "coordinates": [-75.202321, 40.004277]}, "type": "Feature", "properties": {"route": "38", "id": 21586, "name": "Conshohocken Av &amp; E Country Club - "}}, {"geometry": {"type": "Point", "coordinates": [-75.202039, 40.007364]}, "type": "Feature", "properties": {"route": "38", "id": 21587, "name": "Falls Rd &amp; Neill Dr"}}, {"geometry": {"type": "Point", "coordinates": [-75.209856, 39.978756]}, "type": "Feature", "properties": {"route": "38", "id": 21591, "name": "Concourse Dr &amp; E Rd"}}, {"geometry": {"type": "Point", "coordinates": [-75.188574, 39.963196]}, "type": "Feature", "properties": {"route": "38", "id": 22012, "name": "Spring Garden St &amp; 32nd St"}}, {"geometry": {"type": "Point", "coordinates": [-75.187475, 39.963319]}, "type": "Feature", "properties": {"route": "38", "id": 22013, "name": "Spring Garden St &amp; 31st St"}}, {"geometry": {"type": "Point", "coordinates": [-75.21898, 39.997576]}, "type": "Feature", "properties": {"route": "38", "id": 22206, "name": "Belmont Av &amp; Monument Rd - 1 MBNS"}}, {"geometry": {"type": "Point", "coordinates": [-75.219635, 39.999987]}, "type": "Feature", "properties": {"route": "38", "id": 22207, "name": "Belmont Av &amp; Conshohocken Av"}}, {"geometry": {"type": "Point", "coordinates": [-75.218431, 39.995469]}, "type": "Feature", "properties": {"route": "38", "id": 22208, "name": "Belmont Av &amp; Monument Rd"}}, {"geometry": {"type": "Point", "coordinates": [-75.209439, 39.976238]}, "type": "Feature", "properties": {"route": "38", "id": 22219, "name": "Parkside Av &amp; 42nd St"}}, {"geometry": {"type": "Point", "coordinates": [-75.207008, 39.975341]}, "type": "Feature", "properties": {"route": "38", "id": 22220, "name": "Parkside Av &amp; 41st St"}}, {"geometry": {"type": "Point", "coordinates": [-75.204134, 39.972739]}, "type": "Feature", "properties": {"route": "38", "id": 22221, "name": "40th St &amp; Poplar St"}}, {"geometry": {"type": "Point", "coordinates": [-75.203542, 39.969543]}, "type": "Feature", "properties": {"route": "38", "id": 22223, "name": "40th St &amp; Ogden St"}}, {"geometry": {"type": "Point", "coordinates": [-75.203332, 39.968507]}, "type": "Feature", "properties": {"route": "38", "id": 22224, "name": "40th St &amp; Parrish St"}}, {"geometry": {"type": "Point", "coordinates": [-75.203146, 39.967481]}, "type": "Feature", "properties": {"route": "38", "id": 22225, "name": "40th St &amp; Brown St"}}, {"geometry": {"type": "Point", "coordinates": [-75.210358, 40.00795]}, "type": "Feature", "properties": {"route": "38", "id": 22302, "name": "Presidential &amp; City Line Av - FS"}}, {"geometry": {"type": "Point", "coordinates": [-75.203198, 40.003529]}, "type": "Feature", "properties": {"route": "38", "id": 22304, "name": "Conshohocken Av &amp; E Country Club -"}}, {"geometry": {"type": "Point", "coordinates": [-75.204286, 40.003263]}, "type": "Feature", "properties": {"route": "38", "id": 22305, "name": "Conshohocken Av &amp; E Cntry Club MBFS"}}, {"geometry": {"type": "Point", "coordinates": [-75.204936, 40.003166]}, "type": "Feature", "properties": {"route": "38", "id": 22306, "name": "Conshohocken Av &amp; W Cntry Club - 1 "}}, {"geometry": {"type": "Point", "coordinates": [-75.207786, 40.002734]}, "type": "Feature", "properties": {"route": "38", "id": 22307, "name": "Conshohocken Av &amp; W Country Club"}}, {"geometry": {"type": "Point", "coordinates": [-75.211144, 40.001963]}, "type": "Feature", "properties": {"route": "38", "id": 22309, "name": "Cranston Rd &amp; Conshohocken - FS"}}, {"geometry": {"type": "Point", "coordinates": [-75.209873, 40.000426]}, "type": "Feature", "properties": {"route": "38", "id": 22310, "name": "Cranston Rd &amp; Lankenau Av"}}, {"geometry": {"type": "Point", "coordinates": [-75.210004, 39.999801]}, "type": "Feature", "properties": {"route": "38", "id": 22311, "name": "Ford Rd &amp; Cranston Rd - FS"}}, {"geometry": {"type": "Point", "coordinates": [-75.211339, 40.000143]}, "type": "Feature", "properties": {"route": "38", "id": 22312, "name": "Ford Rd &amp; Cranstaton Rd - MBFS"}}, {"geometry": {"type": "Point", "coordinates": [-75.213181, 40.000583]}, "type": "Feature", "properties": {"route": "38", "id": 22313, "name": "Ford Rd &amp; Balwynne Park Rd - FS"}}, {"geometry": {"type": "Point", "coordinates": [-75.215259, 40.001122]}, "type": "Feature", "properties": {"route": "38", "id": 22314, "name": "Ford Rd &amp; Monument Rd"}}, {"geometry": {"type": "Point", "coordinates": [-75.220173, 40.001737]}, "type": "Feature", "properties": {"route": "38", "id": 22315, "name": "Belmont Av &amp; Sherwood Rd"}}, {"geometry": {"type": "Point", "coordinates": [-75.219939, 40.000996]}, "type": "Feature", "properties": {"route": "38", "id": 22316, "name": "Belmont Av &amp; Sherwood Rd - MBFS"}}, {"geometry": {"type": "Point", "coordinates": [-75.218174, 39.994523]}, "type": "Feature", "properties": {"route": "38", "id": 22317, "name": "Belmont Av &amp; Parkside Av"}}, {"geometry": {"type": "Point", "coordinates": [-75.217741, 39.993031]}, "type": "Feature", "properties": {"route": "38", "id": 22318, "name": "Belmont Av &amp; Fairmount Park Dr"}}, {"geometry": {"type": "Point", "coordinates": [-75.215824, 39.985861]}, "type": "Feature", "properties": {"route": "38", "id": 22319, "name": "Belmont Av &amp; S Georges Hill Dr"}}, {"geometry": {"type": "Point", "coordinates": [-75.214772, 39.982174]}, "type": "Feature", "properties": {"route": "38", "id": 22320, "name": "Belmont Av &amp; Lansdowne Dr"}}, {"geometry": {"type": "Point", "coordinates": [-75.214281, 39.980379]}, "type": "Feature", "properties": {"route": "38", "id": 22321, "name": "Belmont Av &amp; S Concourse Dr"}}, {"geometry": {"type": "Point", "coordinates": [-75.19378, 39.967445]}, "type": "Feature", "properties": {"route": "38", "id": 22322, "name": "Mantua Av &amp; 35th St"}}, {"geometry": {"type": "Point", "coordinates": [-75.191909, 39.965273]}, "type": "Feature", "properties": {"route": "38", "id": 22323, "name": "34th St &amp; Wallace St"}}, {"geometry": {"type": "Point", "coordinates": [-75.191689, 39.964104]}, "type": "Feature", "properties": {"route": "38", "id": 22324, "name": "34th St &amp; Haverford Av"}}, {"geometry": {"type": "Point", "coordinates": [-75.17533, 39.96101]}, "type": "Feature", "properties": {"route": "38", "id": 22325, "name": "Ben Franklin Pkwy &amp; 22nd St"}}, {"geometry": {"type": "Point", "coordinates": [-75.173845, 39.959918]}, "type": "Feature", "properties": {"route": "38", "id": 22326, "name": "Ben Franklin Pkwy &amp; 21st St"}}, {"geometry": {"type": "Point", "coordinates": [-75.172668, 39.959032]}, "type": "Feature", "properties": {"route": "38", "id": 22327, "name": "Ben Franklin Pkwy &amp; 20th St"}}, {"geometry": {"type": "Point", "coordinates": [-75.17239, 39.957515]}, "type": "Feature", "properties": {"route": "38", "id": 22328, "name": "20th St &amp; Race St"}}, {"geometry": {"type": "Point", "coordinates": [-75.172821, 39.955731]}, "type": "Feature", "properties": {"route": "38", "id": 22329, "name": "20th St &amp; Arch St"}}, {"geometry": {"type": "Point", "coordinates": [-75.20206, 39.967425]}, "type": "Feature", "properties": {"route": "38", "id": 22330, "name": "Brown St &amp; Union St"}}, {"geometry": {"type": "Point", "coordinates": [-75.200571, 39.96761]}, "type": "Feature", "properties": {"route": "38", "id": 22331, "name": "Brown St &amp; 39th St"}}, {"geometry": {"type": "Point", "coordinates": [-75.198326, 39.967864]}, "type": "Feature", "properties": {"route": "38", "id": 22332, "name": "Brown St &amp; 38th St"}}, {"geometry": {"type": "Point", "coordinates": [-75.196885, 39.968031]}, "type": "Feature", "properties": {"route": "38", "id": 22333, "name": "Brown St &amp; 37th St"}}, {"geometry": {"type": "Point", "coordinates": [-75.19542, 39.968029]}, "type": "Feature", "properties": {"route": "38", "id": 22334, "name": "Mantua av &amp; 36th St"}}, {"geometry": {"type": "Point", "coordinates": [-75.217552, 39.992897]}, "type": "Feature", "properties": {"route": "38", "id": 25771, "name": "Belmont Av &amp; Belmont Mansion Dr"}}, {"geometry": {"type": "Point", "coordinates": [-75.217914, 39.994263]}, "type": "Feature", "properties": {"route": "38", "id": 25772, "name": "Belmont Av &amp; Edgely Av"}}, {"geometry": {"type": "Point", "coordinates": [-75.218849, 40.001994]}, "type": "Feature", "properties": {"route": "38", "id": 25776, "name": "Ford Rd &amp; Belmont Av - MBNS"}}, {"geometry": {"type": "Point", "coordinates": [-75.218838, 39.997549]}, "type": "Feature", "properties": {"route": "38", "id": 25789, "name": "Belmont Av &amp; Hayes Manor Dr - FS"}}, {"geometry": {"type": "Point", "coordinates": [-75.211409, 39.976973]}, "type": "Feature", "properties": {"route": "38", "id": 25809, "name": "Parkside Av &amp; W Memorial Hall Dr"}}, {"geometry": {"type": "Point", "coordinates": [-75.218805, 39.996951]}, "type": "Feature", "properties": {"route": "38", "id": 25979, "name": "Belmont Av &amp; Monument Rd - 2 MBNS"}}, {"geometry": {"type": "Point", "coordinates": [-75.210217, 39.976659]}, "type": "Feature", "properties": {"route": "38", "id": 25984, "name": "Parkside Av &amp; E Memorial Hall Dr"}}, {"geometry": {"type": "Point", "coordinates": [-75.209884, 40.000577]}, "type": "Feature", "properties": {"route": "38", "id": 25988, "name": "Cranston Rd &amp; Lankenau Av - FS"}}, {"geometry": {"type": "Point", "coordinates": [-75.203957, 39.972596]}, "type": "Feature", "properties": {"route": "38", "id": 25989, "name": "40th St &amp; Poplar St"}}, {"geometry": {"type": "Point", "coordinates": [-75.20645, 40.002945]}, "type": "Feature", "properties": {"route": "38", "id": 25991, "name": "Conshohocken Av &amp; W Cntry Club - 2 "}}, {"geometry": {"type": "Point", "coordinates": [-75.219447, 39.999335]}, "type": "Feature", "properties": {"route": "38", "id": 26002, "name": "Belmont Av &amp; Conshohocken Av - FS"}}, {"geometry": {"type": "Point", "coordinates": [-75.152951, 39.951146]}, "type": "Feature", "properties": {"route": "38", "id": 30080, "name": "Market St &amp; 7th St - MBFS"}}, {"geometry": {"type": "Point", "coordinates": [-75.156127, 39.951501]}, "type": "Feature", "properties": {"route": "38", "id": 30081, "name": "Market St &amp; 9th St  - MBFS"}}, {"geometry": {"type": "Point", "coordinates": [-75.160529, 39.952063]}, "type": "Feature", "properties": {"route": "38", "id": 30082, "name": "Market St &amp; 12th St - MBFS"}}, {"geometry": {"type": "Point", "coordinates": [-75.176717, 39.962869]}, "type": "Feature", "properties": {"route": "38", "id": 30303, "name": "Ben Franklin Pkwy &amp; Spring Garden -"}}, {"geometry": {"type": "Point", "coordinates": [-75.202368, 40.004402]}, "type": "Feature", "properties": {"route": "38", "id": 30832, "name": "Conshohocken Av &amp; E Country Club Rd"}}, {"geometry": {"type": "Point", "coordinates": [-75.212849, 39.977502]}, "type": "Feature", "properties": {"route": "38", "id": 30833, "name": "Parkside Av &amp; Belmont Av - FS"}}, {"geometry": {"type": "Point", "coordinates": [-75.18232, 39.964791]}, "type": "Feature", "properties": {"route": "38", "id": 30834, "name": "Art Museum Dr &amp; Spring Garden St - "}}, {"geometry": {"type": "Point", "coordinates": [-75.188989, 39.966017]}, "type": "Feature", "properties": {"route": "38", "id": 30835, "name": "Mantua Av &amp; 32nd St - FS"}}, {"geometry": {"type": "Point", "coordinates": [-75.219189, 39.998808]}, "type": "Feature", "properties": {"route": "38", "id": 30836, "name": "Belmont Av &amp; Conshohocken Av - MBNS"}}, {"geometry": {"type": "Point", "coordinates": [-75.210422, 40.002319]}, "type": "Feature", "properties": {"route": "38", "id": 30935, "name": "Conshohocken Av &amp; Cranston Rd - MBN"}}, {"geometry": {"type": "Point", "coordinates": [-75.15445, 39.951318]}, "type": "Feature", "properties": {"route": "38", "id": 31178, "name": "Market St &amp; 8th St - MBFS"}}, {"geometry": {"type": "Point", "coordinates": [-75.148892, 39.950396]}, "type": "Feature", "properties": {"route": "38", "id": 31382, "name": "5th St &amp; Market St"}}, {"geometry": {"type": "Point", "coordinates": [-75.203377, 39.969373]}, "type": "Feature", "properties": {"route": "38", "id": 31582, "name": "40th St &amp; Ogden St"}}, {"geometry": {"type": "Point", "coordinates": [-75.210579, 40.001177]}, "type": "Feature", "properties": {"route": "38", "id": 31585, "name": "Cranston Rd &amp; Lankenau Av - MBFS"}}, {"geometry": {"type": "Point", "coordinates": [-75.206512, 39.975278]}, "type": "Feature", "properties": {"route": "38", "id": 31586, "name": "Parkside Av &amp; 41st St"}}, {"geometry": {"type": "Point", "coordinates": [-75.213999, 39.980164]}, "type": "Feature", "properties": {"route": "38", "id": 31614, "name": "Belmont Av &amp; Av of the Republic"}}, {"geometry": {"type": "Point", "coordinates": [-75.182414, 39.965076]}, "type": "Feature", "properties": {"route": "38", "id": 31625, "name": "Art Museum Dr &amp; Spring Garden St - "}}]}