{"type": "FeatureCollection", "features": [{"geometry": {"type": "Point", "coordinates": [-75.21233, 39.973325]}, "type": "Feature", "properties": {"route": "43", "id": 678, "name": "Belmont Av &amp; Girard Av"}}, {"geometry": {"type": "Point", "coordinates": [-75.190015, 39.963029]}, "type": "Feature", "properties": {"route": "43", "id": 679, "name": "Spring Garden St &amp; 33rd St"}}, {"geometry": {"type": "Point", "coordinates": [-75.174244, 39.963944]}, "type": "Feature", "properties": {"route": "43", "id": 680, "name": "Spring Garden St &amp; 22nd St - FS"}}, {"geometry": {"type": "Point", "coordinates": [-75.161636, 39.962365]}, "type": "Feature", "properties": {"route": "43", "id": 681, "name": "Spring Garden St &amp; Broad St"}}, {"geometry": {"type": "Point", "coordinates": [-75.128736, 39.966923]}, "type": "Feature", "properties": {"route": "43", "id": 684, "name": "Beach St &amp; Columbia Av"}}, {"geometry": {"type": "Point", "coordinates": [-75.12877, 39.967289]}, "type": "Feature", "properties": {"route": "43", "id": 686, "name": "Columbia Av &amp; Delaware Av"}}, {"geometry": {"type": "Point", "coordinates": [-75.138767, 39.960458]}, "type": "Feature", "properties": {"route": "43", "id": 687, "name": "Spring Garden St &amp; Front St"}}, {"geometry": {"type": "Point", "coordinates": [-75.161317, 39.962507]}, "type": "Feature", "properties": {"route": "43", "id": 689, "name": "Spring Garden St &amp; Broad St"}}, {"geometry": {"type": "Point", "coordinates": [-75.174303, 39.964177]}, "type": "Feature", "properties": {"route": "43", "id": 690, "name": "Spring Garden St &amp; 22nd St"}}, {"geometry": {"type": "Point", "coordinates": [-75.190046, 39.96427]}, "type": "Feature", "properties": {"route": "43", "id": 691, "name": "Haverford Av &amp; 33rd St"}}, {"geometry": {"type": "Point", "coordinates": [-75.21213, 39.973173]}, "type": "Feature", "properties": {"route": "43", "id": 692, "name": "Belmont Av &amp; Girard Av"}}, {"geometry": {"type": "Point", "coordinates": [-75.216873, 39.978875]}, "type": "Feature", "properties": {"route": "43", "id": 766, "name": "49th St &amp; Parkside Av Loop"}}, {"geometry": {"type": "Point", "coordinates": [-75.120832, 39.975552]}, "type": "Feature", "properties": {"route": "43", "id": 1133, "name": "Aramingo Av &amp; Moyer St"}}, {"geometry": {"type": "Point", "coordinates": [-75.115846, 39.975834]}, "type": "Feature", "properties": {"route": "43", "id": 16339, "name": "Huntingdon St &amp; Emery St"}}, {"geometry": {"type": "Point", "coordinates": [-75.116634, 39.976728]}, "type": "Feature", "properties": {"route": "43", "id": 16340, "name": "Huntingdon St &amp; Edgemont St"}}, {"geometry": {"type": "Point", "coordinates": [-75.117116, 39.977283]}, "type": "Feature", "properties": {"route": "43", "id": 16341, "name": "Huntingdon St &amp; Thompson St"}}, {"geometry": {"type": "Point", "coordinates": [-75.119765, 39.976611]}, "type": "Feature", "properties": {"route": "43", "id": 17787, "name": "Aramingo Av &amp; Cumberland St"}}, {"geometry": {"type": "Point", "coordinates": [-75.156253, 39.961595]}, "type": "Feature", "properties": {"route": "43", "id": 18437, "name": "Spring Garden St &amp; 11th St"}}, {"geometry": {"type": "Point", "coordinates": [-75.153042, 39.961445]}, "type": "Feature", "properties": {"route": "43", "id": 18438, "name": "Spring Garden St &amp; 9th St"}}, {"geometry": {"type": "Point", "coordinates": [-75.151554, 39.961379]}, "type": "Feature", "properties": {"route": "43", "id": 18439, "name": "Spring Garden St &amp; 8th St - FS"}}, {"geometry": {"type": "Point", "coordinates": [-75.166145, 39.96316]}, "type": "Feature", "properties": {"route": "43", "id": 20412, "name": "Spring Garden St &amp; 17th St"}}, {"geometry": {"type": "Point", "coordinates": [-75.178646, 39.964944]}, "type": "Feature", "properties": {"route": "43", "id": 20440, "name": "Spring Garden St &amp; Kelly Dr"}}, {"geometry": {"type": "Point", "coordinates": [-75.209878, 39.967725]}, "type": "Feature", "properties": {"route": "43", "id": 20632, "name": "Lancaster Av &amp; 43th St"}}, {"geometry": {"type": "Point", "coordinates": [-75.207662, 39.966391]}, "type": "Feature", "properties": {"route": "43", "id": 20633, "name": "Lancaster Av &amp; 42nd St"}}, {"geometry": {"type": "Point", "coordinates": [-75.205564, 39.965093]}, "type": "Feature", "properties": {"route": "43", "id": 20634, "name": "Lancaster Av &amp; 41st St"}}, {"geometry": {"type": "Point", "coordinates": [-75.20244, 39.963151]}, "type": "Feature", "properties": {"route": "43", "id": 20635, "name": "Lancaster Av &amp; 40th St"}}, {"geometry": {"type": "Point", "coordinates": [-75.203371, 39.963857]}, "type": "Feature", "properties": {"route": "43", "id": 20670, "name": "Lancaster Av &amp; Wallace St"}}, {"geometry": {"type": "Point", "coordinates": [-75.205386, 39.965102]}, "type": "Feature", "properties": {"route": "43", "id": 20671, "name": "Lancaster Av &amp; 41st St"}}, {"geometry": {"type": "Point", "coordinates": [-75.207485, 39.966399]}, "type": "Feature", "properties": {"route": "43", "id": 20672, "name": "Lancaster Av &amp; 42nd St"}}, {"geometry": {"type": "Point", "coordinates": [-75.20956, 39.96767]}, "type": "Feature", "properties": {"route": "43", "id": 20673, "name": "Lancaster Av &amp; Parrish St"}}, {"geometry": {"type": "Point", "coordinates": [-75.210998, 39.968565]}, "type": "Feature", "properties": {"route": "43", "id": 20674, "name": "Lancaster Av &amp; Ogden St"}}, {"geometry": {"type": "Point", "coordinates": [-75.118227, 39.974296]}, "type": "Feature", "properties": {"route": "43", "id": 21225, "name": "Cumberland St &amp; Richmond St"}}, {"geometry": {"type": "Point", "coordinates": [-75.187449, 39.963962]}, "type": "Feature", "properties": {"route": "43", "id": 21545, "name": "31st St &amp; Brandywine St"}}, {"geometry": {"type": "Point", "coordinates": [-75.21358, 39.97778]}, "type": "Feature", "properties": {"route": "43", "id": 22002, "name": "Parkside Av &amp; Belmont Av"}}, {"geometry": {"type": "Point", "coordinates": [-75.21323, 39.976602]}, "type": "Feature", "properties": {"route": "43", "id": 22003, "name": "Belmont Av &amp; Viola St"}}, {"geometry": {"type": "Point", "coordinates": [-75.211969, 39.971557]}, "type": "Feature", "properties": {"route": "43", "id": 22005, "name": "Belmont Av &amp; Wyalusing Av"}}, {"geometry": {"type": "Point", "coordinates": [-75.21162, 39.969682]}, "type": "Feature", "properties": {"route": "43", "id": 22006, "name": "Belmont Av &amp; Westminster Av"}}, {"geometry": {"type": "Point", "coordinates": [-75.211199, 39.968539]}, "type": "Feature", "properties": {"route": "43", "id": 22007, "name": "Lancaster Av &amp; Belmont Av - FS"}}, {"geometry": {"type": "Point", "coordinates": [-75.199503, 39.961976]}, "type": "Feature", "properties": {"route": "43", "id": 22008, "name": "Spring Garden St &amp; 39th St"}}, {"geometry": {"type": "Point", "coordinates": [-75.19727, 39.962222]}, "type": "Feature", "properties": {"route": "43", "id": 22009, "name": "Spring Garden St &amp; 38th St"}}, {"geometry": {"type": "Point", "coordinates": [-75.195816, 39.962371]}, "type": "Feature", "properties": {"route": "43", "id": 22010, "name": "Spring Garden St &amp; 37th St"}}, {"geometry": {"type": "Point", "coordinates": [-75.191457, 39.962854]}, "type": "Feature", "properties": {"route": "43", "id": 22011, "name": "Spring Garden St &amp; 34th St"}}, {"geometry": {"type": "Point", "coordinates": [-75.188574, 39.963196]}, "type": "Feature", "properties": {"route": "43", "id": 22012, "name": "Spring Garden St &amp; 32nd St"}}, {"geometry": {"type": "Point", "coordinates": [-75.187475, 39.963319]}, "type": "Feature", "properties": {"route": "43", "id": 22013, "name": "Spring Garden St &amp; 31st St"}}, {"geometry": {"type": "Point", "coordinates": [-75.181508, 39.964128]}, "type": "Feature", "properties": {"route": "43", "id": 22014, "name": "Spring Garden St &amp; Art Museum"}}, {"geometry": {"type": "Point", "coordinates": [-75.175661, 39.964108]}, "type": "Feature", "properties": {"route": "43", "id": 22015, "name": "Spring Garden St &amp; Pennsylvania - F"}}, {"geometry": {"type": "Point", "coordinates": [-75.172958, 39.963781]}, "type": "Feature", "properties": {"route": "43", "id": 22016, "name": "Spring Garden St &amp; 21st St"}}, {"geometry": {"type": "Point", "coordinates": [-75.171057, 39.963536]}, "type": "Feature", "properties": {"route": "43", "id": 22017, "name": "Spring Garden St &amp; 20th St"}}, {"geometry": {"type": "Point", "coordinates": [-75.16794, 39.963137]}, "type": "Feature", "properties": {"route": "43", "id": 22018, "name": "Spring Garden St &amp; 18th St"}}, {"geometry": {"type": "Point", "coordinates": [-75.169522, 39.963328]}, "type": "Feature", "properties": {"route": "43", "id": 22019, "name": "Spring Garden St &amp; 19th St"}}, {"geometry": {"type": "Point", "coordinates": [-75.166406, 39.962937]}, "type": "Feature", "properties": {"route": "43", "id": 22020, "name": "Spring Garden St &amp; 17th St"}}, {"geometry": {"type": "Point", "coordinates": [-75.1648, 39.962747]}, "type": "Feature", "properties": {"route": "43", "id": 22021, "name": "Spring Garden St &amp; 16th St"}}, {"geometry": {"type": "Point", "coordinates": [-75.163265, 39.962556]}, "type": "Feature", "properties": {"route": "43", "id": 22022, "name": "Spring Garden St &amp; 15th St"}}, {"geometry": {"type": "Point", "coordinates": [-75.159441, 39.961878]}, "type": "Feature", "properties": {"route": "43", "id": 22023, "name": "Spring Garden St &amp; 13th St"}}, {"geometry": {"type": "Point", "coordinates": [-75.157848, 39.961688]}, "type": "Feature", "properties": {"route": "43", "id": 22024, "name": "Spring Garden St &amp; 12th St"}}, {"geometry": {"type": "Point", "coordinates": [-75.149948, 39.961304]}, "type": "Feature", "properties": {"route": "43", "id": 22025, "name": "Spring Garden St &amp; 7 th St"}}, {"geometry": {"type": "Point", "coordinates": [-75.148306, 39.96122]}, "type": "Feature", "properties": {"route": "43", "id": 22026, "name": "Spring Garden St &amp; 6th St"}}, {"geometry": {"type": "Point", "coordinates": [-75.146736, 39.961074]}, "type": "Feature", "properties": {"route": "43", "id": 22027, "name": "Spring Garden St &amp; 5th St"}}, {"geometry": {"type": "Point", "coordinates": [-75.145107, 39.960892]}, "type": "Feature", "properties": {"route": "43", "id": 22028, "name": "Spring Garden St &amp; 4th St"}}, {"geometry": {"type": "Point", "coordinates": [-75.143537, 39.960737]}, "type": "Feature", "properties": {"route": "43", "id": 22029, "name": "Spring Garden St &amp; 3rd St"}}, {"geometry": {"type": "Point", "coordinates": [-75.140704, 39.960453]}, "type": "Feature", "properties": {"route": "43", "id": 22030, "name": "Spring Garden St &amp; 2nd St - MBFS"}}, {"geometry": {"type": "Point", "coordinates": [-75.120762, 39.975462]}, "type": "Feature", "properties": {"route": "43", "id": 22033, "name": "Aramingo Av &amp; York St - FS"}}, {"geometry": {"type": "Point", "coordinates": [-75.131823, 39.965984]}, "type": "Feature", "properties": {"route": "43", "id": 22034, "name": "Delaware Av &amp; Shackamaxon St"}}, {"geometry": {"type": "Point", "coordinates": [-75.140467, 39.96064]}, "type": "Feature", "properties": {"route": "43", "id": 22035, "name": "Spring Garden St &amp; Front St - MBFS"}}, {"geometry": {"type": "Point", "coordinates": [-75.1433, 39.96095]}, "type": "Feature", "properties": {"route": "43", "id": 22036, "name": "Spring Garden St &amp; 3rd St"}}, {"geometry": {"type": "Point", "coordinates": [-75.144882, 39.961114]}, "type": "Feature", "properties": {"route": "43", "id": 22037, "name": "Spring Garden St &amp; 4th St"}}, {"geometry": {"type": "Point", "coordinates": [-75.146499, 39.961297]}, "type": "Feature", "properties": {"route": "43", "id": 22038, "name": "Spring Garden St &amp; 5th St"}}, {"geometry": {"type": "Point", "coordinates": [-75.148093, 39.961452]}, "type": "Feature", "properties": {"route": "43", "id": 22039, "name": "Spring Garden St &amp; 6th St"}}, {"geometry": {"type": "Point", "coordinates": [-75.149699, 39.961536]}, "type": "Feature", "properties": {"route": "43", "id": 22040, "name": "Spring Garden St &amp; 7th St"}}, {"geometry": {"type": "Point", "coordinates": [-75.151671, 39.961629]}, "type": "Feature", "properties": {"route": "43", "id": 22041, "name": "Spring Garden St &amp; 8th St"}}, {"geometry": {"type": "Point", "coordinates": [-75.152804, 39.961694]}, "type": "Feature", "properties": {"route": "43", "id": 22042, "name": "Spring Garden St &amp; 9th St"}}, {"geometry": {"type": "Point", "coordinates": [-75.154399, 39.96176]}, "type": "Feature", "properties": {"route": "43", "id": 22043, "name": "Spring Garden St &amp; 10th St"}}, {"geometry": {"type": "Point", "coordinates": [-75.156005, 39.961826]}, "type": "Feature", "properties": {"route": "43", "id": 22044, "name": "Spring Garden St &amp; 11th St"}}, {"geometry": {"type": "Point", "coordinates": [-75.157433, 39.961892]}, "type": "Feature", "properties": {"route": "43", "id": 22045, "name": "Spring Garden St &amp; 12th St"}}, {"geometry": {"type": "Point", "coordinates": [-75.159169, 39.962101]}, "type": "Feature", "properties": {"route": "43", "id": 22046, "name": "Spring Garden St &amp; 13th St"}}, {"geometry": {"type": "Point", "coordinates": [-75.162969, 39.962761]}, "type": "Feature", "properties": {"route": "43", "id": 22048, "name": "Spring Garden St &amp; 15th St"}}, {"geometry": {"type": "Point", "coordinates": [-75.164551, 39.962951]}, "type": "Feature", "properties": {"route": "43", "id": 22049, "name": "Spring Garden St &amp; 16th St"}}, {"geometry": {"type": "Point", "coordinates": [-75.16768, 39.963351]}, "type": "Feature", "properties": {"route": "43", "id": 22051, "name": "Spring Garden St &amp; 18th St"}}, {"geometry": {"type": "Point", "coordinates": [-75.169262, 39.963541]}, "type": "Feature", "properties": {"route": "43", "id": 22052, "name": "Spring Garden St &amp; 19th St"}}, {"geometry": {"type": "Point", "coordinates": [-75.170808, 39.963741]}, "type": "Feature", "properties": {"route": "43", "id": 22053, "name": "Spring Garden St &amp; 20th St"}}, {"geometry": {"type": "Point", "coordinates": [-75.172709, 39.963977]}, "type": "Feature", "properties": {"route": "43", "id": 22054, "name": "Spring Garden St &amp; 21st St"}}, {"geometry": {"type": "Point", "coordinates": [-75.175956, 39.964367]}, "type": "Feature", "properties": {"route": "43", "id": 22055, "name": "Spring Garden St &amp; 23rd St"}}, {"geometry": {"type": "Point", "coordinates": [-75.188593, 39.964446]}, "type": "Feature", "properties": {"route": "43", "id": 22076, "name": "Haverford Av &amp; 32nd St"}}, {"geometry": {"type": "Point", "coordinates": [-75.191488, 39.96413]}, "type": "Feature", "properties": {"route": "43", "id": 22079, "name": "Haverford Av &amp; 34th St"}}, {"geometry": {"type": "Point", "coordinates": [-75.192953, 39.963981]}, "type": "Feature", "properties": {"route": "43", "id": 22088, "name": "Haverford Av &amp; 35th St"}}, {"geometry": {"type": "Point", "coordinates": [-75.194406, 39.963823]}, "type": "Feature", "properties": {"route": "43", "id": 22089, "name": "Haverford Av &amp; 36th St"}}, {"geometry": {"type": "Point", "coordinates": [-75.195859, 39.963656]}, "type": "Feature", "properties": {"route": "43", "id": 22090, "name": "Haverford Av &amp; 37th St"}}, {"geometry": {"type": "Point", "coordinates": [-75.197324, 39.963507]}, "type": "Feature", "properties": {"route": "43", "id": 22091, "name": "Haverford Av &amp; 38th St"}}, {"geometry": {"type": "Point", "coordinates": [-75.199546, 39.963252]}, "type": "Feature", "properties": {"route": "43", "id": 22093, "name": "Haverford Av &amp; 39th St"}}, {"geometry": {"type": "Point", "coordinates": [-75.20185, 39.962998]}, "type": "Feature", "properties": {"route": "43", "id": 22095, "name": "Haverford Av &amp; Lancaster Av"}}, {"geometry": {"type": "Point", "coordinates": [-75.21142, 39.969548]}, "type": "Feature", "properties": {"route": "43", "id": 22098, "name": "Belmont Av &amp; Westminster Av"}}, {"geometry": {"type": "Point", "coordinates": [-75.211722, 39.971173]}, "type": "Feature", "properties": {"route": "43", "id": 22099, "name": "Belmont Av &amp; Wyalusing Av"}}, {"geometry": {"type": "Point", "coordinates": [-75.212527, 39.974601]}, "type": "Feature", "properties": {"route": "43", "id": 22100, "name": "Belmont Av &amp; Thompson St"}}, {"geometry": {"type": "Point", "coordinates": [-75.212877, 39.975941]}, "type": "Feature", "properties": {"route": "43", "id": 22102, "name": "Belmont Av &amp; Leidy St"}}, {"geometry": {"type": "Point", "coordinates": [-75.214182, 39.97813]}, "type": "Feature", "properties": {"route": "43", "id": 22103, "name": "Parkside Av &amp; Belmont Av - FS"}}, {"geometry": {"type": "Point", "coordinates": [-75.135306, 39.963422]}, "type": "Feature", "properties": {"route": "43", "id": 24072, "name": "Delaware Av &amp; Ellen St"}}, {"geometry": {"type": "Point", "coordinates": [-75.134012, 39.964945]}, "type": "Feature", "properties": {"route": "43", "id": 25793, "name": "Delaware Av &amp; Frankford Av"}}, {"geometry": {"type": "Point", "coordinates": [-75.137326, 39.960338]}, "type": "Feature", "properties": {"route": "43", "id": 25794, "name": "Columbus Blvd &amp; Spring Garden St"}}, {"geometry": {"type": "Point", "coordinates": [-75.141328, 39.960749]}, "type": "Feature", "properties": {"route": "43", "id": 25795, "name": "Spring Garden St &amp; 2nd St"}}, {"geometry": {"type": "Point", "coordinates": [-75.211955, 39.972467]}, "type": "Feature", "properties": {"route": "43", "id": 25914, "name": "Belmont Av &amp; Mantua Av"}}, {"geometry": {"type": "Point", "coordinates": [-75.134381, 39.964214]}, "type": "Feature", "properties": {"route": "43", "id": 25918, "name": "Delaware Av &amp; Frankford Av"}}, {"geometry": {"type": "Point", "coordinates": [-75.136482, 39.961666]}, "type": "Feature", "properties": {"route": "43", "id": 30602, "name": "Delaware Av &amp; Penn St"}}, {"geometry": {"type": "Point", "coordinates": [-75.135494, 39.963681]}, "type": "Feature", "properties": {"route": "43", "id": 30603, "name": "Delaware Av &amp; Ellen St - FS"}}, {"geometry": {"type": "Point", "coordinates": [-75.220787, 39.977659]}, "type": "Feature", "properties": {"route": "43", "id": 30766, "name": "50th St &amp; Jefferson St - MBNS"}}, {"geometry": {"type": "Point", "coordinates": [-75.218712, 39.97637]}, "type": "Feature", "properties": {"route": "43", "id": 30767, "name": "Jefferson St &amp; 49th St"}}, {"geometry": {"type": "Point", "coordinates": [-75.218499, 39.97645]}, "type": "Feature", "properties": {"route": "43", "id": 30770, "name": "49th St &amp; Jefferson St"}}, {"geometry": {"type": "Point", "coordinates": [-75.219687, 39.978201]}, "type": "Feature", "properties": {"route": "43", "id": 30771, "name": "50th &amp; Parkside Loop"}}, {"geometry": {"type": "Point", "coordinates": [-75.212762, 39.974834]}, "type": "Feature", "properties": {"route": "43", "id": 30845, "name": "Belmont Av &amp; Thompson st"}}, {"geometry": {"type": "Point", "coordinates": [-75.212155, 39.972602]}, "type": "Feature", "properties": {"route": "43", "id": 30846, "name": "Belmont Av &amp; Mantua Av"}}, {"geometry": {"type": "Point", "coordinates": [-75.194363, 39.962529]}, "type": "Feature", "properties": {"route": "43", "id": 30849, "name": "Spring Garden St &amp; 36th St"}}, {"geometry": {"type": "Point", "coordinates": [-75.19291, 39.962705]}, "type": "Feature", "properties": {"route": "43", "id": 30850, "name": "Spring Garden St &amp; 35th St"}}, {"geometry": {"type": "Point", "coordinates": [-75.132451, 39.965423]}, "type": "Feature", "properties": {"route": "43", "id": 30851, "name": "Delaware Av &amp; Sugarhouse Dr"}}, {"geometry": {"type": "Point", "coordinates": [-75.217003, 39.978911]}, "type": "Feature", "properties": {"route": "43", "id": 31336, "name": "49th St &amp; Parkside Av - FS"}}, {"geometry": {"type": "Point", "coordinates": [-75.128946, 39.967619]}, "type": "Feature", "properties": {"route": "43", "id": 31458, "name": "Delaware Av &amp; Columbia Av"}}, {"geometry": {"type": "Point", "coordinates": [-75.126056, 39.969558]}, "type": "Feature", "properties": {"route": "43", "id": 31463, "name": "Delaware Av &amp; Montgomery Av"}}, {"geometry": {"type": "Point", "coordinates": [-75.139027, 39.960253]}, "type": "Feature", "properties": {"route": "43", "id": 31687, "name": "Spring Garden St &amp; Front St"}}, {"geometry": {"type": "Point", "coordinates": [-75.154648, 39.96152]}, "type": "Feature", "properties": {"route": "43", "id": 31688, "name": "Spring Garden St &amp; 10th St"}}, {"geometry": {"type": "Point", "coordinates": [-75.136718, 39.961872]}, "type": "Feature", "properties": {"route": "43", "id": 31753, "name": "Delaware Av &amp; Penn St"}}, {"geometry": {"type": "Point", "coordinates": [-75.11959, 39.975968]}, "type": "Feature", "properties": {"route": "43", "id": 31796, "name": "Thompson St &amp; Cumberland St - detou"}}, {"geometry": {"type": "Point", "coordinates": [-75.118787, 39.978742]}, "type": "Feature", "properties": {"route": "43", "id": 32301, "name": "Aramingo Av &amp; Huntingdon St - FS"}}, {"geometry": {"type": "Point", "coordinates": [-75.141613, 39.960545]}, "type": "Feature", "properties": {"route": "43", "id": 32375, "name": "Spring Garden St &amp; 2nd St"}}]}