{"type": "FeatureCollection", "features": [{"geometry": {"type": "Point", "coordinates": [-75.213848, 39.940064]}, "type": "Feature", "properties": {"route": "52", "id": 317, "name": "Woodland Av &amp; 50th St"}}, {"geometry": {"type": "Point", "coordinates": [-75.22891, 40.000243]}, "type": "Feature", "properties": {"route": "52", "id": 698, "name": "Bala Av &amp; City Av"}}, {"geometry": {"type": "Point", "coordinates": [-75.225873, 39.971241]}, "type": "Feature", "properties": {"route": "52", "id": 767, "name": "52nd St &amp; Girard Av - FS"}}, {"geometry": {"type": "Point", "coordinates": [-75.224651, 39.964697]}, "type": "Feature", "properties": {"route": "52", "id": 768, "name": "52nd St &amp; Haverford Av - FS"}}, {"geometry": {"type": "Point", "coordinates": [-75.224948, 39.9602]}, "type": "Feature", "properties": {"route": "52", "id": 769, "name": "52nd St &amp; Market St"}}, {"geometry": {"type": "Point", "coordinates": [-75.227498, 39.94787]}, "type": "Feature", "properties": {"route": "52", "id": 771, "name": "52nd St &amp; Baltimore Av"}}, {"geometry": {"type": "Point", "coordinates": [-75.223058, 39.939696]}, "type": "Feature", "properties": {"route": "52", "id": 776, "name": "54th St &amp; Chester Av"}}, {"geometry": {"type": "Point", "coordinates": [-75.227262, 39.947709]}, "type": "Feature", "properties": {"route": "52", "id": 777, "name": "52nd St &amp; Baltimore Av"}}, {"geometry": {"type": "Point", "coordinates": [-75.224878, 39.959825]}, "type": "Feature", "properties": {"route": "52", "id": 779, "name": "52nd St &amp; Market St"}}, {"geometry": {"type": "Point", "coordinates": [-75.224591, 39.965197]}, "type": "Feature", "properties": {"route": "52", "id": 780, "name": "52nd St &amp; Haverford Av - FS"}}, {"geometry": {"type": "Point", "coordinates": [-75.225743, 39.971339]}, "type": "Feature", "properties": {"route": "52", "id": 781, "name": "52nd St &amp; Girard Av"}}, {"geometry": {"type": "Point", "coordinates": [-75.225154, 39.958361]}, "type": "Feature", "properties": {"route": "52", "id": 3574, "name": "52nd St &amp; Chestnut St"}}, {"geometry": {"type": "Point", "coordinates": [-75.231017, 39.999024]}, "type": "Feature", "properties": {"route": "52", "id": 6232, "name": "City Av &amp; Bryn Mawr Av"}}, {"geometry": {"type": "Point", "coordinates": [-75.234365, 39.997449]}, "type": "Feature", "properties": {"route": "52", "id": 6239, "name": "City Av &amp; 53rd St"}}, {"geometry": {"type": "Point", "coordinates": [-75.230851, 39.99922]}, "type": "Feature", "properties": {"route": "52", "id": 20561, "name": "City Av &amp; Bryn Mawr Av"}}, {"geometry": {"type": "Point", "coordinates": [-75.235383, 39.996969]}, "type": "Feature", "properties": {"route": "52", "id": 20591, "name": "City Av &amp; 54th St"}}, {"geometry": {"type": "Point", "coordinates": [-75.233289, 39.997965]}, "type": "Feature", "properties": {"route": "52", "id": 20592, "name": "City Av &amp; 52nd St"}}, {"geometry": {"type": "Point", "coordinates": [-75.215102, 39.939192]}, "type": "Feature", "properties": {"route": "52", "id": 20741, "name": "Woodland Av &amp; 51st St"}}, {"geometry": {"type": "Point", "coordinates": [-75.216214, 39.938408]}, "type": "Feature", "properties": {"route": "52", "id": 20742, "name": "Woodland Av &amp; 52nd St"}}, {"geometry": {"type": "Point", "coordinates": [-75.217598, 39.937438]}, "type": "Feature", "properties": {"route": "52", "id": 20743, "name": "Woodland Av &amp; 53rd St"}}, {"geometry": {"type": "Point", "coordinates": [-75.212759, 39.940866]}, "type": "Feature", "properties": {"route": "52", "id": 21256, "name": "49th St &amp; Woodland Av"}}, {"geometry": {"type": "Point", "coordinates": [-75.222775, 39.93958]}, "type": "Feature", "properties": {"route": "52", "id": 21257, "name": "54th St &amp; Chester Av"}}, {"geometry": {"type": "Point", "coordinates": [-75.279853, 40.03954]}, "type": "Feature", "properties": {"route": "52", "id": 21652, "name": "Black Rock Rd &amp; Conshohocken State"}}, {"geometry": {"type": "Point", "coordinates": [-75.277908, 40.037164]}, "type": "Feature", "properties": {"route": "52", "id": 21653, "name": "Conshohocken State Rd &amp; Maplecrest"}}, {"geometry": {"type": "Point", "coordinates": [-75.262824, 40.031165]}, "type": "Feature", "properties": {"route": "52", "id": 21656, "name": "Hollow Rd &amp; Conshohocken State - FS"}}, {"geometry": {"type": "Point", "coordinates": [-75.259079, 40.035042]}, "type": "Feature", "properties": {"route": "52", "id": 21658, "name": "Hagys Ford Rd &amp; Bobarn Rd - FS"}}, {"geometry": {"type": "Point", "coordinates": [-75.259268, 40.034927]}, "type": "Feature", "properties": {"route": "52", "id": 21663, "name": "Hagys Ford Rd &amp; Bobarn Dr"}}, {"geometry": {"type": "Point", "coordinates": [-75.257288, 40.032514]}, "type": "Feature", "properties": {"route": "52", "id": 21667, "name": "Hagys Ford Rd &amp; Tower Ln - MBFS"}}, {"geometry": {"type": "Point", "coordinates": [-75.254361, 40.030234]}, "type": "Feature", "properties": {"route": "52", "id": 21668, "name": "Hagys Ford Rd &amp; Flat Rock Rd"}}, {"geometry": {"type": "Point", "coordinates": [-75.257683, 40.025241]}, "type": "Feature", "properties": {"route": "52", "id": 21669, "name": "Conshohocken &amp; Hagys Ford Rd - FS"}}, {"geometry": {"type": "Point", "coordinates": [-75.256068, 40.023489]}, "type": "Feature", "properties": {"route": "52", "id": 21673, "name": "Conshohocken St &amp; Centennial Rd"}}, {"geometry": {"type": "Point", "coordinates": [-75.24029, 40.018254]}, "type": "Feature", "properties": {"route": "52", "id": 21677, "name": "Conshohocken State Rd &amp; RockHill Rd"}}, {"geometry": {"type": "Point", "coordinates": [-75.236201, 40.013473]}, "type": "Feature", "properties": {"route": "52", "id": 21678, "name": "Conshohocken State Rd &amp; LeveringMil"}}, {"geometry": {"type": "Point", "coordinates": [-75.234081, 40.010756]}, "type": "Feature", "properties": {"route": "52", "id": 21679, "name": "Conshohocken State Rd &amp; Lodges Ln"}}, {"geometry": {"type": "Point", "coordinates": [-75.232802, 40.007532]}, "type": "Feature", "properties": {"route": "52", "id": 21680, "name": "Conshohocken State Rd &amp; Bala Av"}}, {"geometry": {"type": "Point", "coordinates": [-75.231277, 40.003174]}, "type": "Feature", "properties": {"route": "52", "id": 21682, "name": "Bala Av &amp; Union Av"}}, {"geometry": {"type": "Point", "coordinates": [-75.234136, 39.994888]}, "type": "Feature", "properties": {"route": "52", "id": 21683, "name": "54th St &amp; Overbrook Av"}}, {"geometry": {"type": "Point", "coordinates": [-75.233789, 39.992335]}, "type": "Feature", "properties": {"route": "52", "id": 21684, "name": "54th St &amp; Woodbine Av"}}, {"geometry": {"type": "Point", "coordinates": [-75.233604, 39.990799]}, "type": "Feature", "properties": {"route": "52", "id": 21685, "name": "54th St &amp; Woodcrest Av"}}, {"geometry": {"type": "Point", "coordinates": [-75.23303, 39.988995]}, "type": "Feature", "properties": {"route": "52", "id": 21686, "name": "54th St &amp; Gainor Rd"}}, {"geometry": {"type": "Point", "coordinates": [-75.232514, 39.987468]}, "type": "Feature", "properties": {"route": "52", "id": 21687, "name": "54th St &amp; Lebanon Av"}}, {"geometry": {"type": "Point", "coordinates": [-75.231975, 39.985941]}, "type": "Feature", "properties": {"route": "52", "id": 21688, "name": "54th St &amp; Berks St"}}, {"geometry": {"type": "Point", "coordinates": [-75.230826, 39.982575]}, "type": "Feature", "properties": {"route": "52", "id": 21689, "name": "54th St &amp; Upland Way"}}, {"geometry": {"type": "Point", "coordinates": [-75.230321, 39.981771]}, "type": "Feature", "properties": {"route": "52", "id": 21690, "name": "54th St &amp; Oxford St"}}, {"geometry": {"type": "Point", "coordinates": [-75.227301, 39.980097]}, "type": "Feature", "properties": {"route": "52", "id": 21691, "name": "Jefferson St &amp; Lindenwood St"}}, {"geometry": {"type": "Point", "coordinates": [-75.22692, 39.977017]}, "type": "Feature", "properties": {"route": "52", "id": 21692, "name": "52nd St &amp; Lancaster Av - FS"}}, {"geometry": {"type": "Point", "coordinates": [-75.226746, 39.975812]}, "type": "Feature", "properties": {"route": "52", "id": 21693, "name": "52nd St &amp; Media St"}}, {"geometry": {"type": "Point", "coordinates": [-75.22642, 39.974107]}, "type": "Feature", "properties": {"route": "52", "id": 21694, "name": "52nd St &amp; Master St - FS"}}, {"geometry": {"type": "Point", "coordinates": [-75.226176, 39.97275]}, "type": "Feature", "properties": {"route": "52", "id": 21695, "name": "52nd St &amp; Thompson St - FS"}}, {"geometry": {"type": "Point", "coordinates": [-75.22543, 39.969313]}, "type": "Feature", "properties": {"route": "52", "id": 21696, "name": "52nd St &amp; Wyalusing Av - FS"}}, {"geometry": {"type": "Point", "coordinates": [-75.225186, 39.967929]}, "type": "Feature", "properties": {"route": "52", "id": 21697, "name": "52nd St &amp; Westminster Av - FS"}}, {"geometry": {"type": "Point", "coordinates": [-75.224954, 39.966411]}, "type": "Feature", "properties": {"route": "52", "id": 21698, "name": "52nd St &amp; Parrish St - FS"}}, {"geometry": {"type": "Point", "coordinates": [-75.224325, 39.963153]}, "type": "Feature", "properties": {"route": "52", "id": 21699, "name": "52nd St &amp; Race St"}}, {"geometry": {"type": "Point", "coordinates": [-75.224696, 39.961404]}, "type": "Feature", "properties": {"route": "52", "id": 21700, "name": "52nd St &amp; Arch St - FS"}}, {"geometry": {"type": "Point", "coordinates": [-75.225283, 39.958567]}, "type": "Feature", "properties": {"route": "52", "id": 21701, "name": "52nd St &amp; Chestnut St"}}, {"geometry": {"type": "Point", "coordinates": [-75.225571, 39.957059]}, "type": "Feature", "properties": {"route": "52", "id": 21702, "name": "52nd St &amp; Walnut St"}}, {"geometry": {"type": "Point", "coordinates": [-75.225906, 39.955569]}, "type": "Feature", "properties": {"route": "52", "id": 21703, "name": "52nd St &amp; Locust St - FS"}}, {"geometry": {"type": "Point", "coordinates": [-75.226133, 39.954427]}, "type": "Feature", "properties": {"route": "52", "id": 21704, "name": "52nd St &amp; Spruce St - FS"}}, {"geometry": {"type": "Point", "coordinates": [-75.226313, 39.953633]}, "type": "Feature", "properties": {"route": "52", "id": 21705, "name": "52nd St &amp; Pine St"}}, {"geometry": {"type": "Point", "coordinates": [-75.226612, 39.952098]}, "type": "Feature", "properties": {"route": "52", "id": 21706, "name": "52nd St &amp; Larchwood St"}}, {"geometry": {"type": "Point", "coordinates": [-75.226936, 39.950564]}, "type": "Feature", "properties": {"route": "52", "id": 21707, "name": "52nd St &amp; Cedar Av"}}, {"geometry": {"type": "Point", "coordinates": [-75.227318, 39.948797]}, "type": "Feature", "properties": {"route": "52", "id": 21708, "name": "52nd St &amp; Catherine St - FS"}}, {"geometry": {"type": "Point", "coordinates": [-75.228731, 39.946006]}, "type": "Feature", "properties": {"route": "52", "id": 21709, "name": "Whitby Av &amp; 53rd St - FS"}}, {"geometry": {"type": "Point", "coordinates": [-75.229501, 39.945133]}, "type": "Feature", "properties": {"route": "52", "id": 21710, "name": "54th St &amp; Whitby Av - FS"}}, {"geometry": {"type": "Point", "coordinates": [-75.228312, 39.944158]}, "type": "Feature", "properties": {"route": "52", "id": 21711, "name": "54th St &amp; Willows Av"}}, {"geometry": {"type": "Point", "coordinates": [-75.226945, 39.942969]}, "type": "Feature", "properties": {"route": "52", "id": 21712, "name": "54th St &amp; Florence Av"}}, {"geometry": {"type": "Point", "coordinates": [-75.225661, 39.941887]}, "type": "Feature", "properties": {"route": "52", "id": 21713, "name": "54th St &amp; Warrington St"}}, {"geometry": {"type": "Point", "coordinates": [-75.224295, 39.940724]}, "type": "Feature", "properties": {"route": "52", "id": 21714, "name": "54th St &amp; Springfield Av"}}, {"geometry": {"type": "Point", "coordinates": [-75.221798, 39.938659]}, "type": "Feature", "properties": {"route": "52", "id": 21715, "name": "54th St &amp; Kingsessing Av"}}, {"geometry": {"type": "Point", "coordinates": [-75.220018, 39.937522]}, "type": "Feature", "properties": {"route": "52", "id": 21716, "name": "Greenway Av &amp; 54th St - FS"}}, {"geometry": {"type": "Point", "coordinates": [-75.218883, 39.938306]}, "type": "Feature", "properties": {"route": "52", "id": 21717, "name": "Greenway Av &amp; 53rd St"}}, {"geometry": {"type": "Point", "coordinates": [-75.21751, 39.939267]}, "type": "Feature", "properties": {"route": "52", "id": 21718, "name": "Greenway Av &amp; 52nd St"}}, {"geometry": {"type": "Point", "coordinates": [-75.216374, 39.940069]}, "type": "Feature", "properties": {"route": "52", "id": 21719, "name": "Greenway Av &amp; 51st St"}}, {"geometry": {"type": "Point", "coordinates": [-75.215132, 39.940959]}, "type": "Feature", "properties": {"route": "52", "id": 21720, "name": "Greenway Av &amp; 50th St"}}, {"geometry": {"type": "Point", "coordinates": [-75.224689, 39.980378]}, "type": "Feature", "properties": {"route": "52", "id": 21721, "name": "52nd St &amp; Columbia Av"}}, {"geometry": {"type": "Point", "coordinates": [-75.224037, 39.98143]}, "type": "Feature", "properties": {"route": "52", "id": 21722, "name": "52nd St &amp; Parkside Av"}}, {"geometry": {"type": "Point", "coordinates": [-75.22262, 39.981143]}, "type": "Feature", "properties": {"route": "52", "id": 21723, "name": "Parkside Av &amp; Paxon St"}}, {"geometry": {"type": "Point", "coordinates": [-75.221581, 39.980721]}, "type": "Feature", "properties": {"route": "52", "id": 21724, "name": "Parkside Av &amp; 51st St"}}, {"geometry": {"type": "Point", "coordinates": [-75.219422, 39.979923]}, "type": "Feature", "properties": {"route": "52", "id": 21725, "name": "Parkside Av &amp; 50th St"}}, {"geometry": {"type": "Point", "coordinates": [-75.219112, 39.93653]}, "type": "Feature", "properties": {"route": "52", "id": 21727, "name": "54th St &amp; Woodland Av - FS"}}, {"geometry": {"type": "Point", "coordinates": [-75.220113, 39.93738]}, "type": "Feature", "properties": {"route": "52", "id": 21728, "name": "54th St &amp; Greenway Av"}}, {"geometry": {"type": "Point", "coordinates": [-75.221727, 39.938739]}, "type": "Feature", "properties": {"route": "52", "id": 21730, "name": "54th St &amp; Kingsessing Av - FS"}}, {"geometry": {"type": "Point", "coordinates": [-75.224035, 39.940697]}, "type": "Feature", "properties": {"route": "52", "id": 21731, "name": "54th St &amp; Springfield Av"}}, {"geometry": {"type": "Point", "coordinates": [-75.225437, 39.94186]}, "type": "Feature", "properties": {"route": "52", "id": 21732, "name": "54th St &amp; Warrington Av"}}, {"geometry": {"type": "Point", "coordinates": [-75.226685, 39.942951]}, "type": "Feature", "properties": {"route": "52", "id": 21733, "name": "54th St &amp; Florence Av"}}, {"geometry": {"type": "Point", "coordinates": [-75.228052, 39.94414]}, "type": "Feature", "properties": {"route": "52", "id": 21734, "name": "54th St &amp; Willows Av"}}, {"geometry": {"type": "Point", "coordinates": [-75.229418, 39.945258]}, "type": "Feature", "properties": {"route": "52", "id": 21735, "name": "54th St &amp; Whitby Av"}}, {"geometry": {"type": "Point", "coordinates": [-75.228756, 39.94581]}, "type": "Feature", "properties": {"route": "52", "id": 21736, "name": "Whitby Av &amp; 53rd St"}}, {"geometry": {"type": "Point", "coordinates": [-75.227081, 39.949118]}, "type": "Feature", "properties": {"route": "52", "id": 21737, "name": "52nd St &amp; Catherine St - FS"}}, {"geometry": {"type": "Point", "coordinates": [-75.226746, 39.950626]}, "type": "Feature", "properties": {"route": "52", "id": 21738, "name": "52nd St &amp; Cedar Av - FS"}}, {"geometry": {"type": "Point", "coordinates": [-75.226483, 39.951929]}, "type": "Feature", "properties": {"route": "52", "id": 21739, "name": "52nd St &amp; Larchwood Av"}}, {"geometry": {"type": "Point", "coordinates": [-75.226124, 39.953695]}, "type": "Feature", "properties": {"route": "52", "id": 21740, "name": "52nd St &amp; Pine St - FS"}}, {"geometry": {"type": "Point", "coordinates": [-75.225884, 39.954748]}, "type": "Feature", "properties": {"route": "52", "id": 21741, "name": "52nd St &amp; Spruce St - FS"}}, {"geometry": {"type": "Point", "coordinates": [-75.225645, 39.955979]}, "type": "Feature", "properties": {"route": "52", "id": 21742, "name": "52nd St &amp; Locust St - FS"}}, {"geometry": {"type": "Point", "coordinates": [-75.225453, 39.956854]}, "type": "Feature", "properties": {"route": "52", "id": 21743, "name": "52nd St &amp; Walnut St"}}, {"geometry": {"type": "Point", "coordinates": [-75.224459, 39.961725]}, "type": "Feature", "properties": {"route": "52", "id": 21744, "name": "52nd St &amp; Arch St - FS"}}, {"geometry": {"type": "Point", "coordinates": [-75.224196, 39.962992]}, "type": "Feature", "properties": {"route": "52", "id": 21745, "name": "52nd St &amp; Race St"}}, {"geometry": {"type": "Point", "coordinates": [-75.224812, 39.966536]}, "type": "Feature", "properties": {"route": "52", "id": 21746, "name": "52nd St &amp; Parrish St"}}, {"geometry": {"type": "Point", "coordinates": [-75.225078, 39.968286]}, "type": "Feature", "properties": {"route": "52", "id": 21747, "name": "52nd St &amp; Westminster Av - FS"}}, {"geometry": {"type": "Point", "coordinates": [-75.225288, 39.969437]}, "type": "Feature", "properties": {"route": "52", "id": 21748, "name": "52nd St &amp; Wyalusing Av"}}, {"geometry": {"type": "Point", "coordinates": [-75.22608, 39.973116]}, "type": "Feature", "properties": {"route": "52", "id": 21749, "name": "52nd St &amp; Thompson St - FS"}}, {"geometry": {"type": "Point", "coordinates": [-75.226301, 39.974401]}, "type": "Feature", "properties": {"route": "52", "id": 21750, "name": "52nd St &amp; Master St - FS"}}, {"geometry": {"type": "Point", "coordinates": [-75.226673, 39.976455]}, "type": "Feature", "properties": {"route": "52", "id": 21751, "name": "52nd St &amp; Warren St - FS"}}, {"geometry": {"type": "Point", "coordinates": [-75.226422, 39.977632]}, "type": "Feature", "properties": {"route": "52", "id": 21752, "name": "52nd St &amp; Lancaster Av - FS"}}, {"geometry": {"type": "Point", "coordinates": [-75.221392, 39.980775]}, "type": "Feature", "properties": {"route": "52", "id": 21754, "name": "Parkside Av &amp; 51st St"}}, {"geometry": {"type": "Point", "coordinates": [-75.222371, 39.981178]}, "type": "Feature", "properties": {"route": "52", "id": 21755, "name": "Parkside Av &amp; Paxon St"}}, {"geometry": {"type": "Point", "coordinates": [-75.224748, 39.980566]}, "type": "Feature", "properties": {"route": "52", "id": 21757, "name": "52nd St &amp; Columbia Av"}}, {"geometry": {"type": "Point", "coordinates": [-75.225554, 39.979577]}, "type": "Feature", "properties": {"route": "52", "id": 21758, "name": "Jefferson St &amp; 52nd St - FS"}}, {"geometry": {"type": "Point", "coordinates": [-75.227041, 39.980123]}, "type": "Feature", "properties": {"route": "52", "id": 21759, "name": "Jefferson St &amp; Lindenwood St"}}, {"geometry": {"type": "Point", "coordinates": [-75.229967, 39.981467]}, "type": "Feature", "properties": {"route": "52", "id": 21760, "name": "54th St &amp; Oxford St"}}, {"geometry": {"type": "Point", "coordinates": [-75.230602, 39.982414]}, "type": "Feature", "properties": {"route": "52", "id": 21761, "name": "54th St &amp; Columbia Av"}}, {"geometry": {"type": "Point", "coordinates": [-75.231165, 39.984003]}, "type": "Feature", "properties": {"route": "52", "id": 21762, "name": "54th St &amp; Montgomery Av"}}, {"geometry": {"type": "Point", "coordinates": [-75.231774, 39.985789]}, "type": "Feature", "properties": {"route": "52", "id": 21763, "name": "54th St &amp; Berks St"}}, {"geometry": {"type": "Point", "coordinates": [-75.232314, 39.987325]}, "type": "Feature", "properties": {"route": "52", "id": 21764, "name": "54th St &amp; Lebanon Av"}}, {"geometry": {"type": "Point", "coordinates": [-75.232829, 39.988852]}, "type": "Feature", "properties": {"route": "52", "id": 21765, "name": "54th St &amp; Gainor Rd"}}, {"geometry": {"type": "Point", "coordinates": [-75.233462, 39.990826]}, "type": "Feature", "properties": {"route": "52", "id": 21766, "name": "54th St &amp; Woodcrest Av - FS"}}, {"geometry": {"type": "Point", "coordinates": [-75.233924, 39.994628]}, "type": "Feature", "properties": {"route": "52", "id": 21768, "name": "54th St &amp; Overbrook Av"}}, {"geometry": {"type": "Point", "coordinates": [-75.231041, 40.003103]}, "type": "Feature", "properties": {"route": "52", "id": 21769, "name": "Bala Av &amp; Union Av"}}, {"geometry": {"type": "Point", "coordinates": [-75.232238, 40.006335]}, "type": "Feature", "properties": {"route": "52", "id": 21770, "name": "Bala Av &amp; Montgomery Av"}}, {"geometry": {"type": "Point", "coordinates": [-75.233821, 40.010711]}, "type": "Feature", "properties": {"route": "52", "id": 21771, "name": "Conshohocken State Rd &amp; Lodges Ln"}}, {"geometry": {"type": "Point", "coordinates": [-75.235965, 40.013401]}, "type": "Feature", "properties": {"route": "52", "id": 21773, "name": "Conshohocken State Rd &amp; Levering"}}, {"geometry": {"type": "Point", "coordinates": [-75.237308, 40.015099]}, "type": "Feature", "properties": {"route": "52", "id": 21774, "name": "Conshohocken State Rd &amp; Overhill Rd"}}, {"geometry": {"type": "Point", "coordinates": [-75.238839, 40.016895]}, "type": "Feature", "properties": {"route": "52", "id": 21776, "name": "Conshohocken State Rd &amp; Dartmouth"}}, {"geometry": {"type": "Point", "coordinates": [-75.240041, 40.018245]}, "type": "Feature", "properties": {"route": "52", "id": 21777, "name": "Conshohocken State Rd &amp; Rockhill Rd"}}, {"geometry": {"type": "Point", "coordinates": [-75.255147, 40.023318]}, "type": "Feature", "properties": {"route": "52", "id": 21779, "name": "Conshohocken State Rd &amp; Centennial"}}, {"geometry": {"type": "Point", "coordinates": [-75.257565, 40.025348]}, "type": "Feature", "properties": {"route": "52", "id": 21780, "name": "Conshohocken St &amp; Hagys Ford Rd"}}, {"geometry": {"type": "Point", "coordinates": [-75.252839, 40.029179]}, "type": "Feature", "properties": {"route": "52", "id": 21791, "name": "Hagys Ford Rd &amp; Flat Rock Rd - MBNS"}}, {"geometry": {"type": "Point", "coordinates": [-75.254066, 40.030198]}, "type": "Feature", "properties": {"route": "52", "id": 21793, "name": "Hagys Ford Rd &amp; Flat Rock Rd"}}, {"geometry": {"type": "Point", "coordinates": [-75.258679, 40.034185]}, "type": "Feature", "properties": {"route": "52", "id": 21796, "name": "Hagys Ford Rd &amp; Hollow Rd"}}, {"geometry": {"type": "Point", "coordinates": [-75.277612, 40.037065]}, "type": "Feature", "properties": {"route": "52", "id": 21799, "name": "Conshohocken State Rd &amp; Maplecrest"}}, {"geometry": {"type": "Point", "coordinates": [-75.231365, 39.984155]}, "type": "Feature", "properties": {"route": "52", "id": 22217, "name": "54th St &amp; Montgomery Av"}}, {"geometry": {"type": "Point", "coordinates": [-75.225507, 39.979443]}, "type": "Feature", "properties": {"route": "52", "id": 22218, "name": "Jefferson St &amp; 52nd St"}}, {"geometry": {"type": "Point", "coordinates": [-75.227997, 39.980455]}, "type": "Feature", "properties": {"route": "52", "id": 22290, "name": "Jefferson St &amp; 53rd St"}}, {"geometry": {"type": "Point", "coordinates": [-75.227454, 39.946727]}, "type": "Feature", "properties": {"route": "52", "id": 25520, "name": "Whitby Av &amp; 52nd St - MBNS"}}, {"geometry": {"type": "Point", "coordinates": [-75.2252, 39.979558]}, "type": "Feature", "properties": {"route": "52", "id": 25521, "name": "52nd St &amp; Jefferson St - FS"}}, {"geometry": {"type": "Point", "coordinates": [-75.228269, 39.980438]}, "type": "Feature", "properties": {"route": "52", "id": 25982, "name": "Jefferson St &amp; 53rd St"}}, {"geometry": {"type": "Point", "coordinates": [-75.25347, 40.027511]}, "type": "Feature", "properties": {"route": "52", "id": 29556, "name": "Hagys Ford Rd &amp; Tower Ln - MBNS"}}, {"geometry": {"type": "Point", "coordinates": [-75.255706, 40.026568]}, "type": "Feature", "properties": {"route": "52", "id": 29557, "name": "Hagys Ford Rd &amp; Tower Ln"}}, {"geometry": {"type": "Point", "coordinates": [-75.253016, 40.029152]}, "type": "Feature", "properties": {"route": "52", "id": 29558, "name": "Hagys Ford Rd &amp; Flat Rock Rd - MBFS"}}, {"geometry": {"type": "Point", "coordinates": [-75.244401, 40.018796]}, "type": "Feature", "properties": {"route": "52", "id": 29559, "name": "Conshohocken State Rd &amp; Manayunk Rd"}}, {"geometry": {"type": "Point", "coordinates": [-75.238875, 40.016726]}, "type": "Feature", "properties": {"route": "52", "id": 29560, "name": "Conshohocken &amp; Dartmouth - FS"}}, {"geometry": {"type": "Point", "coordinates": [-75.239594, 40.017441]}, "type": "Feature", "properties": {"route": "52", "id": 29561, "name": "Conshohocken State Rd &amp; Rockhill Rd"}}, {"geometry": {"type": "Point", "coordinates": [-75.235353, 40.012383]}, "type": "Feature", "properties": {"route": "52", "id": 29562, "name": "Conshohocken State Rd &amp; Derwen Rd"}}, {"geometry": {"type": "Point", "coordinates": [-75.237544, 40.015171]}, "type": "Feature", "properties": {"route": "52", "id": 29563, "name": "Conshohocken State Rd &amp; Overhill Rd"}}, {"geometry": {"type": "Point", "coordinates": [-75.232462, 40.00647]}, "type": "Feature", "properties": {"route": "52", "id": 29565, "name": "Bala Av &amp; Montgomery Av"}}, {"geometry": {"type": "Point", "coordinates": [-75.232206, 40.005104]}, "type": "Feature", "properties": {"route": "52", "id": 29566, "name": "Bala Av &amp; Highland Av"}}, {"geometry": {"type": "Point", "coordinates": [-75.232052, 40.004996]}, "type": "Feature", "properties": {"route": "52", "id": 29567, "name": "Bala Av &amp; Highland Av"}}, {"geometry": {"type": "Point", "coordinates": [-75.232613, 40.007452]}, "type": "Feature", "properties": {"route": "52", "id": 29568, "name": "Conshohocken State Rd &amp; Bala Av"}}, {"geometry": {"type": "Point", "coordinates": [-75.253434, 40.027395]}, "type": "Feature", "properties": {"route": "52", "id": 29569, "name": "Hagys Ford Rd &amp; Tower Ln - MBFS"}}, {"geometry": {"type": "Point", "coordinates": [-75.25943, 40.036274]}, "type": "Feature", "properties": {"route": "52", "id": 29570, "name": "Hagys Ford Rd &amp; Bobarn Rd - MBFS"}}, {"geometry": {"type": "Point", "coordinates": [-75.258539, 40.038023]}, "type": "Feature", "properties": {"route": "52", "id": 29571, "name": "Hagys Ford Rd &amp; Chermar Ln"}}, {"geometry": {"type": "Point", "coordinates": [-75.257485, 40.038869]}, "type": "Feature", "properties": {"route": "52", "id": 29572, "name": "Oakwood Dr &amp; Oakwood Ter - FS"}}, {"geometry": {"type": "Point", "coordinates": [-75.257508, 40.038994]}, "type": "Feature", "properties": {"route": "52", "id": 29573, "name": "Oakwood Dr &amp; Oakwood Ter"}}, {"geometry": {"type": "Point", "coordinates": [-75.258681, 40.03813]}, "type": "Feature", "properties": {"route": "52", "id": 29574, "name": "Hagys Ford Rd &amp; Chermar Ln - FS"}}, {"geometry": {"type": "Point", "coordinates": [-75.259596, 40.036257]}, "type": "Feature", "properties": {"route": "52", "id": 29575, "name": "Hagys Ford Rd &amp; Bobarn Dr - MBNS"}}, {"geometry": {"type": "Point", "coordinates": [-75.22891, 40.000466]}, "type": "Feature", "properties": {"route": "52", "id": 30129, "name": "Bala Av &amp; City Av - FS"}}, {"geometry": {"type": "Point", "coordinates": [-75.235117, 40.012311]}, "type": "Feature", "properties": {"route": "52", "id": 30130, "name": "Conshohocken State Rd &amp; Derwin Rd"}}, {"geometry": {"type": "Point", "coordinates": [-75.255505, 40.026514]}, "type": "Feature", "properties": {"route": "52", "id": 30131, "name": "Hagys Ford Rd &amp; Tower Ln - FS"}}, {"geometry": {"type": "Point", "coordinates": [-75.256449, 40.032049]}, "type": "Feature", "properties": {"route": "52", "id": 30132, "name": "Hagys Ford Rd &amp; Flat Rock Rd - MBFS"}}, {"geometry": {"type": "Point", "coordinates": [-75.256159, 40.039528]}, "type": "Feature", "properties": {"route": "52", "id": 30134, "name": "Oakwood Dr &amp; Oakwood Ter - MBNS"}}, {"geometry": {"type": "Point", "coordinates": [-75.255994, 40.039501]}, "type": "Feature", "properties": {"route": "52", "id": 30135, "name": "Oakwood Ter &amp; Oakwood Dr - MBFS"}}, {"geometry": {"type": "Point", "coordinates": [-75.280247, 40.038024]}, "type": "Feature", "properties": {"route": "52", "id": 30136, "name": "Youngs Ford Rd &amp; Righters Mill Rd"}}, {"geometry": {"type": "Point", "coordinates": [-75.269408, 40.031307]}, "type": "Feature", "properties": {"route": "52", "id": 30137, "name": "Conshohocken State Rd &amp; Mill Creek"}}, {"geometry": {"type": "Point", "coordinates": [-75.23457, 39.995986]}, "type": "Feature", "properties": {"route": "52", "id": 30138, "name": "54th St &amp; City Av - MBFS"}}, {"geometry": {"type": "Point", "coordinates": [-75.21389, 39.941832]}, "type": "Feature", "properties": {"route": "52", "id": 30185, "name": "Greenway Av &amp; 49th St"}}, {"geometry": {"type": "Point", "coordinates": [-75.254867, 40.040856]}, "type": "Feature", "properties": {"route": "52", "id": 30223, "name": "Oakhill Apartments Loop"}}, {"geometry": {"type": "Point", "coordinates": [-75.219687, 39.978201]}, "type": "Feature", "properties": {"route": "52", "id": 30771, "name": "50th &amp; Parkside Loop"}}, {"geometry": {"type": "Point", "coordinates": [-75.219328, 39.979825]}, "type": "Feature", "properties": {"route": "52", "id": 30844, "name": "50th St &amp; Parkside Av"}}, {"geometry": {"type": "Point", "coordinates": [-75.222733, 39.978715]}, "type": "Feature", "properties": {"route": "52", "id": 31039, "name": "Parkwest Town Center"}}, {"geometry": {"type": "Point", "coordinates": [-75.263001, 40.031183]}, "type": "Feature", "properties": {"route": "52", "id": 31210, "name": "Hollow Rd &amp; Conshohocken State Rd"}}, {"geometry": {"type": "Point", "coordinates": [-75.225341, 39.979594]}, "type": "Feature", "properties": {"route": "52", "id": 31270, "name": "52nd St &amp; Jefferson St"}}, {"geometry": {"type": "Point", "coordinates": [-75.233158, 39.998153]}, "type": "Feature", "properties": {"route": "52", "id": 31283, "name": "City Av &amp; Maple Av"}}, {"geometry": {"type": "Point", "coordinates": [-75.245732, 40.020618]}, "type": "Feature", "properties": {"route": "52", "id": 31449, "name": "Conshohocken State Rd &amp; Mary Waters"}}, {"geometry": {"type": "Point", "coordinates": [-75.245922, 40.020627]}, "type": "Feature", "properties": {"route": "52", "id": 31450, "name": "Conshohocken State Rd &amp; Mary Waters"}}, {"geometry": {"type": "Point", "coordinates": [-75.241441, 39.994024]}, "type": "Feature", "properties": {"route": "52", "id": 31610, "name": "Cardinal Av &amp; City Av"}}, {"geometry": {"type": "Point", "coordinates": [-75.233647, 39.992343]}, "type": "Feature", "properties": {"route": "52", "id": 31630, "name": "54th St &amp; Woodbine Av - FS"}}]}