{"type": "FeatureCollection", "features": [{"geometry": {"type": "Point", "coordinates": [-75.036178, 40.030026]}, "type": "Feature", "properties": {"route": "70", "id": 523, "name": "Torresdale Av &amp; Cottman Av Loop"}}, {"geometry": {"type": "Point", "coordinates": [-75.13697, 40.04194]}, "type": "Feature", "properties": {"route": "70", "id": 841, "name": "Fern Rock Transportation Center"}}, {"geometry": {"type": "Point", "coordinates": [-75.125045, 40.054567]}, "type": "Feature", "properties": {"route": "70", "id": 1003, "name": "Oak Lane &amp; Cheltenham Av"}}, {"geometry": {"type": "Point", "coordinates": [-75.083657, 40.061288]}, "type": "Feature", "properties": {"route": "70", "id": 1008, "name": "Cottman Av &amp; Oxford Av"}}, {"geometry": {"type": "Point", "coordinates": [-75.071664, 40.05432]}, "type": "Feature", "properties": {"route": "70", "id": 1009, "name": "Cottman Av &amp; Summerdale Av"}}, {"geometry": {"type": "Point", "coordinates": [-75.054791, 40.044667]}, "type": "Feature", "properties": {"route": "70", "id": 1013, "name": "Cottman Av &amp; Roosevelt Blvd"}}, {"geometry": {"type": "Point", "coordinates": [-75.036183, 40.031258]}, "type": "Feature", "properties": {"route": "70", "id": 1014, "name": "Cottman Av &amp; Ditman St"}}, {"geometry": {"type": "Point", "coordinates": [-75.022543, 40.030759]}, "type": "Feature", "properties": {"route": "70", "id": 1016, "name": "State Rd &amp; Rhawn St"}}, {"geometry": {"type": "Point", "coordinates": [-75.021712, 40.031363]}, "type": "Feature", "properties": {"route": "70", "id": 1019, "name": "State Rd &amp; Rhawn St"}}, {"geometry": {"type": "Point", "coordinates": [-75.035629, 40.030819]}, "type": "Feature", "properties": {"route": "70", "id": 1021, "name": "Cottman Av &amp; Ditman St"}}, {"geometry": {"type": "Point", "coordinates": [-75.053907, 40.044289]}, "type": "Feature", "properties": {"route": "70", "id": 1023, "name": "Cottman Av &amp; Roosevelt Blvd"}}, {"geometry": {"type": "Point", "coordinates": [-75.060131, 40.047896]}, "type": "Feature", "properties": {"route": "70", "id": 1024, "name": "Cottman Av &amp; Bustleton Av - FS"}}, {"geometry": {"type": "Point", "coordinates": [-75.067618, 40.052166]}, "type": "Feature", "properties": {"route": "70", "id": 1025, "name": "Cottman Av &amp; Loretto Av"}}, {"geometry": {"type": "Point", "coordinates": [-75.076887, 40.057512]}, "type": "Feature", "properties": {"route": "70", "id": 1027, "name": "Cottman Av &amp; Whitaker Av - FS"}}, {"geometry": {"type": "Point", "coordinates": [-75.083397, 40.061287]}, "type": "Feature", "properties": {"route": "70", "id": 1028, "name": "Cottman Av &amp; Oxford Av"}}, {"geometry": {"type": "Point", "coordinates": [-75.124558, 40.054932]}, "type": "Feature", "properties": {"route": "70", "id": 1030, "name": "Oak Lane Rd &amp; Valley Rd"}}, {"geometry": {"type": "Point", "coordinates": [-75.060179, 40.04778]}, "type": "Feature", "properties": {"route": "70", "id": 1056, "name": "Cottman Av &amp; Bustleton Av"}}, {"geometry": {"type": "Point", "coordinates": [-75.005394, 40.053917]}, "type": "Feature", "properties": {"route": "70", "id": 1227, "name": "Frankford Av &amp; Gregg St Loop"}}, {"geometry": {"type": "Point", "coordinates": [-75.04918, 40.041419]}, "type": "Feature", "properties": {"route": "70", "id": 1242, "name": "Cottman Av &amp; Hawthorne St"}}, {"geometry": {"type": "Point", "coordinates": [-75.073421, 40.055333]}, "type": "Feature", "properties": {"route": "70", "id": 6423, "name": "Cottman Av &amp; Algon Av"}}, {"geometry": {"type": "Point", "coordinates": [-75.0821, 40.060391]}, "type": "Feature", "properties": {"route": "70", "id": 6426, "name": "Cottman Av &amp; Bingham St - FS"}}, {"geometry": {"type": "Point", "coordinates": [-75.069612, 40.053162]}, "type": "Feature", "properties": {"route": "70", "id": 6446, "name": "Cottman Av &amp; Frontenac St - FS"}}, {"geometry": {"type": "Point", "coordinates": [-75.057762, 40.046514]}, "type": "Feature", "properties": {"route": "70", "id": 6447, "name": "Cottman Av &amp; Hanford St - FS"}}, {"geometry": {"type": "Point", "coordinates": [-75.088622, 40.064193]}, "type": "Feature", "properties": {"route": "70", "id": 6451, "name": "Cottman Av &amp; Hasbrook Av - FS"}}, {"geometry": {"type": "Point", "coordinates": [-75.062301, 40.049134]}, "type": "Feature", "properties": {"route": "70", "id": 6454, "name": "Cottman Av &amp; Horrocks St"}}, {"geometry": {"type": "Point", "coordinates": [-75.067879, 40.052149]}, "type": "Feature", "properties": {"route": "70", "id": 6461, "name": "Cottman Av &amp; Loretto Av"}}, {"geometry": {"type": "Point", "coordinates": [-75.078503, 40.058302]}, "type": "Feature", "properties": {"route": "70", "id": 6463, "name": "Cottman Av &amp; Montour St - FS"}}, {"geometry": {"type": "Point", "coordinates": [-75.075178, 40.056373]}, "type": "Feature", "properties": {"route": "70", "id": 6467, "name": "Cottman Av &amp; Pennway St"}}, {"geometry": {"type": "Point", "coordinates": [-75.056264, 40.045653]}, "type": "Feature", "properties": {"route": "70", "id": 6478, "name": "Cottman Av &amp; Rupert St"}}, {"geometry": {"type": "Point", "coordinates": [-75.07138, 40.054319]}, "type": "Feature", "properties": {"route": "70", "id": 6484, "name": "Cottman Av &amp; Glendale Av"}}, {"geometry": {"type": "Point", "coordinates": [-75.128523, 40.045882]}, "type": "Feature", "properties": {"route": "70", "id": 16236, "name": "5th St &amp; Godfrey Av"}}, {"geometry": {"type": "Point", "coordinates": [-75.084931, 40.062059]}, "type": "Feature", "properties": {"route": "70", "id": 17498, "name": "Cottman Av &amp; Oakley St"}}, {"geometry": {"type": "Point", "coordinates": [-75.080673, 40.059548]}, "type": "Feature", "properties": {"route": "70", "id": 17501, "name": "Cottman Av &amp; Tabor Av"}}, {"geometry": {"type": "Point", "coordinates": [-75.079801, 40.059037]}, "type": "Feature", "properties": {"route": "70", "id": 17503, "name": "Cottman Av &amp; Claridge St"}}, {"geometry": {"type": "Point", "coordinates": [-75.066275, 40.051243]}, "type": "Feature", "properties": {"route": "70", "id": 17506, "name": "Cottman Av &amp; Castor Av"}}, {"geometry": {"type": "Point", "coordinates": [-75.064329, 40.05013]}, "type": "Feature", "properties": {"route": "70", "id": 17507, "name": "Cottman Av &amp; Large St"}}, {"geometry": {"type": "Point", "coordinates": [-75.062561, 40.049117]}, "type": "Feature", "properties": {"route": "70", "id": 17508, "name": "Cottman Av &amp; Horrocks St"}}, {"geometry": {"type": "Point", "coordinates": [-75.05788, 40.046416]}, "type": "Feature", "properties": {"route": "70", "id": 17510, "name": "Cottman Av &amp; Hanford St"}}, {"geometry": {"type": "Point", "coordinates": [-75.053483, 40.043877]}, "type": "Feature", "properties": {"route": "70", "id": 17513, "name": "Cottman Av &amp; Revere St"}}, {"geometry": {"type": "Point", "coordinates": [-75.052999, 40.043778]}, "type": "Feature", "properties": {"route": "70", "id": 17679, "name": "Cottman Av &amp; Revere St"}}, {"geometry": {"type": "Point", "coordinates": [-75.055321, 40.045124]}, "type": "Feature", "properties": {"route": "70", "id": 17681, "name": "Cottman Av &amp; Roosevelt Blvd - FS"}}, {"geometry": {"type": "Point", "coordinates": [-75.064069, 40.050147]}, "type": "Feature", "properties": {"route": "70", "id": 17683, "name": "Cottman Av &amp; Large St"}}, {"geometry": {"type": "Point", "coordinates": [-75.065873, 40.05117]}, "type": "Feature", "properties": {"route": "70", "id": 17686, "name": "Cottman Av &amp; Castor Av"}}, {"geometry": {"type": "Point", "coordinates": [-75.069611, 40.053305]}, "type": "Feature", "properties": {"route": "70", "id": 17689, "name": "Cottman Av &amp; Frontenac St"}}, {"geometry": {"type": "Point", "coordinates": [-75.073137, 40.055341]}, "type": "Feature", "properties": {"route": "70", "id": 17690, "name": "Cottman Av &amp; Algon St"}}, {"geometry": {"type": "Point", "coordinates": [-75.074918, 40.056391]}, "type": "Feature", "properties": {"route": "70", "id": 17691, "name": "Cottman Av &amp; Pennway St"}}, {"geometry": {"type": "Point", "coordinates": [-75.079517, 40.059036]}, "type": "Feature", "properties": {"route": "70", "id": 17694, "name": "Cottman Av &amp; Claridge St"}}, {"geometry": {"type": "Point", "coordinates": [-75.080637, 40.059682]}, "type": "Feature", "properties": {"route": "70", "id": 17695, "name": "Cottman Av &amp; Tabor Av - FS"}}, {"geometry": {"type": "Point", "coordinates": [-75.08217, 40.06057]}, "type": "Feature", "properties": {"route": "70", "id": 17696, "name": "Cottman Av &amp; Bingham St"}}, {"geometry": {"type": "Point", "coordinates": [-75.084246, 40.061798]}, "type": "Feature", "properties": {"route": "70", "id": 17697, "name": "Cottman Av &amp; Rising Sun Av - FS"}}, {"geometry": {"type": "Point", "coordinates": [-75.0894, 40.064794]}, "type": "Feature", "properties": {"route": "70", "id": 17700, "name": "Cottman Av &amp; Ryers Av"}}, {"geometry": {"type": "Point", "coordinates": [-75.130343, 40.04594]}, "type": "Feature", "properties": {"route": "70", "id": 17709, "name": "Godfrey Av &amp; 6th St"}}, {"geometry": {"type": "Point", "coordinates": [-75.132022, 40.046078]}, "type": "Feature", "properties": {"route": "70", "id": 17710, "name": "Godfrey Av &amp; 7th St"}}, {"geometry": {"type": "Point", "coordinates": [-75.135675, 40.046265]}, "type": "Feature", "properties": {"route": "70", "id": 17711, "name": "Godfrey Av &amp; 10th St"}}, {"geometry": {"type": "Point", "coordinates": [-75.137672, 40.046636]}, "type": "Feature", "properties": {"route": "70", "id": 17713, "name": "11th St &amp; Godfrey Av - FS"}}, {"geometry": {"type": "Point", "coordinates": [-75.137925, 40.04536]}, "type": "Feature", "properties": {"route": "70", "id": 17714, "name": "11th St &amp; Spencer St"}}, {"geometry": {"type": "Point", "coordinates": [-75.138286, 40.043808]}, "type": "Feature", "properties": {"route": "70", "id": 17716, "name": "11th St &amp; Champlost Av"}}, {"geometry": {"type": "Point", "coordinates": [-75.1386, 40.042309]}, "type": "Feature", "properties": {"route": "70", "id": 17718, "name": "11th St &amp; Nedro Av"}}, {"geometry": {"type": "Point", "coordinates": [-75.136596, 40.043383]}, "type": "Feature", "properties": {"route": "70", "id": 17921, "name": "10th St &amp; Champlost St"}}, {"geometry": {"type": "Point", "coordinates": [-75.136224, 40.044946]}, "type": "Feature", "properties": {"route": "70", "id": 17923, "name": "10th St &amp; Spencer St"}}, {"geometry": {"type": "Point", "coordinates": [-75.135995, 40.046132]}, "type": "Feature", "properties": {"route": "70", "id": 17925, "name": "10th St &amp; Godfrey Av"}}, {"geometry": {"type": "Point", "coordinates": [-75.132223, 40.045963]}, "type": "Feature", "properties": {"route": "70", "id": 17926, "name": "Godfrey Av &amp; 7th St"}}, {"geometry": {"type": "Point", "coordinates": [-75.130568, 40.045843]}, "type": "Feature", "properties": {"route": "70", "id": 17928, "name": "Godfrey Av &amp; 6th St"}}, {"geometry": {"type": "Point", "coordinates": [-75.089743, 40.064866]}, "type": "Feature", "properties": {"route": "70", "id": 20620, "name": "Cottman Av &amp; Ryers Av"}}, {"geometry": {"type": "Point", "coordinates": [-75.076923, 40.057369]}, "type": "Feature", "properties": {"route": "70", "id": 21268, "name": "Cottman Av &amp; Whitaker Av"}}, {"geometry": {"type": "Point", "coordinates": [-75.004834, 40.054638]}, "type": "Feature", "properties": {"route": "70", "id": 21858, "name": "Frankford Av &amp; Linden Av"}}, {"geometry": {"type": "Point", "coordinates": [-75.047565, 40.040513]}, "type": "Feature", "properties": {"route": "70", "id": 22352, "name": "Cottman Av &amp; Sackett St"}}, {"geometry": {"type": "Point", "coordinates": [-75.045985, 40.039767]}, "type": "Feature", "properties": {"route": "70", "id": 22453, "name": "Cottman Av &amp; Rowland Av - FS"}}, {"geometry": {"type": "Point", "coordinates": [-75.047246, 40.040485]}, "type": "Feature", "properties": {"route": "70", "id": 22454, "name": "Cottman Av &amp; Sackett St"}}, {"geometry": {"type": "Point", "coordinates": [-75.034543, 40.024255]}, "type": "Feature", "properties": {"route": "70", "id": 22528, "name": "State Rd &amp; Friendship St"}}, {"geometry": {"type": "Point", "coordinates": [-75.033073, 40.024938]}, "type": "Feature", "properties": {"route": "70", "id": 22529, "name": "State Rd &amp; Wellington St"}}, {"geometry": {"type": "Point", "coordinates": [-75.031698, 40.025585]}, "type": "Feature", "properties": {"route": "70", "id": 22530, "name": "State Rd &amp; Cottman Av"}}, {"geometry": {"type": "Point", "coordinates": [-75.032988, 40.027463]}, "type": "Feature", "properties": {"route": "70", "id": 22531, "name": "Cottman Av &amp; Keystone St"}}, {"geometry": {"type": "Point", "coordinates": [-75.033845, 40.028555]}, "type": "Feature", "properties": {"route": "70", "id": 22532, "name": "Cottman Av &amp; Edmund St"}}, {"geometry": {"type": "Point", "coordinates": [-75.019353, 40.032516]}, "type": "Feature", "properties": {"route": "70", "id": 22548, "name": "State Rd &amp; Rhawn Corrections - 1 MB"}}, {"geometry": {"type": "Point", "coordinates": [-75.017052, 40.033803]}, "type": "Feature", "properties": {"route": "70", "id": 22551, "name": "State Rd &amp; Rhawn Corrections - 2 MB"}}, {"geometry": {"type": "Point", "coordinates": [-75.013932, 40.035542]}, "type": "Feature", "properties": {"route": "70", "id": 22554, "name": "State Rd &amp; Ashburner St - MBNS"}}, {"geometry": {"type": "Point", "coordinates": [-75.013879, 40.035723]}, "type": "Feature", "properties": {"route": "70", "id": 22698, "name": "State Rd &amp; Ashburner St - MBFS"}}, {"geometry": {"type": "Point", "coordinates": [-75.015758, 40.034691]}, "type": "Feature", "properties": {"route": "70", "id": 22699, "name": "State Rd &amp; Rhawn Corrections - MBNS"}}, {"geometry": {"type": "Point", "coordinates": [-75.019589, 40.032552]}, "type": "Feature", "properties": {"route": "70", "id": 22700, "name": "State Rd &amp; Rhawn Corrections - MBNS"}}, {"geometry": {"type": "Point", "coordinates": [-75.035883, 40.029811]}, "type": "Feature", "properties": {"route": "70", "id": 22706, "name": "Torresdale Av &amp; Cottman Av - FS"}}, {"geometry": {"type": "Point", "coordinates": [-75.037709, 40.028879]}, "type": "Feature", "properties": {"route": "70", "id": 22707, "name": "Torresdale Av &amp; Friendship St"}}, {"geometry": {"type": "Point", "coordinates": [-75.038825, 40.027973]}, "type": "Feature", "properties": {"route": "70", "id": 22708, "name": "Princeton Av &amp; Torresdale Av - FS"}}, {"geometry": {"type": "Point", "coordinates": [-75.037733, 40.02672]}, "type": "Feature", "properties": {"route": "70", "id": 22709, "name": "Princeton Av &amp; Edmund St"}}, {"geometry": {"type": "Point", "coordinates": [-75.037286, 40.02621]}, "type": "Feature", "properties": {"route": "70", "id": 22710, "name": "Princeton Av &amp; Tulip St"}}, {"geometry": {"type": "Point", "coordinates": [-75.128032, 40.047372]}, "type": "Feature", "properties": {"route": "70", "id": 22723, "name": "5th St &amp; Chelten Av - FS"}}, {"geometry": {"type": "Point", "coordinates": [-75.127694, 40.048915]}, "type": "Feature", "properties": {"route": "70", "id": 22724, "name": "5th St &amp; 64th Av"}}, {"geometry": {"type": "Point", "coordinates": [-75.127417, 40.050119]}, "type": "Feature", "properties": {"route": "70", "id": 22725, "name": "5th St &amp; 65th Av"}}, {"geometry": {"type": "Point", "coordinates": [-75.127079, 40.051645]}, "type": "Feature", "properties": {"route": "70", "id": 22726, "name": "5th St &amp; 66th Av"}}, {"geometry": {"type": "Point", "coordinates": [-75.126597, 40.053857]}, "type": "Feature", "properties": {"route": "70", "id": 22727, "name": "5th St &amp; Oak Ln"}}, {"geometry": {"type": "Point", "coordinates": [-75.122544, 40.055748]}, "type": "Feature", "properties": {"route": "70", "id": 22728, "name": "Oak Ln &amp; Asbury Av - FS"}}, {"geometry": {"type": "Point", "coordinates": [-75.119333, 40.057311]}, "type": "Feature", "properties": {"route": "70", "id": 22729, "name": "Oak Ln &amp; Barclay Rd"}}, {"geometry": {"type": "Point", "coordinates": [-75.117413, 40.058235]}, "type": "Feature", "properties": {"route": "70", "id": 22730, "name": "Oak Ln &amp; Parkview Rd"}}, {"geometry": {"type": "Point", "coordinates": [-75.115552, 40.059149]}, "type": "Feature", "properties": {"route": "70", "id": 22731, "name": "Oak Ln &amp; Bell Rd"}}, {"geometry": {"type": "Point", "coordinates": [-75.11234, 40.060837]}, "type": "Feature", "properties": {"route": "70", "id": 22732, "name": "Oak Ln &amp; Brookfield Rd"}}, {"geometry": {"type": "Point", "coordinates": [-75.110833, 40.061762]}, "type": "Feature", "properties": {"route": "70", "id": 22733, "name": "Oak Ln &amp; Ashbourne Rd"}}, {"geometry": {"type": "Point", "coordinates": [-75.106915, 40.059868]}, "type": "Feature", "properties": {"route": "70", "id": 22735, "name": "Ashbourne Rd &amp; Front St"}}, {"geometry": {"type": "Point", "coordinates": [-75.105741, 40.060686]}, "type": "Feature", "properties": {"route": "70", "id": 22736, "name": "Ashbourne Rd &amp; Boyer Rd"}}, {"geometry": {"type": "Point", "coordinates": [-75.105123, 40.061319]}, "type": "Feature", "properties": {"route": "70", "id": 22737, "name": "Ashbourne Rd &amp; Croyden Rd"}}, {"geometry": {"type": "Point", "coordinates": [-75.104304, 40.061986]}, "type": "Feature", "properties": {"route": "70", "id": 22738, "name": "Ashbourne Rd &amp; Jenkintown Rd"}}, {"geometry": {"type": "Point", "coordinates": [-75.103038, 40.062081]}, "type": "Feature", "properties": {"route": "70", "id": 22739, "name": "Ashbourne Rd &amp; Rolling Green Rd"}}, {"geometry": {"type": "Point", "coordinates": [-75.101146, 40.061951]}, "type": "Feature", "properties": {"route": "70", "id": 22740, "name": "Ashbourne Rd &amp; Waltham Rd"}}, {"geometry": {"type": "Point", "coordinates": [-75.100035, 40.061903]}, "type": "Feature", "properties": {"route": "70", "id": 22741, "name": "Ashbourne Rd &amp; Oak Hill Dr"}}, {"geometry": {"type": "Point", "coordinates": [-75.09869, 40.061123]}, "type": "Feature", "properties": {"route": "70", "id": 22742, "name": "Ashbourne Rd &amp; Foster Rd"}}, {"geometry": {"type": "Point", "coordinates": [-75.097217, 40.060048]}, "type": "Feature", "properties": {"route": "70", "id": 22743, "name": "Ashbourne Rd &amp; Rowland Av"}}, {"geometry": {"type": "Point", "coordinates": [-75.095787, 40.059804]}, "type": "Feature", "properties": {"route": "70", "id": 22744, "name": "Central Av &amp; Ashbourne Rd - FS"}}, {"geometry": {"type": "Point", "coordinates": [-75.094385, 40.061174]}, "type": "Feature", "properties": {"route": "70", "id": 22745, "name": "Central Av &amp; Laurel Av"}}, {"geometry": {"type": "Point", "coordinates": [-75.09347, 40.0621]}, "type": "Feature", "properties": {"route": "70", "id": 22746, "name": "Central Av &amp; Myrtle Av"}}, {"geometry": {"type": "Point", "coordinates": [-75.09265, 40.062892]}, "type": "Feature", "properties": {"route": "70", "id": 22747, "name": "Central Av &amp; Franklin Av"}}, {"geometry": {"type": "Point", "coordinates": [-75.091889, 40.06364]}, "type": "Feature", "properties": {"route": "70", "id": 22748, "name": "Central Av &amp; Beecher Av"}}, {"geometry": {"type": "Point", "coordinates": [-75.091117, 40.064406]}, "type": "Feature", "properties": {"route": "70", "id": 22749, "name": "Central Av &amp; Jefferson Av"}}, {"geometry": {"type": "Point", "coordinates": [-75.090487, 40.065082]}, "type": "Feature", "properties": {"route": "70", "id": 22750, "name": "Central Av &amp; Cottman Av"}}, {"geometry": {"type": "Point", "coordinates": [-75.056525, 40.045636]}, "type": "Feature", "properties": {"route": "70", "id": 22751, "name": "Cottman Av &amp; Rupert St"}}, {"geometry": {"type": "Point", "coordinates": [-75.052127, 40.043124]}, "type": "Feature", "properties": {"route": "70", "id": 22752, "name": "Cottman Av &amp; Brous Av - FS"}}, {"geometry": {"type": "Point", "coordinates": [-75.050772, 40.042352]}, "type": "Feature", "properties": {"route": "70", "id": 22753, "name": "Cottman Av &amp; Battersby St"}}, {"geometry": {"type": "Point", "coordinates": [-75.045962, 40.039597]}, "type": "Feature", "properties": {"route": "70", "id": 22754, "name": "Cottman Av &amp; Rowland Av"}}, {"geometry": {"type": "Point", "coordinates": [-75.044359, 40.038691]}, "type": "Feature", "properties": {"route": "70", "id": 22755, "name": "Cottman Av &amp; Crispin St"}}, {"geometry": {"type": "Point", "coordinates": [-75.041153, 40.036878]}, "type": "Feature", "properties": {"route": "70", "id": 22756, "name": "Cottman Av &amp; Frankford Av"}}, {"geometry": {"type": "Point", "coordinates": [-75.039599, 40.035426]}, "type": "Feature", "properties": {"route": "70", "id": 22757, "name": "Cottman Av &amp; Erdrick St"}}, {"geometry": {"type": "Point", "coordinates": [-75.038755, 40.034416]}, "type": "Feature", "properties": {"route": "70", "id": 22758, "name": "Cottman Av &amp; Walker St"}}, {"geometry": {"type": "Point", "coordinates": [-75.037897, 40.033361]}, "type": "Feature", "properties": {"route": "70", "id": 22774, "name": "Cottman Av &amp; Cottage St"}}, {"geometry": {"type": "Point", "coordinates": [-75.037027, 40.032277]}, "type": "Feature", "properties": {"route": "70", "id": 22775, "name": "Cottman Av &amp; Jackson St"}}, {"geometry": {"type": "Point", "coordinates": [-75.014182, 40.039425]}, "type": "Feature", "properties": {"route": "70", "id": 22776, "name": "Ashburner St &amp; Hegerman St"}}, {"geometry": {"type": "Point", "coordinates": [-75.015288, 40.040312]}, "type": "Feature", "properties": {"route": "70", "id": 22777, "name": "Ashburner St &amp; Torresdale Av"}}, {"geometry": {"type": "Point", "coordinates": [-75.011432, 40.042629]}, "type": "Feature", "properties": {"route": "70", "id": 22778, "name": "Torresdale Av &amp; Strahle St"}}, {"geometry": {"type": "Point", "coordinates": [-75.009628, 40.043819]}, "type": "Feature", "properties": {"route": "70", "id": 22779, "name": "Torresdale Av &amp; Pennypack St"}}, {"geometry": {"type": "Point", "coordinates": [-75.007871, 40.044991]}, "type": "Feature", "properties": {"route": "70", "id": 22780, "name": "Torresdale Av &amp; Megargee St"}}, {"geometry": {"type": "Point", "coordinates": [-75.004796, 40.047043]}, "type": "Feature", "properties": {"route": "70", "id": 22781, "name": "Torresdale Av &amp; Tolbut St"}}, {"geometry": {"type": "Point", "coordinates": [-75, 40.050248]}, "type": "Feature", "properties": {"route": "70", "id": 22782, "name": "Torresdale Av &amp; Linden Av"}}, {"geometry": {"type": "Point", "coordinates": [-75.000797, 40.051313]}, "type": "Feature", "properties": {"route": "70", "id": 22783, "name": "Linden Av &amp; Ditman St - MBNS"}}, {"geometry": {"type": "Point", "coordinates": [-75.002232, 40.052585]}, "type": "Feature", "properties": {"route": "70", "id": 22784, "name": "Linden Av &amp; Jackson St"}}, {"geometry": {"type": "Point", "coordinates": [-75.003456, 40.053661]}, "type": "Feature", "properties": {"route": "70", "id": 22785, "name": "Linden Av &amp; Cottage St"}}, {"geometry": {"type": "Point", "coordinates": [-75.001257, 40.051538]}, "type": "Feature", "properties": {"route": "70", "id": 22786, "name": "Linden Av &amp; Ditman St"}}, {"geometry": {"type": "Point", "coordinates": [-75.003492, 40.053518]}, "type": "Feature", "properties": {"route": "70", "id": 22787, "name": "Linden Av &amp; Cottage St - FS"}}, {"geometry": {"type": "Point", "coordinates": [-75.002469, 40.052622]}, "type": "Feature", "properties": {"route": "70", "id": 22788, "name": "Linden Av &amp; Jackson St"}}, {"geometry": {"type": "Point", "coordinates": [-75.000022, 40.050436]}, "type": "Feature", "properties": {"route": "70", "id": 22789, "name": "Linden Av &amp; Torresdale Av"}}, {"geometry": {"type": "Point", "coordinates": [-75.004997, 40.047079]}, "type": "Feature", "properties": {"route": "70", "id": 22790, "name": "Torresdale Av &amp; Tolbut St - FS"}}, {"geometry": {"type": "Point", "coordinates": [-75.009603, 40.044015]}, "type": "Feature", "properties": {"route": "70", "id": 22791, "name": "Torresdale Av &amp; Pennypack St"}}, {"geometry": {"type": "Point", "coordinates": [-75.011395, 40.042816]}, "type": "Feature", "properties": {"route": "70", "id": 22792, "name": "Torresdale Av &amp; Strahle St"}}, {"geometry": {"type": "Point", "coordinates": [-75.013259, 40.041582]}, "type": "Feature", "properties": {"route": "70", "id": 22793, "name": "Torresdale Av &amp; Blakiston St"}}, {"geometry": {"type": "Point", "coordinates": [-75.015324, 40.040178]}, "type": "Feature", "properties": {"route": "70", "id": 22794, "name": "Ashburner St &amp; Torresdale Av - FS"}}, {"geometry": {"type": "Point", "coordinates": [-75.012128, 40.036705]}, "type": "Feature", "properties": {"route": "70", "id": 22795, "name": "State Rd &amp; Ashburner St - FS"}}, {"geometry": {"type": "Point", "coordinates": [-75.02878, 40.027432]}, "type": "Feature", "properties": {"route": "70", "id": 22796, "name": "State Rd &amp; Bleigh Av"}}, {"geometry": {"type": "Point", "coordinates": [-75.031508, 40.025816]}, "type": "Feature", "properties": {"route": "70", "id": 22797, "name": "State Rd &amp; Cottman Av"}}, {"geometry": {"type": "Point", "coordinates": [-75.036792, 40.032241]}, "type": "Feature", "properties": {"route": "70", "id": 22799, "name": "Cottman Av &amp; Jackson St"}}, {"geometry": {"type": "Point", "coordinates": [-75.037649, 40.033297]}, "type": "Feature", "properties": {"route": "70", "id": 22800, "name": "Cottman Av &amp; Cottage St"}}, {"geometry": {"type": "Point", "coordinates": [-75.038518, 40.034353]}, "type": "Feature", "properties": {"route": "70", "id": 22801, "name": "Cottman Av &amp; Walker St"}}, {"geometry": {"type": "Point", "coordinates": [-75.039352, 40.035391]}, "type": "Feature", "properties": {"route": "70", "id": 22802, "name": "Cottman Av &amp; Erdrick St"}}, {"geometry": {"type": "Point", "coordinates": [-75.044075, 40.038663]}, "type": "Feature", "properties": {"route": "70", "id": 22803, "name": "Cottman Av &amp; Crispin St"}}, {"geometry": {"type": "Point", "coordinates": [-75.048908, 40.041445]}, "type": "Feature", "properties": {"route": "70", "id": 22804, "name": "Cottman Av &amp; Hawthorne St"}}, {"geometry": {"type": "Point", "coordinates": [-75.050511, 40.042369]}, "type": "Feature", "properties": {"route": "70", "id": 22805, "name": "Cottman Av &amp; Battersby St"}}, {"geometry": {"type": "Point", "coordinates": [-75.077889, 40.058068]}, "type": "Feature", "properties": {"route": "70", "id": 22807, "name": "Cottman Av &amp; Dungan Rd"}}, {"geometry": {"type": "Point", "coordinates": [-75.086475, 40.063099]}, "type": "Feature", "properties": {"route": "70", "id": 22808, "name": "Cottman Av &amp; Rockwell Av"}}, {"geometry": {"type": "Point", "coordinates": [-75.087808, 40.063852]}, "type": "Feature", "properties": {"route": "70", "id": 22809, "name": "Cottman Av &amp; Shelbourne St"}}, {"geometry": {"type": "Point", "coordinates": [-75.088657, 40.064354]}, "type": "Feature", "properties": {"route": "70", "id": 22810, "name": "Cottman Av &amp; Hasbrook Av"}}, {"geometry": {"type": "Point", "coordinates": [-75.09114, 40.064602]}, "type": "Feature", "properties": {"route": "70", "id": 22811, "name": "Central Av &amp; Jefferson Av"}}, {"geometry": {"type": "Point", "coordinates": [-75.091912, 40.063836]}, "type": "Feature", "properties": {"route": "70", "id": 22812, "name": "Central Av &amp; Beecher Av"}}, {"geometry": {"type": "Point", "coordinates": [-75.092673, 40.063089]}, "type": "Feature", "properties": {"route": "70", "id": 22813, "name": "Central Av &amp; Franklin Av"}}, {"geometry": {"type": "Point", "coordinates": [-75.093433, 40.062314]}, "type": "Feature", "properties": {"route": "70", "id": 22814, "name": "Central Av &amp; Myrtle Av"}}, {"geometry": {"type": "Point", "coordinates": [-75.094407, 40.061371]}, "type": "Feature", "properties": {"route": "70", "id": 22815, "name": "Central Av &amp; Laurel Av"}}, {"geometry": {"type": "Point", "coordinates": [-75.095572, 40.060214]}, "type": "Feature", "properties": {"route": "70", "id": 22816, "name": "Central Av &amp; Tookany Creek Pkwy"}}, {"geometry": {"type": "Point", "coordinates": [-75.096956, 40.060066]}, "type": "Feature", "properties": {"route": "70", "id": 22817, "name": "Ashbourne Rd &amp; Rowland Av"}}, {"geometry": {"type": "Point", "coordinates": [-75.098446, 40.061109]}, "type": "Feature", "properties": {"route": "70", "id": 22818, "name": "Ashbourne Rd &amp; Foster Rd"}}, {"geometry": {"type": "Point", "coordinates": [-75.099467, 40.061857]}, "type": "Feature", "properties": {"route": "70", "id": 22819, "name": "Ashbourne Rd &amp; Oak Hill Dr"}}, {"geometry": {"type": "Point", "coordinates": [-75.100968, 40.062066]}, "type": "Feature", "properties": {"route": "70", "id": 22820, "name": "Ashbourne Rd &amp; Waltham Rd"}}, {"geometry": {"type": "Point", "coordinates": [-75.102884, 40.062187]}, "type": "Feature", "properties": {"route": "70", "id": 22821, "name": "Ashbourne Rd &amp; Rolling Green Rd"}}, {"geometry": {"type": "Point", "coordinates": [-75.105227, 40.061388]}, "type": "Feature", "properties": {"route": "70", "id": 22822, "name": "Ashbourne Rd &amp; Croyden Rd - FS"}}, {"geometry": {"type": "Point", "coordinates": [-75.105908, 40.060706]}, "type": "Feature", "properties": {"route": "70", "id": 22823, "name": "Ashbourne Rd &amp; Boyer Rd - FS"}}, {"geometry": {"type": "Point", "coordinates": [-75.106679, 40.05993]}, "type": "Feature", "properties": {"route": "70", "id": 22824, "name": "Ashbourne Rd &amp; Arbor Rd"}}, {"geometry": {"type": "Point", "coordinates": [-75.113145, 40.060527]}, "type": "Feature", "properties": {"route": "70", "id": 22825, "name": "Oak Ln Rd &amp; Coventry Av"}}, {"geometry": {"type": "Point", "coordinates": [-75.117306, 40.05844]}, "type": "Feature", "properties": {"route": "70", "id": 22827, "name": "Oak Ln Rd &amp; Parkview Rd"}}, {"geometry": {"type": "Point", "coordinates": [-75.119225, 40.057516]}, "type": "Feature", "properties": {"route": "70", "id": 22828, "name": "Oak Ln Rd &amp; Barclay Rd"}}, {"geometry": {"type": "Point", "coordinates": [-75.121335, 40.056468]}, "type": "Feature", "properties": {"route": "70", "id": 22829, "name": "Oak Ln Rd &amp; New 2nd St"}}, {"geometry": {"type": "Point", "coordinates": [-75.122532, 40.055954]}, "type": "Feature", "properties": {"route": "70", "id": 22830, "name": "Oak Ln Rd &amp; Asbury Av"}}, {"geometry": {"type": "Point", "coordinates": [-75.126442, 40.054132]}, "type": "Feature", "properties": {"route": "70", "id": 22831, "name": "Oak Ln Rd &amp; 5th St"}}, {"geometry": {"type": "Point", "coordinates": [-75.126859, 40.053385]}, "type": "Feature", "properties": {"route": "70", "id": 22832, "name": "5th St &amp; 67th Av"}}, {"geometry": {"type": "Point", "coordinates": [-75.127209, 40.051815]}, "type": "Feature", "properties": {"route": "70", "id": 22833, "name": "5th St &amp; 66th Av"}}, {"geometry": {"type": "Point", "coordinates": [-75.127546, 40.050289]}, "type": "Feature", "properties": {"route": "70", "id": 22834, "name": "5th St &amp; 65th Av"}}, {"geometry": {"type": "Point", "coordinates": [-75.127835, 40.049005]}, "type": "Feature", "properties": {"route": "70", "id": 22835, "name": "5th St &amp; 64th Av"}}, {"geometry": {"type": "Point", "coordinates": [-75.128221, 40.047265]}, "type": "Feature", "properties": {"route": "70", "id": 22836, "name": "5th St &amp; Chelten Av"}}, {"geometry": {"type": "Point", "coordinates": [-75.08762, 40.063602]}, "type": "Feature", "properties": {"route": "70", "id": 23755, "name": "Cottman Av &amp; Hasbrook Av"}}, {"geometry": {"type": "Point", "coordinates": [-75.134588, 40.046093]}, "type": "Feature", "properties": {"route": "70", "id": 24123, "name": "Godfrey Av &amp; Franklin St - MBNS"}}, {"geometry": {"type": "Point", "coordinates": [-75.0867, 40.06309]}, "type": "Feature", "properties": {"route": "70", "id": 25540, "name": "Cottman Av &amp; Rockwell Av"}}, {"geometry": {"type": "Point", "coordinates": [-75.121608, 40.056183]}, "type": "Feature", "properties": {"route": "70", "id": 26381, "name": "Oak Ln &amp; New 2nd St"}}, {"geometry": {"type": "Point", "coordinates": [-75.113146, 40.060375]}, "type": "Feature", "properties": {"route": "70", "id": 26382, "name": "Oak Ln &amp; Coventry Rd"}}, {"geometry": {"type": "Point", "coordinates": [-75.042686, 40.037704]}, "type": "Feature", "properties": {"route": "70", "id": 26383, "name": "Cottman Av &amp; Leon St"}}, {"geometry": {"type": "Point", "coordinates": [-75.025911, 40.028878]}, "type": "Feature", "properties": {"route": "70", "id": 26386, "name": "State Rd &amp; Bleigh Av - MBFS"}}, {"geometry": {"type": "Point", "coordinates": [-75.013343, 40.041359]}, "type": "Feature", "properties": {"route": "70", "id": 26390, "name": "Torresdale Av &amp; Blakiston St"}}, {"geometry": {"type": "Point", "coordinates": [-75.007822, 40.045178]}, "type": "Feature", "properties": {"route": "70", "id": 26501, "name": "Torresdale Av &amp; Megargee St"}}, {"geometry": {"type": "Point", "coordinates": [-75.024131, 40.030023]}, "type": "Feature", "properties": {"route": "70", "id": 26502, "name": "State Rd &amp; Rhawn St - MBFS"}}, {"geometry": {"type": "Point", "coordinates": [-75.026633, 40.028639]}, "type": "Feature", "properties": {"route": "70", "id": 26503, "name": "State Rd &amp; Bleigh Av - MBNS"}}, {"geometry": {"type": "Point", "coordinates": [-75.042402, 40.037739]}, "type": "Feature", "properties": {"route": "70", "id": 26504, "name": "Cottman Av &amp; Leon St"}}, {"geometry": {"type": "Point", "coordinates": [-75.10422, 40.062146]}, "type": "Feature", "properties": {"route": "70", "id": 26505, "name": "Ashbourne Rd &amp; Jenkintown Rd"}}, {"geometry": {"type": "Point", "coordinates": [-75.111106, 40.061744]}, "type": "Feature", "properties": {"route": "70", "id": 26506, "name": "Oak Ln Rd &amp; Ashbourne Rd - FS"}}, {"geometry": {"type": "Point", "coordinates": [-75.112125, 40.061122]}, "type": "Feature", "properties": {"route": "70", "id": 26507, "name": "Oak Ln Rd &amp; Brookfield Rd"}}, {"geometry": {"type": "Point", "coordinates": [-75.114959, 40.059576]}, "type": "Feature", "properties": {"route": "70", "id": 26508, "name": "Oak Ln Rd &amp; Barclay Cir"}}, {"geometry": {"type": "Point", "coordinates": [-75.015557, 40.034637]}, "type": "Feature", "properties": {"route": "70", "id": 30985, "name": "State Rd &amp; Ashburner St - MBNS"}}, {"geometry": {"type": "Point", "coordinates": [-75.052126, 40.043284]}, "type": "Feature", "properties": {"route": "70", "id": 30986, "name": "Cottman Av &amp; Brous Av"}}, {"geometry": {"type": "Point", "coordinates": [-75.041235, 40.037048]}, "type": "Feature", "properties": {"route": "70", "id": 31379, "name": "Cottman Av &amp; Frankford Av - FS"}}, {"geometry": {"type": "Point", "coordinates": [-75.128261, 40.046248]}, "type": "Feature", "properties": {"route": "70", "id": 31433, "name": "5th St &amp; Medary Av"}}, {"geometry": {"type": "Point", "coordinates": [-75.12673, 40.053215]}, "type": "Feature", "properties": {"route": "70", "id": 32102, "name": "5th St &amp; 67th St"}}]}