{"type": "FeatureCollection", "features": [{"geometry": {"type": "Point", "coordinates": [-75.389599, 40.142221]}, "type": "Feature", "properties": {"route": "91", "id": 1562, "name": "Main St &amp; Trooper Rd"}}, {"geometry": {"type": "Point", "coordinates": [-75.434871, 40.232656]}, "type": "Feature", "properties": {"route": "91", "id": 1565, "name": "Graterford State Prison"}}, {"geometry": {"type": "Point", "coordinates": [-75.378855, 40.132979]}, "type": "Feature", "properties": {"route": "91", "id": 1570, "name": "Main St &amp; Egypt Rd - MBNS"}}, {"geometry": {"type": "Point", "coordinates": [-75.344475, 40.11336]}, "type": "Feature", "properties": {"route": "91", "id": 1649, "name": "Norristown Transportation Center"}}, {"geometry": {"type": "Point", "coordinates": [-75.347171, 40.115638]}, "type": "Feature", "properties": {"route": "91", "id": 18304, "name": "Main St &amp; Barbadoes St"}}, {"geometry": {"type": "Point", "coordinates": [-75.348685, 40.11646]}, "type": "Feature", "properties": {"route": "91", "id": 18307, "name": "Main St &amp; Markley St"}}, {"geometry": {"type": "Point", "coordinates": [-75.362715, 40.123564]}, "type": "Feature", "properties": {"route": "91", "id": 21217, "name": "Main St &amp; Forrest Av"}}, {"geometry": {"type": "Point", "coordinates": [-75.350293, 40.117416]}, "type": "Feature", "properties": {"route": "91", "id": 26612, "name": "Main St &amp; Astor St"}}, {"geometry": {"type": "Point", "coordinates": [-75.351878, 40.118372]}, "type": "Feature", "properties": {"route": "91", "id": 26613, "name": "Main St &amp; George St"}}, {"geometry": {"type": "Point", "coordinates": [-75.353854, 40.119061]}, "type": "Feature", "properties": {"route": "91", "id": 26614, "name": "Main St &amp; Haws Av"}}, {"geometry": {"type": "Point", "coordinates": [-75.355475, 40.119642]}, "type": "Feature", "properties": {"route": "91", "id": 26615, "name": "Main St &amp; Stanbridge St"}}, {"geometry": {"type": "Point", "coordinates": [-75.356812, 40.12033]}, "type": "Feature", "properties": {"route": "91", "id": 26616, "name": "Main St &amp; Noble St"}}, {"geometry": {"type": "Point", "coordinates": [-75.359249, 40.121724]}, "type": "Feature", "properties": {"route": "91", "id": 26618, "name": "Main St &amp; Hamilton St"}}, {"geometry": {"type": "Point", "coordinates": [-75.360479, 40.122438]}, "type": "Feature", "properties": {"route": "91", "id": 26619, "name": "Main St &amp; Selma St"}}, {"geometry": {"type": "Point", "coordinates": [-75.38212, 40.136033]}, "type": "Feature", "properties": {"route": "91", "id": 26625, "name": "Main St &amp; School Ln - FS"}}, {"geometry": {"type": "Point", "coordinates": [-75.392049, 40.144096]}, "type": "Feature", "properties": {"route": "91", "id": 26628, "name": "Ridge Pk &amp; Clearfield Av - FS"}}, {"geometry": {"type": "Point", "coordinates": [-75.389694, 40.142043]}, "type": "Feature", "properties": {"route": "91", "id": 26666, "name": "Main St &amp; Trooper Rd - FS"}}, {"geometry": {"type": "Point", "coordinates": [-75.383907, 40.137382]}, "type": "Feature", "properties": {"route": "91", "id": 26668, "name": "Main St &amp; Galbraith Av - FS"}}, {"geometry": {"type": "Point", "coordinates": [-75.382239, 40.135908]}, "type": "Feature", "properties": {"route": "91", "id": 26669, "name": "Main St &amp; School Ln"}}, {"geometry": {"type": "Point", "coordinates": [-75.371187, 40.128486]}, "type": "Feature", "properties": {"route": "91", "id": 26672, "name": "Main St &amp; Rittenhouse Blvd"}}, {"geometry": {"type": "Point", "coordinates": [-75.361189, 40.122706]}, "type": "Feature", "properties": {"route": "91", "id": 26675, "name": "Main St &amp; Hartranft St - FS"}}, {"geometry": {"type": "Point", "coordinates": [-75.354209, 40.119025]}, "type": "Feature", "properties": {"route": "91", "id": 26680, "name": "Main St &amp; Haws Av"}}, {"geometry": {"type": "Point", "coordinates": [-75.362242, 40.123492]}, "type": "Feature", "properties": {"route": "91", "id": 26685, "name": "Main St &amp; Forrest Av"}}, {"geometry": {"type": "Point", "coordinates": [-75.385859, 40.139167]}, "type": "Feature", "properties": {"route": "91", "id": 29477, "name": "Main St &amp; Rose Av"}}, {"geometry": {"type": "Point", "coordinates": [-75.385706, 40.139248]}, "type": "Feature", "properties": {"route": "91", "id": 29479, "name": "Main St &amp; Rose Av - FS"}}, {"geometry": {"type": "Point", "coordinates": [-75.391919, 40.143757]}, "type": "Feature", "properties": {"route": "91", "id": 30432, "name": "Main St &amp; Clearfield Av - FS"}}, {"geometry": {"type": "Point", "coordinates": [-75.377825, 40.132256]}, "type": "Feature", "properties": {"route": "91", "id": 30433, "name": "Main St &amp; Egypt Rd - MBFS"}}, {"geometry": {"type": "Point", "coordinates": [-75.355842, 40.119633]}, "type": "Feature", "properties": {"route": "91", "id": 30434, "name": "Main St &amp; Stanbridge St"}}, {"geometry": {"type": "Point", "coordinates": [-75.395115, 40.146561]}, "type": "Feature", "properties": {"route": "91", "id": 30442, "name": "Main St &amp; Park Av - FS"}}, {"geometry": {"type": "Point", "coordinates": [-75.375246, 40.130755]}, "type": "Feature", "properties": {"route": "91", "id": 31408, "name": "Main St &amp; Schuylkill Av"}}, {"geometry": {"type": "Point", "coordinates": [-75.359569, 40.121724]}, "type": "Feature", "properties": {"route": "91", "id": 31414, "name": "Main St &amp; Hamilton St"}}, {"geometry": {"type": "Point", "coordinates": [-75.364928, 40.124859]}, "type": "Feature", "properties": {"route": "91", "id": 31415, "name": "Main St &amp; Montgomery Av"}}, {"geometry": {"type": "Point", "coordinates": [-75.371991, 40.129094]}, "type": "Feature", "properties": {"route": "91", "id": 31423, "name": "Main St &amp; Whitehall Rd"}}, {"geometry": {"type": "Point", "coordinates": [-75.374879, 40.130746]}, "type": "Feature", "properties": {"route": "91", "id": 31424, "name": "Main St &amp; Schuylkill Av"}}, {"geometry": {"type": "Point", "coordinates": [-75.378168, 40.132604]}, "type": "Feature", "properties": {"route": "91", "id": 31425, "name": "Main St &amp; Egypt Rd"}}, {"geometry": {"type": "Point", "coordinates": [-75.347573, 40.115692]}, "type": "Feature", "properties": {"route": "91", "id": 31762, "name": "Main St &amp; Barbadoes St"}}, {"geometry": {"type": "Point", "coordinates": [-75.364821, 40.124949]}, "type": "Feature", "properties": {"route": "91", "id": 31942, "name": "Main St &amp; Montgomery Av - FS"}}, {"geometry": {"type": "Point", "coordinates": [-75.383883, 40.137596]}, "type": "Feature", "properties": {"route": "91", "id": 31943, "name": "Main St &amp; Galbraith Av"}}, {"geometry": {"type": "Point", "coordinates": [-75.394273, 40.147605]}, "type": "Feature", "properties": {"route": "91", "id": 32075, "name": "Park Av &amp; Main St - MBFS"}}, {"geometry": {"type": "Point", "coordinates": [-75.379853, 40.161595]}, "type": "Feature", "properties": {"route": "91", "id": 32076, "name": "Park Av &amp; Germantown Pk"}}, {"geometry": {"type": "Point", "coordinates": [-75.37977, 40.161881]}, "type": "Feature", "properties": {"route": "91", "id": 32077, "name": "Valley Forge Rd &amp; Germantown Pk"}}, {"geometry": {"type": "Point", "coordinates": [-75.397495, 40.222976]}, "type": "Feature", "properties": {"route": "91", "id": 32078, "name": "Skippack Pk &amp; Collegeville Rd - FS"}}, {"geometry": {"type": "Point", "coordinates": [-75.39759, 40.22286]}, "type": "Feature", "properties": {"route": "91", "id": 32079, "name": "Skippack Pk &amp; Collegeville Rd"}}, {"geometry": {"type": "Point", "coordinates": [-75.400281, 40.223789]}, "type": "Feature", "properties": {"route": "91", "id": 32080, "name": "Skippack Pk &amp; Store Rd - MBFS"}}, {"geometry": {"type": "Point", "coordinates": [-75.400364, 40.22369]}, "type": "Feature", "properties": {"route": "91", "id": 32081, "name": "Skippack Pk &amp; Mensch Rd - MBNS"}}, {"geometry": {"type": "Point", "coordinates": [-75.404618, 40.227646]}, "type": "Feature", "properties": {"route": "91", "id": 32082, "name": "Skippack Pk &amp; Bridge Rd"}}, {"geometry": {"type": "Point", "coordinates": [-75.405282, 40.227967]}, "type": "Feature", "properties": {"route": "91", "id": 32083, "name": "Skippack Pk &amp; Bridge Rd - FS"}}]}