{"type": "FeatureCollection", "features": [{"geometry": {"type": "Point", "coordinates": [-75.214253, 40.09206]}, "type": "Feature", "properties": {"route": "94", "id": 243, "name": "Bethlehem Pk &amp; Montgomery Av"}}, {"geometry": {"type": "Point", "coordinates": [-75.213938, 40.110321]}, "type": "Feature", "properties": {"route": "94", "id": 1605, "name": "Bethlehem Pk &amp; Springfield Av - MBF"}}, {"geometry": {"type": "Point", "coordinates": [-75.224441, 40.153574]}, "type": "Feature", "properties": {"route": "94", "id": 1607, "name": "Butler Av &amp; Main St - MBFS"}}, {"geometry": {"type": "Point", "coordinates": [-75.243501, 40.169545]}, "type": "Feature", "properties": {"route": "94", "id": 1608, "name": "Old Penllyn Pk &amp; Wister Av - MBNS"}}, {"geometry": {"type": "Point", "coordinates": [-75.262254, 40.229027]}, "type": "Feature", "properties": {"route": "94", "id": 1614, "name": "North Wales &amp; Welsh Rd - FS"}}, {"geometry": {"type": "Point", "coordinates": [-75.245488, 40.235047]}, "type": "Feature", "properties": {"route": "94", "id": 1617, "name": "Montgomery Mall"}}, {"geometry": {"type": "Point", "coordinates": [-75.262468, 40.22901]}, "type": "Feature", "properties": {"route": "94", "id": 1621, "name": "North Wales Rd &amp; Main St"}}, {"geometry": {"type": "Point", "coordinates": [-75.292746, 40.215996]}, "type": "Feature", "properties": {"route": "94", "id": 1623, "name": "Church Rd &amp; Sumneytown Pk - MBFS"}}, {"geometry": {"type": "Point", "coordinates": [-75.243667, 40.169635]}, "type": "Feature", "properties": {"route": "94", "id": 1627, "name": "Old Penllyn Pk &amp; Wister Av - MBFS"}}, {"geometry": {"type": "Point", "coordinates": [-75.223991, 40.153832]}, "type": "Feature", "properties": {"route": "94", "id": 1628, "name": "Main St &amp; Butler Av"}}, {"geometry": {"type": "Point", "coordinates": [-75.214174, 40.110553]}, "type": "Feature", "properties": {"route": "94", "id": 1630, "name": "Bethlehem Pk &amp; Springfield Av - MBF"}}, {"geometry": {"type": "Point", "coordinates": [-75.275134, 40.177362]}, "type": "Feature", "properties": {"route": "94", "id": 1653, "name": "Montgomery County Community College"}}, {"geometry": {"type": "Point", "coordinates": [-75.209888, 40.084118]}, "type": "Feature", "properties": {"route": "94", "id": 19049, "name": "Bethlehem Pk &amp; Lynnebrook Ln - MBFS"}}, {"geometry": {"type": "Point", "coordinates": [-75.208136, 40.080589]}, "type": "Feature", "properties": {"route": "94", "id": 19050, "name": "Bethlehem Pk &amp; Chestnut Hill Av"}}, {"geometry": {"type": "Point", "coordinates": [-75.208156, 40.077965]}, "type": "Feature", "properties": {"route": "94", "id": 19051, "name": "Bethlehem Pk &amp; Summit St"}}, {"geometry": {"type": "Point", "coordinates": [-75.208181, 40.081178]}, "type": "Feature", "properties": {"route": "94", "id": 19053, "name": "Bethlehem Pk &amp; Newton St"}}, {"geometry": {"type": "Point", "coordinates": [-75.209616, 40.083912]}, "type": "Feature", "properties": {"route": "94", "id": 19054, "name": "Bethlehem Pk &amp; Lynnebrook Ln - FS"}}, {"geometry": {"type": "Point", "coordinates": [-75.208298, 40.077715]}, "type": "Feature", "properties": {"route": "94", "id": 21222, "name": "Chestnut Hill Loop"}}, {"geometry": {"type": "Point", "coordinates": [-75.214848, 40.090918]}, "type": "Feature", "properties": {"route": "94", "id": 26515, "name": "Bethlehem Pk &amp; Gordon Ln"}}, {"geometry": {"type": "Point", "coordinates": [-75.213309, 40.087301]}, "type": "Feature", "properties": {"route": "94", "id": 26516, "name": "Bethlehem Pk &amp; Bells Mill Rd"}}, {"geometry": {"type": "Point", "coordinates": [-75.212082, 40.086067]}, "type": "Feature", "properties": {"route": "94", "id": 26517, "name": "Bethlehem Pk &amp; Stenton Av"}}, {"geometry": {"type": "Point", "coordinates": [-75.213716, 40.093514]}, "type": "Feature", "properties": {"route": "94", "id": 26999, "name": "Bethlehem Pk &amp; Yeakel Av"}}, {"geometry": {"type": "Point", "coordinates": [-75.213165, 40.0957]}, "type": "Feature", "properties": {"route": "94", "id": 27000, "name": "Bethlehem Pk &amp; Chesney Ln"}}, {"geometry": {"type": "Point", "coordinates": [-75.21279, 40.098519]}, "type": "Feature", "properties": {"route": "94", "id": 27001, "name": "Bethlehem Pk &amp; Haws Ln - MBNS"}}, {"geometry": {"type": "Point", "coordinates": [-75.212688, 40.100911]}, "type": "Feature", "properties": {"route": "94", "id": 27002, "name": "Bethlehem Pk &amp; Jones Av - FS"}}, {"geometry": {"type": "Point", "coordinates": [-75.212825, 40.102402]}, "type": "Feature", "properties": {"route": "94", "id": 27003, "name": "Bethlehem Pk &amp; Wissahickon Av"}}, {"geometry": {"type": "Point", "coordinates": [-75.213115, 40.104554]}, "type": "Feature", "properties": {"route": "94", "id": 27004, "name": "Bethlehem Pk &amp; Bysher Av"}}, {"geometry": {"type": "Point", "coordinates": [-75.213485, 40.107223]}, "type": "Feature", "properties": {"route": "94", "id": 27006, "name": "Bethlehem Pk &amp; Mill Rd - MBNS"}}, {"geometry": {"type": "Point", "coordinates": [-75.214925, 40.116356]}, "type": "Feature", "properties": {"route": "94", "id": 27010, "name": "Bethlehem Pk &amp; Farmar Ln"}}, {"geometry": {"type": "Point", "coordinates": [-75.215471, 40.13187]}, "type": "Feature", "properties": {"route": "94", "id": 27014, "name": "Bethlehem Pk &amp; Fort Hill Dr"}}, {"geometry": {"type": "Point", "coordinates": [-75.213101, 40.136355]}, "type": "Feature", "properties": {"route": "94", "id": 27016, "name": "Bethlehem Pk &amp; Station Av"}}, {"geometry": {"type": "Point", "coordinates": [-75.212324, 40.138925]}, "type": "Feature", "properties": {"route": "94", "id": 27017, "name": "Bethlehem Pk &amp; Washington Ln"}}, {"geometry": {"type": "Point", "coordinates": [-75.21268, 40.15043]}, "type": "Feature", "properties": {"route": "94", "id": 27023, "name": "Bethlehem Pk &amp; Highland Av"}}, {"geometry": {"type": "Point", "coordinates": [-75.214369, 40.155566]}, "type": "Feature", "properties": {"route": "94", "id": 27026, "name": "Lindenwold Av &amp; Bethlehem Pk - FS"}}, {"geometry": {"type": "Point", "coordinates": [-75.219201, 40.15577]}, "type": "Feature", "properties": {"route": "94", "id": 27028, "name": "Lindenwold Av &amp; Butler Av"}}, {"geometry": {"type": "Point", "coordinates": [-75.222936, 40.15417]}, "type": "Feature", "properties": {"route": "94", "id": 27029, "name": "Butler Av &amp; Spring Garden Av"}}, {"geometry": {"type": "Point", "coordinates": [-75.221501, 40.154756]}, "type": "Feature", "properties": {"route": "94", "id": 27030, "name": "Butler Av &amp; Ridge Av"}}, {"geometry": {"type": "Point", "coordinates": [-75.226347, 40.157933]}, "type": "Feature", "properties": {"route": "94", "id": 27034, "name": "Spring Garden St &amp; Tennis Av - FS"}}, {"geometry": {"type": "Point", "coordinates": [-75.280362, 40.18101]}, "type": "Feature", "properties": {"route": "94", "id": 27050, "name": "Morris Rd &amp; Windermere Dr"}}, {"geometry": {"type": "Point", "coordinates": [-75.286705, 40.184722]}, "type": "Feature", "properties": {"route": "94", "id": 27051, "name": "Morris Rd &amp; Twin Silo Dr"}}, {"geometry": {"type": "Point", "coordinates": [-75.293706, 40.19104]}, "type": "Feature", "properties": {"route": "94", "id": 27052, "name": "Morris Rd &amp; North Wales Rd - MBNS"}}, {"geometry": {"type": "Point", "coordinates": [-75.303035, 40.201922]}, "type": "Feature", "properties": {"route": "94", "id": 27054, "name": "West Point Pk &amp; Dehaven Dr"}}, {"geometry": {"type": "Point", "coordinates": [-75.292822, 40.213551]}, "type": "Feature", "properties": {"route": "94", "id": 27058, "name": "West Point Pk &amp; Merck Laboratories"}}, {"geometry": {"type": "Point", "coordinates": [-75.298903, 40.2063]}, "type": "Feature", "properties": {"route": "94", "id": 27059, "name": "West Point Pk &amp; Garfield Av"}}, {"geometry": {"type": "Point", "coordinates": [-75.291498, 40.217548]}, "type": "Feature", "properties": {"route": "94", "id": 27060, "name": "Church Rd &amp; Becker Rd - MBNS"}}, {"geometry": {"type": "Point", "coordinates": [-75.289406, 40.220599]}, "type": "Feature", "properties": {"route": "94", "id": 27061, "name": "Church Rd &amp; Kneedler Rd - MBNS"}}, {"geometry": {"type": "Point", "coordinates": [-75.281672, 40.229462]}, "type": "Feature", "properties": {"route": "94", "id": 27063, "name": "Church Rd &amp; Cherry St - MBNS"}}, {"geometry": {"type": "Point", "coordinates": [-75.269761, 40.233072]}, "type": "Feature", "properties": {"route": "94", "id": 27067, "name": "Main St &amp; Greenwood Av - FS"}}, {"geometry": {"type": "Point", "coordinates": [-75.268269, 40.232249]}, "type": "Feature", "properties": {"route": "94", "id": 27068, "name": "Main St &amp; Oakland Av"}}, {"geometry": {"type": "Point", "coordinates": [-75.269595, 40.233259]}, "type": "Feature", "properties": {"route": "94", "id": 27085, "name": "Main St &amp; Greenwood Rd"}}, {"geometry": {"type": "Point", "coordinates": [-75.281398, 40.229908]}, "type": "Feature", "properties": {"route": "94", "id": 27089, "name": "Church Rd &amp; Cherry St - FS"}}, {"geometry": {"type": "Point", "coordinates": [-75.284426, 40.227484]}, "type": "Feature", "properties": {"route": "94", "id": 27090, "name": "Church Rd &amp; Wissahickon Av - MBNS"}}, {"geometry": {"type": "Point", "coordinates": [-75.289299, 40.221036]}, "type": "Feature", "properties": {"route": "94", "id": 27091, "name": "Church Rd &amp; Kneedler Rd"}}, {"geometry": {"type": "Point", "coordinates": [-75.291736, 40.217495]}, "type": "Feature", "properties": {"route": "94", "id": 27092, "name": "Church Rd &amp; Becker Rd - MBFS"}}, {"geometry": {"type": "Point", "coordinates": [-75.294972, 40.210759]}, "type": "Feature", "properties": {"route": "94", "id": 27093, "name": "West Point Pk &amp; Merck Laboratories"}}, {"geometry": {"type": "Point", "coordinates": [-75.298915, 40.206515]}, "type": "Feature", "properties": {"route": "94", "id": 27095, "name": "West Point Pk &amp; Garfield Av"}}, {"geometry": {"type": "Point", "coordinates": [-75.303142, 40.202065]}, "type": "Feature", "properties": {"route": "94", "id": 27098, "name": "West Point Pk &amp; Dehaven Dr"}}, {"geometry": {"type": "Point", "coordinates": [-75.286729, 40.184553]}, "type": "Feature", "properties": {"route": "94", "id": 27101, "name": "Morris Rd &amp; Tournament Dr - FS"}}, {"geometry": {"type": "Point", "coordinates": [-75.28067, 40.181011]}, "type": "Feature", "properties": {"route": "94", "id": 27102, "name": "Morris Rd &amp; Windemere Dr"}}, {"geometry": {"type": "Point", "coordinates": [-75.270628, 40.174045]}, "type": "Feature", "properties": {"route": "94", "id": 27104, "name": "Morris Rd &amp; Cathcart Rd"}}, {"geometry": {"type": "Point", "coordinates": [-75.226525, 40.157915]}, "type": "Feature", "properties": {"route": "94", "id": 27119, "name": "Spring Garden St &amp; Reiffs Mill Rd"}}, {"geometry": {"type": "Point", "coordinates": [-75.223019, 40.154]}, "type": "Feature", "properties": {"route": "94", "id": 27122, "name": "Butler Av &amp; Spring Garden St"}}, {"geometry": {"type": "Point", "coordinates": [-75.221573, 40.154587]}, "type": "Feature", "properties": {"route": "94", "id": 27123, "name": "Butler Av &amp; Ridge Av"}}, {"geometry": {"type": "Point", "coordinates": [-75.219474, 40.155601]}, "type": "Feature", "properties": {"route": "94", "id": 27124, "name": "Butler Av &amp; Lindenwold Av"}}, {"geometry": {"type": "Point", "coordinates": [-75.214252, 40.155396]}, "type": "Feature", "properties": {"route": "94", "id": 27126, "name": "Lindenwold Av &amp; Bethlehem Pk"}}, {"geometry": {"type": "Point", "coordinates": [-75.213161, 40.151958]}, "type": "Feature", "properties": {"route": "94", "id": 27128, "name": "Bethlehem Pk &amp; Church St - FS"}}, {"geometry": {"type": "Point", "coordinates": [-75.212615, 40.148279]}, "type": "Feature", "properties": {"route": "94", "id": 27130, "name": "Bethlehem Pk &amp; Bannockburn Av"}}, {"geometry": {"type": "Point", "coordinates": [-75.213278, 40.136498]}, "type": "Feature", "properties": {"route": "94", "id": 27136, "name": "Bethlehem Pk &amp; Station Av"}}, {"geometry": {"type": "Point", "coordinates": [-75.215387, 40.132164]}, "type": "Feature", "properties": {"route": "94", "id": 27138, "name": "Bethlehem Pk &amp; Fort Hill Dr"}}, {"geometry": {"type": "Point", "coordinates": [-75.217345, 40.122572]}, "type": "Feature", "properties": {"route": "94", "id": 27140, "name": "Bethlehem Pk &amp; Skippack Pk"}}, {"geometry": {"type": "Point", "coordinates": [-75.215138, 40.116473]}, "type": "Feature", "properties": {"route": "94", "id": 27142, "name": "Bethlehem Pk &amp; Farmar Ln"}}, {"geometry": {"type": "Point", "coordinates": [-75.21451, 40.112875]}, "type": "Feature", "properties": {"route": "94", "id": 27144, "name": "Bethlehem Pk &amp; Sunnybrook Rd"}}, {"geometry": {"type": "Point", "coordinates": [-75.213779, 40.107857]}, "type": "Feature", "properties": {"route": "94", "id": 27146, "name": "Bethlehem Pk &amp; Mill Rd"}}, {"geometry": {"type": "Point", "coordinates": [-75.213385, 40.105054]}, "type": "Feature", "properties": {"route": "94", "id": 27148, "name": "Bethlehem Pk &amp; College Av"}}, {"geometry": {"type": "Point", "coordinates": [-75.213038, 40.102697]}, "type": "Feature", "properties": {"route": "94", "id": 27149, "name": "Bethlehem Pk &amp; Wissahickon Av"}}, {"geometry": {"type": "Point", "coordinates": [-75.212877, 40.100876]}, "type": "Feature", "properties": {"route": "94", "id": 27150, "name": "Bethlehem Pk &amp; Jones Av"}}, {"geometry": {"type": "Point", "coordinates": [-75.212992, 40.09827]}, "type": "Feature", "properties": {"route": "94", "id": 27151, "name": "Bethlehem Pk &amp; Haws Ln - MBFS"}}, {"geometry": {"type": "Point", "coordinates": [-75.213354, 40.095923]}, "type": "Feature", "properties": {"route": "94", "id": 27152, "name": "Bethlehem Pk &amp; Chesney Ln"}}, {"geometry": {"type": "Point", "coordinates": [-75.213905, 40.093568]}, "type": "Feature", "properties": {"route": "94", "id": 27153, "name": "Bethlehem Pk &amp; Yeakel Av - FS"}}, {"geometry": {"type": "Point", "coordinates": [-75.272461, 40.234744]}, "type": "Feature", "properties": {"route": "94", "id": 29449, "name": "Main St &amp; Highland Av - MBFS"}}, {"geometry": {"type": "Point", "coordinates": [-75.274272, 40.2358]}, "type": "Feature", "properties": {"route": "94", "id": 29450, "name": "Main St &amp; Lansdale Av"}}, {"geometry": {"type": "Point", "coordinates": [-75.268056, 40.23232]}, "type": "Feature", "properties": {"route": "94", "id": 29462, "name": "Main St &amp; Oakland Av"}}, {"geometry": {"type": "Point", "coordinates": [-75.272413, 40.234923]}, "type": "Feature", "properties": {"route": "94", "id": 29463, "name": "Main St &amp; Highland Av - MBNS"}}, {"geometry": {"type": "Point", "coordinates": [-75.298614, 40.196133]}, "type": "Feature", "properties": {"route": "94", "id": 29464, "name": "Morris Rd &amp; Primrose Dr - FS"}}, {"geometry": {"type": "Point", "coordinates": [-75.24232, 40.168374]}, "type": "Feature", "properties": {"route": "94", "id": 29466, "name": "Pen Ambler Rd &amp; Stafford Dr"}}, {"geometry": {"type": "Point", "coordinates": [-75.214418, 40.09223]}, "type": "Feature", "properties": {"route": "94", "id": 29787, "name": "Bethlehem Pk &amp; Montgomery Av"}}, {"geometry": {"type": "Point", "coordinates": [-75.212513, 40.138916]}, "type": "Feature", "properties": {"route": "94", "id": 30451, "name": "Bethlehem Pk &amp; Washington Ln - FS"}}, {"geometry": {"type": "Point", "coordinates": [-75.270213, 40.173929]}, "type": "Feature", "properties": {"route": "94", "id": 30813, "name": "Morris Rd &amp; Cathcart Rd"}}, {"geometry": {"type": "Point", "coordinates": [-75.212928, 40.150645]}, "type": "Feature", "properties": {"route": "94", "id": 31341, "name": "Bethlehem Pk &amp; Highland Av"}}, {"geometry": {"type": "Point", "coordinates": [-75.214414, 40.113347]}, "type": "Feature", "properties": {"route": "94", "id": 31482, "name": "Bethlehem Pk &amp; W Valley Green Rd"}}, {"geometry": {"type": "Point", "coordinates": [-75.217086, 40.122081]}, "type": "Feature", "properties": {"route": "94", "id": 31483, "name": "Bethlehem Pk &amp; Camp Hill Rd"}}, {"geometry": {"type": "Point", "coordinates": [-75.250072, 40.236678]}, "type": "Feature", "properties": {"route": "94", "id": 31928, "name": "North Wales Rd &amp; Rose Ln"}}, {"geometry": {"type": "Point", "coordinates": [-75.250155, 40.236857]}, "type": "Feature", "properties": {"route": "94", "id": 31929, "name": "North Wales Rd &amp; Rose Ln"}}, {"geometry": {"type": "Point", "coordinates": [-75.294262, 40.191675]}, "type": "Feature", "properties": {"route": "94", "id": 31959, "name": "Morris Rd &amp; North Wales Rd - FS"}}, {"geometry": {"type": "Point", "coordinates": [-75.257066, 40.232127]}, "type": "Feature", "properties": {"route": "94", "id": 32060, "name": "North Wales Rd &amp; Jamestown Rd - FS"}}, {"geometry": {"type": "Point", "coordinates": [-75.257671, 40.232038]}, "type": "Feature", "properties": {"route": "94", "id": 32061, "name": "North Wales Rd &amp; Jamestown Rd"}}]}