{"type": "FeatureCollection", "features": [{"geometry": {"type": "Point", "coordinates": [-75.101085, 40.029484]}, "type": "Feature", "properties": {"route": "J", "id": 24, "name": "Roosevelt Blvd &amp; Tower Blvd - FS"}}, {"geometry": {"type": "Point", "coordinates": [-75.118658, 40.030329]}, "type": "Feature", "properties": {"route": "J", "id": 113, "name": "Fisher Av &amp; Rising Sun Av - FS"}}, {"geometry": {"type": "Point", "coordinates": [-75.118635, 40.030195]}, "type": "Feature", "properties": {"route": "J", "id": 118, "name": "Fisher Av &amp; Rising Sun Av"}}, {"geometry": {"type": "Point", "coordinates": [-75.117407, 40.026943]}, "type": "Feature", "properties": {"route": "J", "id": 119, "name": "C St &amp; Roosevelt Blvd"}}, {"geometry": {"type": "Point", "coordinates": [-75.117076, 40.026924]}, "type": "Feature", "properties": {"route": "J", "id": 124, "name": "Roosevelt Blvd &amp; C St"}}, {"geometry": {"type": "Point", "coordinates": [-75.132058, 40.028835]}, "type": "Feature", "properties": {"route": "J", "id": 207, "name": "Lindley Av &amp; 5th St"}}, {"geometry": {"type": "Point", "coordinates": [-75.146367, 40.03059]}, "type": "Feature", "properties": {"route": "J", "id": 208, "name": "Lindley Av &amp; Broad St"}}, {"geometry": {"type": "Point", "coordinates": [-75.171857, 40.038671]}, "type": "Feature", "properties": {"route": "J", "id": 209, "name": "Chelten Av &amp; Baynton St - FS"}}, {"geometry": {"type": "Point", "coordinates": [-75.18287, 40.02799]}, "type": "Feature", "properties": {"route": "J", "id": 210, "name": "Chelten Av &amp; Wissahickon Av - MBNS"}}, {"geometry": {"type": "Point", "coordinates": [-75.181909, 40.025757]}, "type": "Feature", "properties": {"route": "J", "id": 212, "name": "Wissahickon Av &amp; School House Ln"}}, {"geometry": {"type": "Point", "coordinates": [-75.171649, 40.038722]}, "type": "Feature", "properties": {"route": "J", "id": 213, "name": "Chelten Av &amp; Baynton St"}}, {"geometry": {"type": "Point", "coordinates": [-75.149888, 40.031009]}, "type": "Feature", "properties": {"route": "J", "id": 214, "name": "Lindley Av &amp; 16th St"}}, {"geometry": {"type": "Point", "coordinates": [-75.146722, 40.030591]}, "type": "Feature", "properties": {"route": "J", "id": 215, "name": "Lindley Av &amp; Broad St"}}, {"geometry": {"type": "Point", "coordinates": [-75.132283, 40.028737]}, "type": "Feature", "properties": {"route": "J", "id": 216, "name": "Lindley Av &amp; 5th St"}}, {"geometry": {"type": "Point", "coordinates": [-75.085654, 40.014784]}, "type": "Feature", "properties": {"route": "J", "id": 218, "name": "Orthodox St &amp; Frankford Av"}}, {"geometry": {"type": "Point", "coordinates": [-75.084202, 40.016869]}, "type": "Feature", "properties": {"route": "J", "id": 220, "name": "Arrott Transportation Center"}}, {"geometry": {"type": "Point", "coordinates": [-75.073614, 39.997338]}, "type": "Feature", "properties": {"route": "J", "id": 488, "name": "Orthodox St &amp; Richmond St"}}, {"geometry": {"type": "Point", "coordinates": [-75.178849, 40.0319]}, "type": "Feature", "properties": {"route": "J", "id": 15661, "name": "Chelten Av &amp; Wayne Av"}}, {"geometry": {"type": "Point", "coordinates": [-75.176726, 40.03402]}, "type": "Feature", "properties": {"route": "J", "id": 15663, "name": "Chelten Av &amp; Greene St - FS"}}, {"geometry": {"type": "Point", "coordinates": [-75.174781, 40.035676]}, "type": "Feature", "properties": {"route": "J", "id": 15664, "name": "Chelten Av &amp; Germantown Av"}}, {"geometry": {"type": "Point", "coordinates": [-75.173891, 40.036549]}, "type": "Feature", "properties": {"route": "J", "id": 15665, "name": "Chelten Av &amp; Kenyon St"}}, {"geometry": {"type": "Point", "coordinates": [-75.172989, 40.037431]}, "type": "Feature", "properties": {"route": "J", "id": 15666, "name": "Chelten Av &amp; Lena St - FS"}}, {"geometry": {"type": "Point", "coordinates": [-75.177711, 40.032808]}, "type": "Feature", "properties": {"route": "J", "id": 15672, "name": "Chelten Av &amp; Knox St"}}, {"geometry": {"type": "Point", "coordinates": [-75.173072, 40.03752]}, "type": "Feature", "properties": {"route": "J", "id": 15925, "name": "Chelten Av &amp; Lena St"}}, {"geometry": {"type": "Point", "coordinates": [-75.17389, 40.036763]}, "type": "Feature", "properties": {"route": "J", "id": 15926, "name": "Chelten Av &amp; Kenyon St"}}, {"geometry": {"type": "Point", "coordinates": [-75.177734, 40.033004]}, "type": "Feature", "properties": {"route": "J", "id": 15929, "name": "Chelten Av &amp; Knox St"}}, {"geometry": {"type": "Point", "coordinates": [-75.180261, 40.030537]}, "type": "Feature", "properties": {"route": "J", "id": 15931, "name": "Chelten Av &amp; Pulaski Av"}}, {"geometry": {"type": "Point", "coordinates": [-75.086195, 40.017927]}, "type": "Feature", "properties": {"route": "J", "id": 17615, "name": "Arrott St &amp; Leiper St"}}, {"geometry": {"type": "Point", "coordinates": [-75.088446, 40.01921]}, "type": "Feature", "properties": {"route": "J", "id": 17616, "name": "Arrott St &amp; Oakland St"}}, {"geometry": {"type": "Point", "coordinates": [-75.089602, 40.019873]}, "type": "Feature", "properties": {"route": "J", "id": 17621, "name": "Arrott St &amp; Horrocks St"}}, {"geometry": {"type": "Point", "coordinates": [-75.091393, 40.021029]}, "type": "Feature", "properties": {"route": "J", "id": 17622, "name": "Arrott St &amp; Large St"}}, {"geometry": {"type": "Point", "coordinates": [-75.093667, 40.022517]}, "type": "Feature", "properties": {"route": "J", "id": 17623, "name": "Arrott St &amp; Castor Av"}}, {"geometry": {"type": "Point", "coordinates": [-75.093506, 40.018991]}, "type": "Feature", "properties": {"route": "J", "id": 17911, "name": "Orthodox St &amp; Large St"}}, {"geometry": {"type": "Point", "coordinates": [-75.091455, 40.017906]}, "type": "Feature", "properties": {"route": "J", "id": 17912, "name": "Orthodox St &amp; Horrocks St"}}, {"geometry": {"type": "Point", "coordinates": [-75.090476, 40.017368]}, "type": "Feature", "properties": {"route": "J", "id": 18067, "name": "Orthodox St &amp; Oakland St"}}, {"geometry": {"type": "Point", "coordinates": [-75.088201, 40.016148]}, "type": "Feature", "properties": {"route": "J", "id": 18068, "name": "Orthodox St &amp; Leiper St"}}, {"geometry": {"type": "Point", "coordinates": [-75.087352, 40.015699]}, "type": "Feature", "properties": {"route": "J", "id": 18069, "name": "Orthodox St &amp; Penn St"}}, {"geometry": {"type": "Point", "coordinates": [-75.178933, 40.031641]}, "type": "Feature", "properties": {"route": "J", "id": 21953, "name": "Chelten Av &amp; Wayne Av"}}, {"geometry": {"type": "Point", "coordinates": [-75.17656, 40.034002]}, "type": "Feature", "properties": {"route": "J", "id": 21954, "name": "Chelten Av &amp; Greene St"}}, {"geometry": {"type": "Point", "coordinates": [-75.11689, 40.026254]}, "type": "Feature", "properties": {"route": "J", "id": 22409, "name": "Roosevelt Blvd &amp; C St - FS"}}, {"geometry": {"type": "Point", "coordinates": [-75.098525, 40.027823]}, "type": "Feature", "properties": {"route": "J", "id": 23292, "name": "Roosevelt Blvd &amp; Langdon St"}}, {"geometry": {"type": "Point", "coordinates": [-75.106426, 40.029414]}, "type": "Feature", "properties": {"route": "J", "id": 23298, "name": "Roosevelt Blvd &amp; Garland St"}}, {"geometry": {"type": "Point", "coordinates": [-75.114533, 40.027302]}, "type": "Feature", "properties": {"route": "J", "id": 23300, "name": "Roosevelt Blvd &amp; Bingham St"}}, {"geometry": {"type": "Point", "coordinates": [-75.109907, 40.028316]}, "type": "Feature", "properties": {"route": "J", "id": 23301, "name": "Roosevelt Blvd &amp; F St"}}, {"geometry": {"type": "Point", "coordinates": [-75.114525, 40.026579]}, "type": "Feature", "properties": {"route": "J", "id": 23313, "name": "Roosevelt Blvd &amp; Rorer St"}}, {"geometry": {"type": "Point", "coordinates": [-75.110064, 40.027513]}, "type": "Feature", "properties": {"route": "J", "id": 23314, "name": "Roosevelt Blvd &amp; F St"}}, {"geometry": {"type": "Point", "coordinates": [-75.106074, 40.028779]}, "type": "Feature", "properties": {"route": "J", "id": 23316, "name": "Roosevelt Blvd &amp; Whitaker Av"}}, {"geometry": {"type": "Point", "coordinates": [-75.099224, 40.027378]}, "type": "Feature", "properties": {"route": "J", "id": 23319, "name": "Roosevelt Blvd &amp; Langdon St"}}, {"geometry": {"type": "Point", "coordinates": [-75.071044, 39.998517]}, "type": "Feature", "properties": {"route": "J", "id": 23804, "name": "Richmond St &amp; Lefevre St"}}, {"geometry": {"type": "Point", "coordinates": [-75.071525, 39.999385]}, "type": "Feature", "properties": {"route": "J", "id": 24000, "name": "Lefevre St &amp; Salmon St"}}, {"geometry": {"type": "Point", "coordinates": [-75.07244, 40.000619]}, "type": "Feature", "properties": {"route": "J", "id": 24001, "name": "Lefevre St &amp; Thompson St"}}, {"geometry": {"type": "Point", "coordinates": [-75.073086, 40.001513]}, "type": "Feature", "properties": {"route": "J", "id": 24002, "name": "Lefevre St &amp; Almond St"}}, {"geometry": {"type": "Point", "coordinates": [-75.073943, 40.002658]}, "type": "Feature", "properties": {"route": "J", "id": 24003, "name": "Lefevre St &amp; Miller St"}}, {"geometry": {"type": "Point", "coordinates": [-75.075863, 40.006296]}, "type": "Feature", "properties": {"route": "J", "id": 24005, "name": "Margaret St &amp; Stiles St"}}, {"geometry": {"type": "Point", "coordinates": [-75.076602, 40.009788]}, "type": "Feature", "properties": {"route": "J", "id": 24007, "name": "Margaret St &amp; Worth St"}}, {"geometry": {"type": "Point", "coordinates": [-75.076973, 40.011244]}, "type": "Feature", "properties": {"route": "J", "id": 24008, "name": "Margaret St &amp; Torresdale Av"}}, {"geometry": {"type": "Point", "coordinates": [-75.078707, 40.009428]}, "type": "Feature", "properties": {"route": "J", "id": 24010, "name": "Orthodox St &amp; Worth St"}}, {"geometry": {"type": "Point", "coordinates": [-75.078268, 40.00749]}, "type": "Feature", "properties": {"route": "J", "id": 24011, "name": "Orthodox St &amp; Tacony St"}}, {"geometry": {"type": "Point", "coordinates": [-75.077979, 40.006123]}, "type": "Feature", "properties": {"route": "J", "id": 24012, "name": "Orthodox St &amp; Stiles St"}}, {"geometry": {"type": "Point", "coordinates": [-75.077667, 40.004766]}, "type": "Feature", "properties": {"route": "J", "id": 24013, "name": "Orthodox St &amp; Bermuda St"}}, {"geometry": {"type": "Point", "coordinates": [-75.077482, 40.003837]}, "type": "Feature", "properties": {"route": "J", "id": 24014, "name": "Orthodox St &amp; Aramingo Av - FS"}}, {"geometry": {"type": "Point", "coordinates": [-75.076693, 40.000818]}, "type": "Feature", "properties": {"route": "J", "id": 24015, "name": "Orthodox St &amp; Belgrade St"}}, {"geometry": {"type": "Point", "coordinates": [-75.076071, 40.000094]}, "type": "Feature", "properties": {"route": "J", "id": 24016, "name": "Orthodox St &amp; Almond St"}}, {"geometry": {"type": "Point", "coordinates": [-75.07533, 39.99927]}, "type": "Feature", "properties": {"route": "J", "id": 24017, "name": "Orthodox St &amp; Thompson St"}}, {"geometry": {"type": "Point", "coordinates": [-75.074284, 39.998089]}, "type": "Feature", "properties": {"route": "J", "id": 24018, "name": "Orthodox St &amp; Salmon St"}}, {"geometry": {"type": "Point", "coordinates": [-75.075456, 40.004813]}, "type": "Feature", "properties": {"route": "J", "id": 24109, "name": "Lefevre St &amp; Pearce St - FS"}}, {"geometry": {"type": "Point", "coordinates": [-75.179301, 40.027813]}, "type": "Feature", "properties": {"route": "J", "id": 24340, "name": "School House Ln &amp; Morris St"}}, {"geometry": {"type": "Point", "coordinates": [-75.17815, 40.028962]}, "type": "Feature", "properties": {"route": "J", "id": 24341, "name": "School House Ln &amp; Pulaski Av"}}, {"geometry": {"type": "Point", "coordinates": [-75.180119, 40.030385]}, "type": "Feature", "properties": {"route": "J", "id": 24342, "name": "Pulaski Av &amp; Chelten Av"}}, {"geometry": {"type": "Point", "coordinates": [-75.170705, 40.038086]}, "type": "Feature", "properties": {"route": "J", "id": 24343, "name": "Baynton St &amp; Armat St"}}, {"geometry": {"type": "Point", "coordinates": [-75.168628, 40.037109]}, "type": "Feature", "properties": {"route": "J", "id": 24344, "name": "Baynton St &amp; Church Ln"}}, {"geometry": {"type": "Point", "coordinates": [-75.165767, 40.037032]}, "type": "Feature", "properties": {"route": "J", "id": 24354, "name": "Belfield Av &amp; Penn St - MBNS"}}, {"geometry": {"type": "Point", "coordinates": [-75.164396, 40.036797]}, "type": "Feature", "properties": {"route": "J", "id": 24355, "name": "Belfield Av &amp; Penn St"}}, {"geometry": {"type": "Point", "coordinates": [-75.160589, 40.03678]}, "type": "Feature", "properties": {"route": "J", "id": 24356, "name": "Belfield Av &amp; Armstrong St"}}, {"geometry": {"type": "Point", "coordinates": [-75.158521, 40.036642]}, "type": "Feature", "properties": {"route": "J", "id": 24357, "name": "Belfield Av &amp; Wister St"}}, {"geometry": {"type": "Point", "coordinates": [-75.155815, 40.036279]}, "type": "Feature", "properties": {"route": "J", "id": 24358, "name": "Belfield Av &amp; 20th St"}}, {"geometry": {"type": "Point", "coordinates": [-75.154485, 40.031447]}, "type": "Feature", "properties": {"route": "J", "id": 24368, "name": "Lindley Av &amp; Belfield Av - FS"}}, {"geometry": {"type": "Point", "coordinates": [-75.152571, 40.031354]}, "type": "Feature", "properties": {"route": "J", "id": 24370, "name": "Lindley Av &amp; Ogontz Av"}}, {"geometry": {"type": "Point", "coordinates": [-75.151472, 40.031209]}, "type": "Feature", "properties": {"route": "J", "id": 24371, "name": "Lindley Av &amp; 17th St"}}, {"geometry": {"type": "Point", "coordinates": [-75.148317, 40.0308]}, "type": "Feature", "properties": {"route": "J", "id": 24406, "name": "Lindley Av &amp; 15th St"}}, {"geometry": {"type": "Point", "coordinates": [-75.146097, 40.030206]}, "type": "Feature", "properties": {"route": "J", "id": 24410, "name": "Lindley Av &amp; Old York Rd"}}, {"geometry": {"type": "Point", "coordinates": [-75.144513, 40.030113]}, "type": "Feature", "properties": {"route": "J", "id": 24411, "name": "Lindley Av &amp; 13th St"}}, {"geometry": {"type": "Point", "coordinates": [-75.142917, 40.03002]}, "type": "Feature", "properties": {"route": "J", "id": 24412, "name": "Lindley Av &amp; 12th St"}}, {"geometry": {"type": "Point", "coordinates": [-75.141334, 40.029874]}, "type": "Feature", "properties": {"route": "J", "id": 24413, "name": "Lindley Av &amp; 11th St"}}, {"geometry": {"type": "Point", "coordinates": [-75.139751, 40.029674]}, "type": "Feature", "properties": {"route": "J", "id": 24414, "name": "Lindley Av &amp; 10th St"}}, {"geometry": {"type": "Point", "coordinates": [-75.138132, 40.029492]}, "type": "Feature", "properties": {"route": "J", "id": 24415, "name": "Lindley Av &amp; 9th St"}}, {"geometry": {"type": "Point", "coordinates": [-75.137186, 40.029364]}, "type": "Feature", "properties": {"route": "J", "id": 24416, "name": "Lindley Av &amp; 8th St"}}, {"geometry": {"type": "Point", "coordinates": [-75.135934, 40.029183]}, "type": "Feature", "properties": {"route": "J", "id": 24417, "name": "Lindley Av &amp; 7th St"}}, {"geometry": {"type": "Point", "coordinates": [-75.134256, 40.028965]}, "type": "Feature", "properties": {"route": "J", "id": 24418, "name": "Lindley Av &amp; 6th St"}}, {"geometry": {"type": "Point", "coordinates": [-75.130416, 40.028474]}, "type": "Feature", "properties": {"route": "J", "id": 24419, "name": "Lindley Av &amp; 4th St"}}, {"geometry": {"type": "Point", "coordinates": [-75.129436, 40.028347]}, "type": "Feature", "properties": {"route": "J", "id": 24420, "name": "Lindley Av &amp; 3rd St"}}, {"geometry": {"type": "Point", "coordinates": [-75.127405, 40.02769]}, "type": "Feature", "properties": {"route": "J", "id": 24421, "name": "2nd St &amp; Lindley Av - FS"}}, {"geometry": {"type": "Point", "coordinates": [-75.126641, 40.029563]}, "type": "Feature", "properties": {"route": "J", "id": 24422, "name": "2nd St &amp; Duncannon Av"}}, {"geometry": {"type": "Point", "coordinates": [-75.126303, 40.031115]}, "type": "Feature", "properties": {"route": "J", "id": 24423, "name": "2nd St &amp; Fisher Av"}}, {"geometry": {"type": "Point", "coordinates": [-75.124471, 40.030932]}, "type": "Feature", "properties": {"route": "J", "id": 24425, "name": "Fisher Av &amp; Mascher St"}}, {"geometry": {"type": "Point", "coordinates": [-75.122557, 40.030668]}, "type": "Feature", "properties": {"route": "J", "id": 24427, "name": "Fisher Av &amp; Front St"}}, {"geometry": {"type": "Point", "coordinates": [-75.120608, 40.030449]}, "type": "Feature", "properties": {"route": "J", "id": 24428, "name": "Fisher Av &amp; A St"}}, {"geometry": {"type": "Point", "coordinates": [-75.096998, 40.025703]}, "type": "Feature", "properties": {"route": "J", "id": 24447, "name": "Adams Av &amp; Roosevelt Blvd - FS"}}, {"geometry": {"type": "Point", "coordinates": [-75.095082, 40.023271]}, "type": "Feature", "properties": {"route": "J", "id": 24448, "name": "Adams Av &amp; Arrott St"}}, {"geometry": {"type": "Point", "coordinates": [-75.093992, 40.021242]}, "type": "Feature", "properties": {"route": "J", "id": 24450, "name": "Adams Av &amp; Castor Av - FS"}}, {"geometry": {"type": "Point", "coordinates": [-75.094485, 40.019619]}, "type": "Feature", "properties": {"route": "J", "id": 24452, "name": "Adams Av &amp; Orthodox St"}}, {"geometry": {"type": "Point", "coordinates": [-75.084747, 40.014309]}, "type": "Feature", "properties": {"route": "J", "id": 24454, "name": "Orthodox St &amp; Paul St"}}, {"geometry": {"type": "Point", "coordinates": [-75.083332, 40.013573]}, "type": "Feature", "properties": {"route": "J", "id": 24456, "name": "Orthodox St &amp; Hedge St"}}, {"geometry": {"type": "Point", "coordinates": [-75.081811, 40.012739]}, "type": "Feature", "properties": {"route": "J", "id": 24467, "name": "Orthodox St &amp; Mulberry St"}}, {"geometry": {"type": "Point", "coordinates": [-75.080929, 40.011924]}, "type": "Feature", "properties": {"route": "J", "id": 24477, "name": "Orthodox St &amp; Tackawanna St"}}, {"geometry": {"type": "Point", "coordinates": [-75.079447, 40.010447]}, "type": "Feature", "properties": {"route": "J", "id": 24478, "name": "Orthodox St  &amp; Torresdale Av"}}, {"geometry": {"type": "Point", "coordinates": [-75.079392, 40.014472]}, "type": "Feature", "properties": {"route": "J", "id": 24570, "name": "Margaret St &amp; Mulberry St"}}, {"geometry": {"type": "Point", "coordinates": [-75.078225, 40.013835]}, "type": "Feature", "properties": {"route": "J", "id": 24571, "name": "Margaret St &amp; Tackawanna St"}}, {"geometry": {"type": "Point", "coordinates": [-75.080877, 40.015298]}, "type": "Feature", "properties": {"route": "J", "id": 24572, "name": "Margaret St &amp; Duffield St"}}, {"geometry": {"type": "Point", "coordinates": [-75.08228, 40.016069]}, "type": "Feature", "properties": {"route": "J", "id": 24573, "name": "Margaret St &amp; Darrah St"}}, {"geometry": {"type": "Point", "coordinates": [-75.094799, 40.023261]}, "type": "Feature", "properties": {"route": "J", "id": 24574, "name": "Arrott St &amp; Adams Av"}}, {"geometry": {"type": "Point", "coordinates": [-75.095354, 40.024004]}, "type": "Feature", "properties": {"route": "J", "id": 24575, "name": "Adams Av &amp; Ramona Av"}}, {"geometry": {"type": "Point", "coordinates": [-75.096878, 40.025971]}, "type": "Feature", "properties": {"route": "J", "id": 24576, "name": "Adams Av &amp; Roosevelt Blvd"}}, {"geometry": {"type": "Point", "coordinates": [-75.117637, 40.028603]}, "type": "Feature", "properties": {"route": "J", "id": 24577, "name": "C St &amp; Ashdale St"}}, {"geometry": {"type": "Point", "coordinates": [-75.120359, 40.030547]}, "type": "Feature", "properties": {"route": "J", "id": 24578, "name": "Fisher Av &amp; A St"}}, {"geometry": {"type": "Point", "coordinates": [-75.122273, 40.030766]}, "type": "Feature", "properties": {"route": "J", "id": 24579, "name": "Fisher Av &amp; Front St"}}, {"geometry": {"type": "Point", "coordinates": [-75.124246, 40.031029]}, "type": "Feature", "properties": {"route": "J", "id": 24580, "name": "Fisher Av &amp; Mascher St"}}, {"geometry": {"type": "Point", "coordinates": [-75.126504, 40.031026]}, "type": "Feature", "properties": {"route": "J", "id": 24581, "name": "2nd St &amp; Fisher Av - FS"}}, {"geometry": {"type": "Point", "coordinates": [-75.12677, 40.029759]}, "type": "Feature", "properties": {"route": "J", "id": 24582, "name": "2nd St &amp; Duncannon Av"}}, {"geometry": {"type": "Point", "coordinates": [-75.127594, 40.027682]}, "type": "Feature", "properties": {"route": "J", "id": 24583, "name": "2nd St &amp; Lindley Av"}}, {"geometry": {"type": "Point", "coordinates": [-75.129211, 40.028444]}, "type": "Feature", "properties": {"route": "J", "id": 24584, "name": "Lindley Av &amp; 3rd St"}}, {"geometry": {"type": "Point", "coordinates": [-75.130203, 40.028589]}, "type": "Feature", "properties": {"route": "J", "id": 24585, "name": "Lindley Av &amp; 4th St"}}, {"geometry": {"type": "Point", "coordinates": [-75.134031, 40.029063]}, "type": "Feature", "properties": {"route": "J", "id": 24586, "name": "Lindley Av &amp; 6th St"}}, {"geometry": {"type": "Point", "coordinates": [-75.137907, 40.029589]}, "type": "Feature", "properties": {"route": "J", "id": 24587, "name": "Lindley Av &amp; 9th St"}}, {"geometry": {"type": "Point", "coordinates": [-75.139537, 40.029772]}, "type": "Feature", "properties": {"route": "J", "id": 24588, "name": "Lindley Av &amp; 10th St"}}, {"geometry": {"type": "Point", "coordinates": [-75.136347, 40.029354]}, "type": "Feature", "properties": {"route": "J", "id": 24589, "name": "Lindley Av &amp; Franklin St"}}, {"geometry": {"type": "Point", "coordinates": [-75.141109, 40.029971]}, "type": "Feature", "properties": {"route": "J", "id": 24590, "name": "Lindley Av &amp; 11th St"}}, {"geometry": {"type": "Point", "coordinates": [-75.142692, 40.030145]}, "type": "Feature", "properties": {"route": "J", "id": 24592, "name": "Lindley Av &amp; 12th St"}}, {"geometry": {"type": "Point", "coordinates": [-75.144312, 40.030229]}, "type": "Feature", "properties": {"route": "J", "id": 24593, "name": "Lindley Av &amp; 13th St"}}, {"geometry": {"type": "Point", "coordinates": [-75.148104, 40.030898]}, "type": "Feature", "properties": {"route": "J", "id": 24594, "name": "Lindley Av &amp; 15th St"}}, {"geometry": {"type": "Point", "coordinates": [-75.149663, 40.031098]}, "type": "Feature", "properties": {"route": "J", "id": 24595, "name": "Lindley Av &amp; 16th St"}}, {"geometry": {"type": "Point", "coordinates": [-75.152204, 40.031433]}, "type": "Feature", "properties": {"route": "J", "id": 24596, "name": "Lindley Av &amp; Ogontz Av"}}, {"geometry": {"type": "Point", "coordinates": [-75.154686, 40.031546]}, "type": "Feature", "properties": {"route": "J", "id": 24597, "name": "Lindley Av &amp; Belfield Av"}}, {"geometry": {"type": "Point", "coordinates": [-75.155767, 40.036386]}, "type": "Feature", "properties": {"route": "J", "id": 24598, "name": "Belfield Av &amp; 20th St - FS"}}, {"geometry": {"type": "Point", "coordinates": [-75.158721, 40.036758]}, "type": "Feature", "properties": {"route": "J", "id": 24599, "name": "Belfield Av &amp; Wister St - FS"}}, {"geometry": {"type": "Point", "coordinates": [-75.160341, 40.036887]}, "type": "Feature", "properties": {"route": "J", "id": 24600, "name": "Belfield Av &amp; Armstrong St"}}, {"geometry": {"type": "Point", "coordinates": [-75.161759, 40.036979]}, "type": "Feature", "properties": {"route": "J", "id": 24601, "name": "Belfield Av &amp; Armstrong St - MBFS"}}, {"geometry": {"type": "Point", "coordinates": [-75.163757, 40.03693]}, "type": "Feature", "properties": {"route": "J", "id": 24602, "name": "Belfield Av &amp; Penn St"}}, {"geometry": {"type": "Point", "coordinates": [-75.165825, 40.037175]}, "type": "Feature", "properties": {"route": "J", "id": 24603, "name": "Belfield Av &amp; Church Ln - MBNS"}}, {"geometry": {"type": "Point", "coordinates": [-75.167598, 40.037464]}, "type": "Feature", "properties": {"route": "J", "id": 24604, "name": "Belfield Av &amp; Church Ln"}}, {"geometry": {"type": "Point", "coordinates": [-75.168746, 40.037226]}, "type": "Feature", "properties": {"route": "J", "id": 24605, "name": "Baynton St &amp; Morton St - FS"}}, {"geometry": {"type": "Point", "coordinates": [-75.170445, 40.038068]}, "type": "Feature", "properties": {"route": "J", "id": 24606, "name": "Baynton St &amp; Armat St"}}, {"geometry": {"type": "Point", "coordinates": [-75.089469, 40.016839]}, "type": "Feature", "properties": {"route": "J", "id": 27817, "name": "Orthodox St &amp; Pilling St"}}, {"geometry": {"type": "Point", "coordinates": [-75.181341, 40.025863]}, "type": "Feature", "properties": {"route": "J", "id": 27967, "name": "School House Ln &amp; Wissahickon - FS"}}, {"geometry": {"type": "Point", "coordinates": [-75.161783, 40.036854]}, "type": "Feature", "properties": {"route": "J", "id": 27968, "name": "Belfield Av &amp; Armstrong St - MBNS"}}, {"geometry": {"type": "Point", "coordinates": [-75.083576, 40.016778]}, "type": "Feature", "properties": {"route": "J", "id": 30465, "name": "Margaret St &amp; Frankford Av"}}, {"geometry": {"type": "Point", "coordinates": [-75.102089, 40.029171]}, "type": "Feature", "properties": {"route": "J", "id": 30824, "name": "Roosevelt Blvd &amp; Adams Av"}}, {"geometry": {"type": "Point", "coordinates": [-75.078129, 40.006793]}, "type": "Feature", "properties": {"route": "J", "id": 30895, "name": "Orthodox St &amp; Melrose St"}}, {"geometry": {"type": "Point", "coordinates": [-75.117837, 40.028729]}, "type": "Feature", "properties": {"route": "J", "id": 30949, "name": "C St &amp; Ashland St"}}, {"geometry": {"type": "Point", "coordinates": [-75.174685, 40.035944]}, "type": "Feature", "properties": {"route": "J", "id": 31000, "name": "Chelten Av &amp; Germantown Av"}}, {"geometry": {"type": "Point", "coordinates": [-75.135709, 40.029281]}, "type": "Feature", "properties": {"route": "J", "id": 31072, "name": "Lindley Av &amp; 7th St"}}, {"geometry": {"type": "Point", "coordinates": [-75.136973, 40.029453]}, "type": "Feature", "properties": {"route": "J", "id": 31073, "name": "Lindley Av &amp; 8th St"}}, {"geometry": {"type": "Point", "coordinates": [-75.077355, 40.012842]}, "type": "Feature", "properties": {"route": "J", "id": 31090, "name": "Margaret St &amp; Ditman St"}}, {"geometry": {"type": "Point", "coordinates": [-75.076128, 40.0076]}, "type": "Feature", "properties": {"route": "J", "id": 31195, "name": "Margaret St &amp; Tacony St"}}, {"geometry": {"type": "Point", "coordinates": [-75.181423, 40.02937]}, "type": "Feature", "properties": {"route": "J", "id": 31669, "name": "Chelten Av &amp; Morris St"}}]}