{"type": "FeatureCollection", "features": [{"geometry": {"type": "Point", "coordinates": [-75.202795, 39.951647]}, "type": "Feature", "properties": {"route": "LUCY", "id": 672, "name": "Spruce St &amp; 40th St - FS"}}, {"geometry": {"type": "Point", "coordinates": [-75.191314, 39.955901]}, "type": "Feature", "properties": {"route": "LUCY", "id": 19026, "name": "Market St &amp; 34th St"}}, {"geometry": {"type": "Point", "coordinates": [-75.202321, 39.955752]}, "type": "Feature", "properties": {"route": "LUCY", "id": 21425, "name": "40th St &amp; Chestnut St"}}, {"geometry": {"type": "Point", "coordinates": [-75.202633, 39.954208]}, "type": "Feature", "properties": {"route": "LUCY", "id": 21426, "name": "40th St &amp; Walnut St"}}, {"geometry": {"type": "Point", "coordinates": [-75.199415, 39.948821]}, "type": "Feature", "properties": {"route": "LUCY", "id": 21435, "name": "University Av &amp; Baltimore Av - MBFS"}}, {"geometry": {"type": "Point", "coordinates": [-75.196815, 39.945835]}, "type": "Feature", "properties": {"route": "LUCY", "id": 21437, "name": "Health Sciences Dr &amp; Civic Ctr Blvd"}}, {"geometry": {"type": "Point", "coordinates": [-75.192671, 39.949112]}, "type": "Feature", "properties": {"route": "LUCY", "id": 21438, "name": "Civic Center Blvd &amp; Convention Av -"}}, {"geometry": {"type": "Point", "coordinates": [-75.189991, 39.952444]}, "type": "Feature", "properties": {"route": "LUCY", "id": 21443, "name": "33rd St &amp; Walnut St"}}, {"geometry": {"type": "Point", "coordinates": [-75.189438, 39.955406]}, "type": "Feature", "properties": {"route": "LUCY", "id": 21445, "name": "33rd St &amp; Market St"}}, {"geometry": {"type": "Point", "coordinates": [-75.199407, 39.951222]}, "type": "Feature", "properties": {"route": "LUCY", "id": 22129, "name": "Spruce St &amp; 38th St"}}, {"geometry": {"type": "Point", "coordinates": [-75.18332, 39.955796]}, "type": "Feature", "properties": {"route": "LUCY", "id": 28325, "name": "JFK Blvd &amp; 30th St"}}, {"geometry": {"type": "Point", "coordinates": [-75.19397, 39.956227]}, "type": "Feature", "properties": {"route": "LUCY", "id": 28327, "name": "Market &amp; 36th St"}}, {"geometry": {"type": "Point", "coordinates": [-75.199043, 39.957843]}, "type": "Feature", "properties": {"route": "LUCY", "id": 28329, "name": "Presbyterian Medical Center"}}, {"geometry": {"type": "Point", "coordinates": [-75.195686, 39.948118]}, "type": "Feature", "properties": {"route": "LUCY", "id": 28333, "name": "Osler Circle &amp; Curie Blvd - MBFS"}}, {"geometry": {"type": "Point", "coordinates": [-75.19593, 39.956472]}, "type": "Feature", "properties": {"route": "LUCY", "id": 30829, "name": "Market St &amp; 37th St"}}, {"geometry": {"type": "Point", "coordinates": [-75.196665, 39.94845]}, "type": "Feature", "properties": {"route": "LUCY", "id": 31388, "name": "Curie Blvd &amp; University Av - MBFS"}}, {"geometry": {"type": "Point", "coordinates": [-75.191683, 39.947905]}, "type": "Feature", "properties": {"route": "LUCY", "id": 31744, "name": "Convention Av &amp; Health Sciences Dr "}}, {"geometry": {"type": "Point", "coordinates": [-75.197878, 39.956716]}, "type": "Feature", "properties": {"route": "LUCY", "id": 32262, "name": "Market St &amp; 38th St"}}]}