{"type": "FeatureCollection", "features": [{"geometry": {"type": "Point", "coordinates": [-75.148887, 40.018128]}, "type": "Feature", "properties": {"route": "R", "id": 4, "name": "Roosevelt Blvd &amp; Broad St - FS"}}, {"geometry": {"type": "Point", "coordinates": [-75.133487, 40.023465]}, "type": "Feature", "properties": {"route": "R", "id": 5, "name": "Roosevelt Blvd &amp; 5th St"}}, {"geometry": {"type": "Point", "coordinates": [-75.090599, 40.029006]}, "type": "Feature", "properties": {"route": "R", "id": 23, "name": "Roosevelt Blvd &amp; Pratt St - FS"}}, {"geometry": {"type": "Point", "coordinates": [-75.101085, 40.029484]}, "type": "Feature", "properties": {"route": "R", "id": 24, "name": "Roosevelt Blvd &amp; Tower Blvd - FS"}}, {"geometry": {"type": "Point", "coordinates": [-75.133011, 40.024267]}, "type": "Feature", "properties": {"route": "R", "id": 25, "name": "Roosevelt Blvd &amp; 5th St"}}, {"geometry": {"type": "Point", "coordinates": [-75.20724, 40.014897]}, "type": "Feature", "properties": {"route": "R", "id": 28, "name": "Wissahickon Trans Ctr - onsite"}}, {"geometry": {"type": "Point", "coordinates": [-75.157992, 40.013935]}, "type": "Feature", "properties": {"route": "R", "id": 48, "name": "Hunting Park Av &amp; Pulaski Av"}}, {"geometry": {"type": "Point", "coordinates": [-75.078298, 40.022966]}, "type": "Feature", "properties": {"route": "R", "id": 111, "name": "Frankford Transportation Center - R"}}, {"geometry": {"type": "Point", "coordinates": [-75.117076, 40.026924]}, "type": "Feature", "properties": {"route": "R", "id": 124, "name": "Roosevelt Blvd &amp; C St"}}, {"geometry": {"type": "Point", "coordinates": [-75.125203, 40.02573]}, "type": "Feature", "properties": {"route": "R", "id": 132, "name": "Roosevelt Blvd &amp; Mascher St"}}, {"geometry": {"type": "Point", "coordinates": [-75.127547, 40.025319]}, "type": "Feature", "properties": {"route": "R", "id": 137, "name": "Roosevelt Blvd &amp; 2nd St"}}, {"geometry": {"type": "Point", "coordinates": [-75.135223, 40.023791]}, "type": "Feature", "properties": {"route": "R", "id": 160, "name": "Roosevelt Blvd &amp; 6th St"}}, {"geometry": {"type": "Point", "coordinates": [-75.137307, 40.02301]}, "type": "Feature", "properties": {"route": "R", "id": 174, "name": "Roosevelt Blvd &amp; 7th St - FS"}}, {"geometry": {"type": "Point", "coordinates": [-75.139558, 40.021873]}, "type": "Feature", "properties": {"route": "R", "id": 204, "name": "Roosevelt Blvd &amp; 9th St"}}, {"geometry": {"type": "Point", "coordinates": [-75.194152, 40.008921]}, "type": "Feature", "properties": {"route": "R", "id": 226, "name": "Ridge Av &amp; Midvale Av"}}, {"geometry": {"type": "Point", "coordinates": [-75.188167, 40.017165]}, "type": "Feature", "properties": {"route": "R", "id": 260, "name": "Midvale Av &amp; Henry Av"}}, {"geometry": {"type": "Point", "coordinates": [-75.176983, 40.004746]}, "type": "Feature", "properties": {"route": "R", "id": 261, "name": "29th St &amp; Allegheny Av"}}, {"geometry": {"type": "Point", "coordinates": [-75.188464, 40.016844]}, "type": "Feature", "properties": {"route": "R", "id": 267, "name": "Midvale Av &amp; Henry Av"}}, {"geometry": {"type": "Point", "coordinates": [-75.171854, 40.00794]}, "type": "Feature", "properties": {"route": "R", "id": 268, "name": "Hunting Park Av &amp; Fox St - FS"}}, {"geometry": {"type": "Point", "coordinates": [-75.178388, 40.004963]}, "type": "Feature", "properties": {"route": "R", "id": 275, "name": "Allegheny Av &amp; Hunting Park Av"}}, {"geometry": {"type": "Point", "coordinates": [-75.18029, 40.005181]}, "type": "Feature", "properties": {"route": "R", "id": 4344, "name": "Allegheny Av &amp; Napa St"}}, {"geometry": {"type": "Point", "coordinates": [-75.181566, 40.005335]}, "type": "Feature", "properties": {"route": "R", "id": 4345, "name": "Allegheny Av &amp; 32nd St"}}, {"geometry": {"type": "Point", "coordinates": [-75.183231, 40.005544]}, "type": "Feature", "properties": {"route": "R", "id": 4346, "name": "Allegheny Av &amp; 33rd St"}}, {"geometry": {"type": "Point", "coordinates": [-75.184779, 40.005761]}, "type": "Feature", "properties": {"route": "R", "id": 4349, "name": "Allegheny Av &amp; 34th St"}}, {"geometry": {"type": "Point", "coordinates": [-75.186362, 40.00596]}, "type": "Feature", "properties": {"route": "R", "id": 4350, "name": "Allegheny Av &amp; 35th St"}}, {"geometry": {"type": "Point", "coordinates": [-75.158809, 40.013544]}, "type": "Feature", "properties": {"route": "R", "id": 8709, "name": "Hunting Park Av &amp; 19th St"}}, {"geometry": {"type": "Point", "coordinates": [-75.164504, 40.010923]}, "type": "Feature", "properties": {"route": "R", "id": 8712, "name": "Hunting Park Av &amp; 22nd St"}}, {"geometry": {"type": "Point", "coordinates": [-75.185027, 40.005681]}, "type": "Feature", "properties": {"route": "R", "id": 15005, "name": "Allegheny Av &amp; 34th St"}}, {"geometry": {"type": "Point", "coordinates": [-75.183456, 40.005473]}, "type": "Feature", "properties": {"route": "R", "id": 15006, "name": "Allegheny Av &amp; 33rd St"}}, {"geometry": {"type": "Point", "coordinates": [-75.181826, 40.005247]}, "type": "Feature", "properties": {"route": "R", "id": 15007, "name": "Allegheny Av &amp; 32nd St"}}, {"geometry": {"type": "Point", "coordinates": [-75.180675, 40.010055]}, "type": "Feature", "properties": {"route": "R", "id": 16004, "name": "Henry Av &amp; Roberts Av - MBFS"}}, {"geometry": {"type": "Point", "coordinates": [-75.182029, 40.011557]}, "type": "Feature", "properties": {"route": "R", "id": 16005, "name": "Henry Av &amp; Abbottsford Av"}}, {"geometry": {"type": "Point", "coordinates": [-75.183384, 40.012782]}, "type": "Feature", "properties": {"route": "R", "id": 16006, "name": "Henry Av &amp; Indian Queen Ln - MBNS"}}, {"geometry": {"type": "Point", "coordinates": [-75.184715, 40.013918]}, "type": "Feature", "properties": {"route": "R", "id": 16007, "name": "Henry Av &amp; Bowman St"}}, {"geometry": {"type": "Point", "coordinates": [-75.185788, 40.014849]}, "type": "Feature", "properties": {"route": "R", "id": 16008, "name": "Henry Av &amp; Ainslie St"}}, {"geometry": {"type": "Point", "coordinates": [-75.186943, 40.015842]}, "type": "Feature", "properties": {"route": "R", "id": 16009, "name": "Henry Av &amp; Queen Ln"}}, {"geometry": {"type": "Point", "coordinates": [-75.187191, 40.015878]}, "type": "Feature", "properties": {"route": "R", "id": 16533, "name": "Henry Av &amp; Queen Ln"}}, {"geometry": {"type": "Point", "coordinates": [-75.186071, 40.014912]}, "type": "Feature", "properties": {"route": "R", "id": 16534, "name": "Henry Av &amp; Ainslie St"}}, {"geometry": {"type": "Point", "coordinates": [-75.18494, 40.013928]}, "type": "Feature", "properties": {"route": "R", "id": 16535, "name": "Henry Av &amp;  Bowman St"}}, {"geometry": {"type": "Point", "coordinates": [-75.178305, 40.005141]}, "type": "Feature", "properties": {"route": "R", "id": 16537, "name": "Hunting Park Av &amp; Henry Av - FS"}}, {"geometry": {"type": "Point", "coordinates": [-75.176884, 40.005897]}, "type": "Feature", "properties": {"route": "R", "id": 16538, "name": "Hunting Park Av &amp; 29th St"}}, {"geometry": {"type": "Point", "coordinates": [-75.189418, 40.007385]}, "type": "Feature", "properties": {"route": "R", "id": 18008, "name": "Ridge Av &amp; Scotts Ln - MBFS"}}, {"geometry": {"type": "Point", "coordinates": [-75.196335, 40.009906]}, "type": "Feature", "properties": {"route": "R", "id": 18013, "name": "Ridge Av &amp; Calumet St"}}, {"geometry": {"type": "Point", "coordinates": [-75.197551, 40.010364]}, "type": "Feature", "properties": {"route": "R", "id": 18014, "name": "Ridge Av &amp; Merrick Rd"}}, {"geometry": {"type": "Point", "coordinates": [-75.204547, 40.014384]}, "type": "Feature", "properties": {"route": "R", "id": 18017, "name": "Ridge Av &amp; I-76 Ramp FJ"}}, {"geometry": {"type": "Point", "coordinates": [-75.166717, 40.010035]}, "type": "Feature", "properties": {"route": "R", "id": 18218, "name": "Hunting Park Av &amp; Wissahickon Av"}}, {"geometry": {"type": "Point", "coordinates": [-75.170221, 40.008516]}, "type": "Feature", "properties": {"route": "R", "id": 18272, "name": "Hunting Park Av &amp; Stokely St"}}, {"geometry": {"type": "Point", "coordinates": [-75.172102, 40.008012]}, "type": "Feature", "properties": {"route": "R", "id": 18321, "name": "Hunting Park Av &amp; Fox St"}}, {"geometry": {"type": "Point", "coordinates": [-75.175463, 40.00676]}, "type": "Feature", "properties": {"route": "R", "id": 18331, "name": "Hunting Pk Av &amp; Westmoreland St - M"}}, {"geometry": {"type": "Point", "coordinates": [-75.204535, 40.014277]}, "type": "Feature", "properties": {"route": "R", "id": 18394, "name": "Ridge Av &amp; I-76 Ramp FJ - FS"}}, {"geometry": {"type": "Point", "coordinates": [-75.202198, 40.013166]}, "type": "Feature", "properties": {"route": "R", "id": 18395, "name": "Ridge Av &amp; School House Ln"}}, {"geometry": {"type": "Point", "coordinates": [-75.197882, 40.010364]}, "type": "Feature", "properties": {"route": "R", "id": 18396, "name": "Ridge Av &amp; Merrick Rd"}}, {"geometry": {"type": "Point", "coordinates": [-75.196619, 40.00988]}, "type": "Feature", "properties": {"route": "R", "id": 18397, "name": "Ridge Av &amp; Calumet St"}}, {"geometry": {"type": "Point", "coordinates": [-75.191933, 40.00797]}, "type": "Feature", "properties": {"route": "R", "id": 18400, "name": "Ridge Av &amp; Ferry Rd"}}, {"geometry": {"type": "Point", "coordinates": [-75.18349, 40.012702]}, "type": "Feature", "properties": {"route": "R", "id": 19703, "name": "Henry Av &amp; Indian Queen Ln - MBFS"}}, {"geometry": {"type": "Point", "coordinates": [-75.149088, 40.018173]}, "type": "Feature", "properties": {"route": "R", "id": 20856, "name": "Roosevelt Blvd &amp; Broad St"}}, {"geometry": {"type": "Point", "coordinates": [-75.166292, 40.010088]}, "type": "Feature", "properties": {"route": "R", "id": 21198, "name": "Hunting Park Av &amp; Pacific St"}}, {"geometry": {"type": "Point", "coordinates": [-75.193915, 40.009072]}, "type": "Feature", "properties": {"route": "R", "id": 21229, "name": "Midvale Av &amp; Ridge Av"}}, {"geometry": {"type": "Point", "coordinates": [-75.193844, 40.008902]}, "type": "Feature", "properties": {"route": "R", "id": 21626, "name": "Ridge Av &amp; Midvale Av"}}, {"geometry": {"type": "Point", "coordinates": [-75.189336, 40.007198]}, "type": "Feature", "properties": {"route": "R", "id": 21957, "name": "Ridge Av &amp; Scotts Ln - MBNS"}}, {"geometry": {"type": "Point", "coordinates": [-75.077621, 40.023723]}, "type": "Feature", "properties": {"route": "R", "id": 21965, "name": "Frankford Transportation Center - R"}}, {"geometry": {"type": "Point", "coordinates": [-75.18661, 40.005872]}, "type": "Feature", "properties": {"route": "R", "id": 22386, "name": "Allegheny Av &amp; 35th St"}}, {"geometry": {"type": "Point", "coordinates": [-75.174516, 40.007106]}, "type": "Feature", "properties": {"route": "R", "id": 22397, "name": "Hunting Park Av &amp; Westmoreland St"}}, {"geometry": {"type": "Point", "coordinates": [-75.170482, 40.008338]}, "type": "Feature", "properties": {"route": "R", "id": 22400, "name": "Hunting Park Av &amp; Stokely St"}}, {"geometry": {"type": "Point", "coordinates": [-75.16815, 40.009235]}, "type": "Feature", "properties": {"route": "R", "id": 22401, "name": "Hunting Park Av &amp; 24th St"}}, {"geometry": {"type": "Point", "coordinates": [-75.161023, 40.01254]}, "type": "Feature", "properties": {"route": "R", "id": 22403, "name": "Hunting Park Av &amp; 20th St"}}, {"geometry": {"type": "Point", "coordinates": [-75.154014, 40.015774]}, "type": "Feature", "properties": {"route": "R", "id": 22404, "name": "Hunting Park Av &amp; Germantown Av"}}, {"geometry": {"type": "Point", "coordinates": [-75.150047, 40.017595]}, "type": "Feature", "properties": {"route": "R", "id": 22405, "name": "Hunting Park Av &amp; Broad St"}}, {"geometry": {"type": "Point", "coordinates": [-75.140425, 40.020643]}, "type": "Feature", "properties": {"route": "R", "id": 22406, "name": "Roosevelt Blvd &amp; 9th St"}}, {"geometry": {"type": "Point", "coordinates": [-75.12562, 40.024982]}, "type": "Feature", "properties": {"route": "R", "id": 22407, "name": "Roosevelt Blvd &amp; Mascher St"}}, {"geometry": {"type": "Point", "coordinates": [-75.122024, 40.025499]}, "type": "Feature", "properties": {"route": "R", "id": 22408, "name": "Roosevelt Blvd &amp; Rising Sun - FS"}}, {"geometry": {"type": "Point", "coordinates": [-75.11689, 40.026254]}, "type": "Feature", "properties": {"route": "R", "id": 22409, "name": "Roosevelt Blvd &amp; C St - FS"}}, {"geometry": {"type": "Point", "coordinates": [-75.121548, 40.026248]}, "type": "Feature", "properties": {"route": "R", "id": 23046, "name": "Roosevelt Blvd &amp; Rising Sun Av"}}, {"geometry": {"type": "Point", "coordinates": [-75.123204, 40.026002]}, "type": "Feature", "properties": {"route": "R", "id": 23047, "name": "Roosevelt Blvd &amp; Front St"}}, {"geometry": {"type": "Point", "coordinates": [-75.149585, 40.017951]}, "type": "Feature", "properties": {"route": "R", "id": 23048, "name": "Roosevelt Blvd &amp; Broad St - FS"}}, {"geometry": {"type": "Point", "coordinates": [-75.153741, 40.016032]}, "type": "Feature", "properties": {"route": "R", "id": 23049, "name": "Hunting Park Av &amp; Germantown Av"}}, {"geometry": {"type": "Point", "coordinates": [-75.156547, 40.014771]}, "type": "Feature", "properties": {"route": "R", "id": 23050, "name": "Hunting Park Av &amp; Clarrisa St"}}, {"geometry": {"type": "Point", "coordinates": [-75.176742, 40.005817]}, "type": "Feature", "properties": {"route": "R", "id": 23051, "name": "29th St &amp; Hunting Park Av - FS"}}, {"geometry": {"type": "Point", "coordinates": [-75.187685, 40.006115]}, "type": "Feature", "properties": {"route": "R", "id": 23052, "name": "Allegheny Av &amp; Ridge Av"}}, {"geometry": {"type": "Point", "coordinates": [-75.163119, 40.011563]}, "type": "Feature", "properties": {"route": "R", "id": 23265, "name": "Hunting Park Av &amp; 21st St"}}, {"geometry": {"type": "Point", "coordinates": [-75.156867, 40.014468]}, "type": "Feature", "properties": {"route": "R", "id": 23266, "name": "Hunting Park Av &amp; 18th St"}}, {"geometry": {"type": "Point", "coordinates": [-75.155328, 40.015161]}, "type": "Feature", "properties": {"route": "R", "id": 23267, "name": "Hunting Park Av &amp; 17th St"}}, {"geometry": {"type": "Point", "coordinates": [-75.15161, 40.016884]}, "type": "Feature", "properties": {"route": "R", "id": 23268, "name": "Hunting Park Av &amp; 16th St"}}, {"geometry": {"type": "Point", "coordinates": [-75.158631, 40.013743]}, "type": "Feature", "properties": {"route": "R", "id": 23270, "name": "Hunting Park Av &amp; 19th St"}}, {"geometry": {"type": "Point", "coordinates": [-75.160845, 40.012754]}, "type": "Feature", "properties": {"route": "R", "id": 23271, "name": "Hunting Park Av &amp; Blaine St"}}, {"geometry": {"type": "Point", "coordinates": [-75.162952, 40.011777]}, "type": "Feature", "properties": {"route": "R", "id": 23272, "name": "Hunting Park Av &amp; Blabon St"}}, {"geometry": {"type": "Point", "coordinates": [-75.164136, 40.011226]}, "type": "Feature", "properties": {"route": "R", "id": 23273, "name": "Hunting Park Av &amp; Schuyler St"}}, {"geometry": {"type": "Point", "coordinates": [-75.0931, 40.027612]}, "type": "Feature", "properties": {"route": "R", "id": 23276, "name": "Roosevelt Blvd &amp; Allengrove St - FS"}}, {"geometry": {"type": "Point", "coordinates": [-75.094451, 40.026884]}, "type": "Feature", "properties": {"route": "R", "id": 23287, "name": "Roosevelt Blvd &amp; Fillmore Ter"}}, {"geometry": {"type": "Point", "coordinates": [-75.096626, 40.026756]}, "type": "Feature", "properties": {"route": "R", "id": 23290, "name": "Roosevelt Blvd &amp; Summerdale Av"}}, {"geometry": {"type": "Point", "coordinates": [-75.098525, 40.027823]}, "type": "Feature", "properties": {"route": "R", "id": 23292, "name": "Roosevelt Blvd &amp; Langdon St"}}, {"geometry": {"type": "Point", "coordinates": [-75.106426, 40.029414]}, "type": "Feature", "properties": {"route": "R", "id": 23298, "name": "Roosevelt Blvd &amp; Garland St"}}, {"geometry": {"type": "Point", "coordinates": [-75.114533, 40.027302]}, "type": "Feature", "properties": {"route": "R", "id": 23300, "name": "Roosevelt Blvd &amp; Bingham St"}}, {"geometry": {"type": "Point", "coordinates": [-75.109907, 40.028316]}, "type": "Feature", "properties": {"route": "R", "id": 23301, "name": "Roosevelt Blvd &amp; F St"}}, {"geometry": {"type": "Point", "coordinates": [-75.119312, 40.02659]}, "type": "Feature", "properties": {"route": "R", "id": 23302, "name": "Roosevelt Blvd &amp; B St"}}, {"geometry": {"type": "Point", "coordinates": [-75.130491, 40.024734]}, "type": "Feature", "properties": {"route": "R", "id": 23303, "name": "Roosevelt Blvd &amp; 4th St"}}, {"geometry": {"type": "Point", "coordinates": [-75.1413, 40.020953]}, "type": "Feature", "properties": {"route": "R", "id": 23304, "name": "Roosevelt Blvd &amp; 10th St"}}, {"geometry": {"type": "Point", "coordinates": [-75.147501, 40.018901]}, "type": "Feature", "properties": {"route": "R", "id": 23305, "name": "Roosevelt Blvd &amp; Old York Rd - FS"}}, {"geometry": {"type": "Point", "coordinates": [-75.147336, 40.018811]}, "type": "Feature", "properties": {"route": "R", "id": 23306, "name": "Roosevelt Blvd &amp; Old York Rd"}}, {"geometry": {"type": "Point", "coordinates": [-75.138329, 40.021691]}, "type": "Feature", "properties": {"route": "R", "id": 23307, "name": "Roosevelt Blvd &amp; Courtland St"}}, {"geometry": {"type": "Point", "coordinates": [-75.135664, 40.022899]}, "type": "Feature", "properties": {"route": "R", "id": 23308, "name": "Roosevelt Blvd &amp; Wyoming Av"}}, {"geometry": {"type": "Point", "coordinates": [-75.130423, 40.024109]}, "type": "Feature", "properties": {"route": "R", "id": 23309, "name": "Roosevelt Blvd &amp; 3rd St"}}, {"geometry": {"type": "Point", "coordinates": [-75.127536, 40.024665]}, "type": "Feature", "properties": {"route": "R", "id": 23310, "name": "Roosevelt Blvd &amp; 2nd St - FS"}}, {"geometry": {"type": "Point", "coordinates": [-75.123692, 40.025271]}, "type": "Feature", "properties": {"route": "R", "id": 23311, "name": "Roosevelt Blvd &amp; Front St"}}, {"geometry": {"type": "Point", "coordinates": [-75.119552, 40.025868]}, "type": "Feature", "properties": {"route": "R", "id": 23312, "name": "Roosevelt Blvd &amp; B St"}}, {"geometry": {"type": "Point", "coordinates": [-75.114525, 40.026579]}, "type": "Feature", "properties": {"route": "R", "id": 23313, "name": "Roosevelt Blvd &amp; Rorer St"}}, {"geometry": {"type": "Point", "coordinates": [-75.110064, 40.027513]}, "type": "Feature", "properties": {"route": "R", "id": 23314, "name": "Roosevelt Blvd &amp; F St"}}, {"geometry": {"type": "Point", "coordinates": [-75.106074, 40.028779]}, "type": "Feature", "properties": {"route": "R", "id": 23316, "name": "Roosevelt Blvd &amp; Whitaker Av"}}, {"geometry": {"type": "Point", "coordinates": [-75.099224, 40.027378]}, "type": "Feature", "properties": {"route": "R", "id": 23319, "name": "Roosevelt Blvd &amp; Langdon St"}}, {"geometry": {"type": "Point", "coordinates": [-75.096559, 40.026006]}, "type": "Feature", "properties": {"route": "R", "id": 23320, "name": "Roosevelt Blvd &amp; Summerdale Av - FS"}}, {"geometry": {"type": "Point", "coordinates": [-75.095058, 40.025993]}, "type": "Feature", "properties": {"route": "R", "id": 23321, "name": "Roosevelt Blvd &amp; Foulkrod St"}}, {"geometry": {"type": "Point", "coordinates": [-75.09295, 40.026835]}, "type": "Feature", "properties": {"route": "R", "id": 23322, "name": "Roosevelt Blvd &amp; Allengrove St"}}, {"geometry": {"type": "Point", "coordinates": [-75.088073, 40.028223]}, "type": "Feature", "properties": {"route": "R", "id": 23592, "name": "Pratt St &amp; Castor Av"}}, {"geometry": {"type": "Point", "coordinates": [-75.08114, 40.024339]}, "type": "Feature", "properties": {"route": "R", "id": 23594, "name": "Pratt St &amp; Saul St"}}, {"geometry": {"type": "Point", "coordinates": [-75.082555, 40.025147]}, "type": "Feature", "properties": {"route": "R", "id": 23595, "name": "Pratt St &amp; Oakland St"}}, {"geometry": {"type": "Point", "coordinates": [-75.084642, 40.026304]}, "type": "Feature", "properties": {"route": "R", "id": 23596, "name": "Pratt St &amp; Oxford Av"}}, {"geometry": {"type": "Point", "coordinates": [-75.085891, 40.027003]}, "type": "Feature", "properties": {"route": "R", "id": 23597, "name": "Pratt St &amp; Large St"}}, {"geometry": {"type": "Point", "coordinates": [-75.086988, 40.027604]}, "type": "Feature", "properties": {"route": "R", "id": 23598, "name": "Pratt St &amp; Rutland St"}}, {"geometry": {"type": "Point", "coordinates": [-75.089169, 40.028833]}, "type": "Feature", "properties": {"route": "R", "id": 23599, "name": "Pratt St &amp; Roosevelt Blvd"}}, {"geometry": {"type": "Point", "coordinates": [-75.089158, 40.02869]}, "type": "Feature", "properties": {"route": "R", "id": 23769, "name": "Pratt St &amp; Roosevelt Blvd - FS"}}, {"geometry": {"type": "Point", "coordinates": [-75.088356, 40.028224]}, "type": "Feature", "properties": {"route": "R", "id": 23770, "name": "Pratt St &amp; Castor Av"}}, {"geometry": {"type": "Point", "coordinates": [-75.087201, 40.027587]}, "type": "Feature", "properties": {"route": "R", "id": 23771, "name": "Pratt St &amp; Rutland St"}}, {"geometry": {"type": "Point", "coordinates": [-75.086104, 40.026986]}, "type": "Feature", "properties": {"route": "R", "id": 23772, "name": "Pratt St &amp; Large St"}}, {"geometry": {"type": "Point", "coordinates": [-75.084454, 40.026035]}, "type": "Feature", "properties": {"route": "R", "id": 23773, "name": "Pratt St &amp; Horrocks St"}}, {"geometry": {"type": "Point", "coordinates": [-75.082839, 40.025147]}, "type": "Feature", "properties": {"route": "R", "id": 23774, "name": "Pratt St &amp; Oakland St"}}, {"geometry": {"type": "Point", "coordinates": [-75.081412, 40.024349]}, "type": "Feature", "properties": {"route": "R", "id": 23775, "name": "Pratt St &amp; Saul St"}}, {"geometry": {"type": "Point", "coordinates": [-75.201398, 40.012192]}, "type": "Feature", "properties": {"route": "R", "id": 24116, "name": "Ridge Av &amp; School House Ln - MBFS"}}, {"geometry": {"type": "Point", "coordinates": [-75.199416, 40.011001]}, "type": "Feature", "properties": {"route": "R", "id": 24117, "name": "Ridge Av &amp; Merrick Rd - MBNS"}}, {"geometry": {"type": "Point", "coordinates": [-75.180491, 40.005074]}, "type": "Feature", "properties": {"route": "R", "id": 24646, "name": "Allegheny Av &amp; Napa St"}}, {"geometry": {"type": "Point", "coordinates": [-75.186153, 40.018536]}, "type": "Feature", "properties": {"route": "R", "id": 24728, "name": "Midvale Av &amp; McMichael St"}}, {"geometry": {"type": "Point", "coordinates": [-75.190123, 40.015509]}, "type": "Feature", "properties": {"route": "R", "id": 24729, "name": "Midvale Av &amp; Vaux St - FS"}}, {"geometry": {"type": "Point", "coordinates": [-75.191841, 40.014298]}, "type": "Feature", "properties": {"route": "R", "id": 24730, "name": "Midvale Av &amp; Warden Dr"}}, {"geometry": {"type": "Point", "coordinates": [-75.192996, 40.011605]}, "type": "Feature", "properties": {"route": "R", "id": 24731, "name": "Midvale Av &amp; Cresson St - FS"}}, {"geometry": {"type": "Point", "coordinates": [-75.192831, 40.011587]}, "type": "Feature", "properties": {"route": "R", "id": 24778, "name": "Midvale Av &amp; Cresson St"}}, {"geometry": {"type": "Point", "coordinates": [-75.191842, 40.014102]}, "type": "Feature", "properties": {"route": "R", "id": 24779, "name": "Midvale Av &amp; Conrad St"}}, {"geometry": {"type": "Point", "coordinates": [-75.189982, 40.015437]}, "type": "Feature", "properties": {"route": "R", "id": 24780, "name": "Midvale Av &amp; Vaux St"}}, {"geometry": {"type": "Point", "coordinates": [-75.180286, 40.009724]}, "type": "Feature", "properties": {"route": "R", "id": 25819, "name": "Roberts Av &amp; Henry Av"}}, {"geometry": {"type": "Point", "coordinates": [-75.184905, 40.017275]}, "type": "Feature", "properties": {"route": "R", "id": 25820, "name": "Queen Ln &amp; McMichael St"}}, {"geometry": {"type": "Point", "coordinates": [-75.184223, 40.019665]}, "type": "Feature", "properties": {"route": "R", "id": 25821, "name": "Fox St &amp; Midvale Av - detour"}}, {"geometry": {"type": "Point", "coordinates": [-75.18191, 40.011655]}, "type": "Feature", "properties": {"route": "R", "id": 25822, "name": "Abbottsford Av &amp; Henry Av - FS"}}, {"geometry": {"type": "Point", "coordinates": [-75.180145, 40.012865]}, "type": "Feature", "properties": {"route": "R", "id": 25823, "name": "Abbottsford Av &amp; Henry Av - MBFS"}}, {"geometry": {"type": "Point", "coordinates": [-75.178178, 40.014236]}, "type": "Feature", "properties": {"route": "R", "id": 25824, "name": "Abbottsford Av &amp; Fox St"}}, {"geometry": {"type": "Point", "coordinates": [-75.175105, 40.010981]}, "type": "Feature", "properties": {"route": "R", "id": 25825, "name": "Fox St &amp; Roberts Av - MBFS"}}, {"geometry": {"type": "Point", "coordinates": [-75.174034, 40.009774]}, "type": "Feature", "properties": {"route": "R", "id": 25826, "name": "Fox St &amp; Bakers Centre - FS"}}, {"geometry": {"type": "Point", "coordinates": [-75.176153, 40.012108]}, "type": "Feature", "properties": {"route": "R", "id": 25827, "name": "Fox St &amp; Roberts Av"}}, {"geometry": {"type": "Point", "coordinates": [-75.091065, 40.027865]}, "type": "Feature", "properties": {"route": "R", "id": 25828, "name": "Roosevelt Blvd &amp; Godfrey Av"}}, {"geometry": {"type": "Point", "coordinates": [-75.151041, 40.017284]}, "type": "Feature", "properties": {"route": "R", "id": 27462, "name": "Hunting Park Av &amp; 15th St"}}, {"geometry": {"type": "Point", "coordinates": [-75.155186, 40.015357]}, "type": "Feature", "properties": {"route": "R", "id": 27463, "name": "Hunting Park Av &amp; 17th St"}}, {"geometry": {"type": "Point", "coordinates": [-75.193121, 40.00982]}, "type": "Feature", "properties": {"route": "R", "id": 27752, "name": "Midvale Av &amp; Creswell St"}}, {"geometry": {"type": "Point", "coordinates": [-75.193262, 40.00991]}, "type": "Feature", "properties": {"route": "R", "id": 27755, "name": "Midvale Av &amp; Creswell St"}}, {"geometry": {"type": "Point", "coordinates": [-75.079926, 40.023729]}, "type": "Feature", "properties": {"route": "R", "id": 30219, "name": "Penn St &amp; Pratt St"}}, {"geometry": {"type": "Point", "coordinates": [-75.102089, 40.029171]}, "type": "Feature", "properties": {"route": "R", "id": 30824, "name": "Roosevelt Blvd &amp; Adams Av"}}, {"geometry": {"type": "Point", "coordinates": [-75.190847, 40.007683]}, "type": "Feature", "properties": {"route": "R", "id": 30916, "name": "Ridge Av &amp; Ferry Rd - FS"}}, {"geometry": {"type": "Point", "coordinates": [-75.175086, 40.00958]}, "type": "Feature", "properties": {"route": "R", "id": 31720, "name": "Bakers Centre &amp; Fox St - onsite 1"}}, {"geometry": {"type": "Point", "coordinates": [-75.177812, 40.010817]}, "type": "Feature", "properties": {"route": "R", "id": 31745, "name": "Bakers Center &amp; Roberts Av"}}, {"geometry": {"type": "Point", "coordinates": [-75.20195, 40.013085]}, "type": "Feature", "properties": {"route": "R", "id": 32269, "name": "Ridge Av &amp; School House Ln"}}]}