[{"lng":-75.2622,"lat":39.989386,"stopid":188,"stopname":"Lankenau Medical Center"},{"lng":-75.246264,"lat":39.983955,"stopid":293,"stopname":"Malvern Av &amp; 63rd St Loop"},{"lng":-75.257216,"lat":39.974091,"stopid":560,"stopname":"Lansdowne Av &amp; Haverford Av"},{"lng":-75.289491,"lat":40.008412,"stopid":694,"stopname":"Coulter Av &amp; Saint Georges Rd"},{"lng":-75.272864,"lat":40.001418,"stopid":2004,"stopname":"Wynnewood Shopping Center"},{"lng":-75.318,"lat":40.0214,"stopid":2007,"stopname":"Lancaster Av &amp; Bryn Mawr Av - FS"},{"lng":-75.317386,"lat":40.020944,"stopid":2018,"stopname":"Lancaster Av &amp; Bryn Mawr Av - FS"},{"lng":-75.258601,"lat":39.96282,"stopid":2024,"stopname":"69th St Transportation Center North"},{"lng":-75.257133,"lat":39.973992,"stopid":9292,"stopname":"Lansdowne Av &amp; Haverford Av - MBFS"},{"lng":-75.252581,"lat":39.980671,"stopid":10185,"stopname":"Malvern Av &amp; 65th St"},{"lng":-75.249765,"lat":39.982193,"stopid":10188,"stopname":"Malvern Av &amp; 64th St - MBFS"},{"lng":-75.248476,"lat":39.982834,"stopid":10189,"stopname":"Malvern Av &amp; Wynnewood Rd"},{"lng":-75.28908,"lat":40.006974,"stopid":14826,"stopname":"Lancaster Av &amp; Rittenhouse Place"},{"lng":-75.29509,"lat":40.010006,"stopid":18875,"stopname":"Lancaster Av &amp; Greenfield Av"},{"lng":-75.29478,"lat":40.011622,"stopid":18877,"stopname":"Woodside Av &amp; Montgomery Av"},{"lng":-75.290127,"lat":40.009528,"stopid":18878,"stopname":"Montgomery Av &amp; Anderson Av"},{"lng":-75.287034,"lat":40.007847,"stopid":18880,"stopname":"Coulter Av &amp; Glenn Rd"},{"lng":-75.284019,"lat":40.008646,"stopid":18882,"stopname":"Llanfair Rd &amp; Montgomery Av"},{"lng":-75.288887,"lat":40.009411,"stopid":18884,"stopname":"Montgomery Av &amp; Saint Georges Rd"},{"lng":-75.294972,"lat":40.009783,"stopid":18887,"stopname":"Lancaster Av &amp; Greenfield Av - FS"},{"lng":-75.293154,"lat":40.00888,"stopid":18888,"stopname":"Lancaster Av &amp; Ardmore Av"},{"lng":-75.290332,"lat":40.007431,"stopid":18889,"stopname":"Lancaster Av &amp; Cricket Av - MBFS"},{"lng":-75.253319,"lat":39.987892,"stopid":19300,"stopname":"Lancaster Av &amp; Church Rd"},{"lng":-75.251749,"lat":39.987131,"stopid":19301,"stopname":"Lancaster Av &amp; Overbrook Av - FS"},{"lng":-75.250923,"lat":39.986693,"stopid":19302,"stopname":"Lancaster Av &amp; Sherwood Rd"},{"lng":-75.248351,"lat":39.985466,"stopid":19303,"stopname":"Lancaster Av &amp; Woodbine Av"},{"lng":-75.24789,"lat":39.985421,"stopid":19304,"stopname":"Lancaster Av &amp; Woodbine Av"},{"lng":-75.250451,"lat":39.986656,"stopid":19305,"stopname":"Lancaster Av &amp; Sherwood Rd"},{"lng":-75.251619,"lat":39.987238,"stopid":19306,"stopname":"Lancaster Av &amp; Overbrook Rd"},{"lng":-75.264779,"lat":39.993022,"stopid":19309,"stopname":"Lancaster Av &amp; Indian Creek Rd"},{"lng":-75.267539,"lat":39.995328,"stopid":19311,"stopname":"Lancaster Av &amp; Remington Rd"},{"lng":-75.27129,"lat":39.998456,"stopid":19312,"stopname":"Lancaster Av &amp; Stanford Dr - FS"},{"lng":-75.275182,"lat":40.00163,"stopid":19313,"stopname":"Wynnewood Rd &amp; Lancaster Av - FS"},{"lng":-75.271529,"lat":40.002482,"stopid":19314,"stopname":"Williams Rd &amp; Wynnewood Rd"},{"lng":-75.273313,"lat":40.002448,"stopid":19315,"stopname":"Wynnewood Rd &amp; Penn Rd"},{"lng":-75.27751,"lat":40.001802,"stopid":19316,"stopname":"Lancaster Av &amp; W Old Wynnewood Rd"},{"lng":-75.28267,"lat":40.003843,"stopid":19318,"stopname":"Lancaster Av &amp; Chatham Rd - MBNS"},{"lng":-75.287876,"lat":40.00642,"stopid":19319,"stopname":"Lancaster Av &amp; Argyle Rd"},{"lng":-75.290816,"lat":40.007833,"stopid":19320,"stopname":"Lancaster Av &amp; Station Av - FS"},{"lng":-75.293295,"lat":40.009085,"stopid":19321,"stopname":"Lancaster Av &amp; Ardmore Av - FS"},{"lng":-75.297121,"lat":40.011062,"stopid":19323,"stopname":"Lancaster Av &amp; Wyoming Av"},{"lng":-75.299152,"lat":40.012072,"stopid":19324,"stopname":"Lancaster Av &amp; College Ln"},{"lng":-75.301136,"lat":40.013065,"stopid":19325,"stopname":"Lancaster Av &amp; Haverford Sta Rd"},{"lng":-75.305895,"lat":40.015471,"stopid":19327,"stopname":"Lancaster Av &amp; N Buck Ln"},{"lng":-75.309839,"lat":40.017385,"stopid":19328,"stopname":"Lancaster Av &amp; Barrett Av"},{"lng":-75.31311,"lat":40.019057,"stopid":19330,"stopname":"Lancaster Av &amp; Lee Av"},{"lng":-75.32243,"lat":40.023572,"stopid":19334,"stopname":"Lancaster Av &amp; Warner Av"},{"lng":-75.324343,"lat":40.024475,"stopid":19335,"stopname":"Lancaster Av &amp; Roberts Rd - FS"},{"lng":-75.325713,"lat":40.025181,"stopid":19336,"stopname":"Lancaster Av &amp; Montrose Av"},{"lng":-75.272752,"lat":39.999565,"stopid":19382,"stopname":"Lancaster Av &amp; Clover Hill Rd"},{"lng":-75.325856,"lat":40.025074,"stopid":19432,"stopname":"Lancaster Av &amp; Montrose Av - FS"},{"lng":-75.324757,"lat":40.024529,"stopid":19433,"stopname":"Lancaster Av &amp; Roberts Rd"},{"lng":-75.322702,"lat":40.023528,"stopid":19434,"stopname":"Lancaster Av &amp; Warner Av"},{"lng":-75.320186,"lat":40.022303,"stopid":19436,"stopname":"Lancaster Av &amp; Summit Grove Av"},{"lng":-75.313666,"lat":40.019048,"stopid":19438,"stopname":"Lancaster &amp; Old Lancaster Rd"},{"lng":-75.311446,"lat":40.017975,"stopid":19439,"stopname":"Lancaster Av &amp; Penn St"},{"lng":-75.309485,"lat":40.017036,"stopid":19440,"stopname":"Lancaster Av &amp; Old Buck Ln"},{"lng":-75.306249,"lat":40.015462,"stopid":19441,"stopname":"Lancaster Av &amp; Buck Ln"},{"lng":-75.301597,"lat":40.013119,"stopid":19443,"stopname":"Lancaster Av &amp; Haverford Station Rd"},{"lng":-75.299223,"lat":40.01193,"stopid":19444,"stopname":"Lancaster Av &amp; College Ln - FS"},{"lng":-75.297452,"lat":40.011026,"stopid":19445,"stopname":"Lancaster Av &amp; Wyoming Av"},{"lng":-75.28803,"lat":40.006295,"stopid":19446,"stopname":"Lancaster Av &amp; Argyle Rd - FS"},{"lng":-75.285964,"lat":40.005257,"stopid":19447,"stopname":"Lancaster Av &amp; Church Rd"},{"lng":-75.282092,"lat":40.003361,"stopid":19449,"stopname":"Lancaster Av &amp; Chatham Rd - MBFS"},{"lng":-75.278231,"lat":40.001865,"stopid":19450,"stopname":"Lancaster Av &amp; Old Wynnewood Rd"},{"lng":-75.273225,"lat":39.999619,"stopid":19452,"stopname":"Lancaster Av &amp; Clover Hill Rd"},{"lng":-75.27129,"lat":39.998215,"stopid":19453,"stopname":"Lancaster Av &amp; Stanford Rd"},{"lng":-75.267964,"lat":39.995444,"stopid":19454,"stopname":"Lancaster Av &amp; Remington Rd"},{"lng":-75.266254,"lat":39.994014,"stopid":19455,"stopname":"Lancaster Av &amp; 324"},{"lng":-75.258788,"lat":39.973414,"stopid":19536,"stopname":"Lansdowne Av &amp; Haverford Av - FS"},{"lng":-75.25109,"lat":39.981534,"stopid":20549,"stopname":"Malvern Av &amp; 64th St"},{"lng":-75.247387,"lat":39.98351,"stopid":20575,"stopname":"Malvern Av &amp; 63rd St - FS"},{"lng":-75.252509,"lat":39.980876,"stopid":20576,"stopname":"Malvern Av &amp; 65th St"},{"lng":-75.248535,"lat":39.982932,"stopid":20577,"stopname":"Malvern Av &amp; Wynnewood Rd - FS"},{"lng":-75.250995,"lat":39.981704,"stopid":20578,"stopname":"Malvern Av &amp; 64th St"},{"lng":-75.249788,"lat":39.982309,"stopid":20579,"stopname":"Malvern Av &amp; Wynnewood Rd - MBFS"},{"lng":-75.253481,"lat":39.979681,"stopid":20580,"stopname":"Malvern Av &amp; 66th St"},{"lng":-75.260114,"lat":39.972158,"stopid":21392,"stopname":"Lansdowne Av &amp; 75th St"},{"lng":-75.260043,"lat":39.972363,"stopid":21484,"stopname":"Lansdowne Av &amp; 75th St - FS"},{"lng":-75.252894,"lat":39.987865,"stopid":24489,"stopname":"Lancaster Av &amp; Church Rd"},{"lng":-75.2583,"lat":39.98988,"stopid":28281,"stopname":"Lankenau Dr &amp; Lancaster Av - MBNS"},{"lng":-75.291615,"lat":40.010386,"stopid":29716,"stopname":"Montgomery Av &amp; Bleddyn Rd"},{"lng":-75.327982,"lat":40.026138,"stopid":29757,"stopname":"Lancaster Av &amp; County Line Rd - FS"},{"lng":-75.30495,"lat":40.014818,"stopid":29758,"stopname":"Lancaster Av &amp; Booth La - FS"},{"lng":-75.276211,"lat":40.001426,"stopid":29759,"stopname":"Wynnewood Rd &amp; Lancaster Av"},{"lng":-75.308186,"lat":40.016589,"stopid":29760,"stopname":"Lancaster Av &amp; Old Lancaster Av"},{"lng":-75.328395,"lat":40.02654,"stopid":29761,"stopname":"Lancaster Av &amp; County Line Rd"},{"lng":-75.311103,"lat":40.018002,"stopid":30484,"stopname":"Lancaster Av &amp; Penn St"},{"lng":-75.255311,"lat":39.975364,"stopid":30679,"stopname":"68th St &amp; Lebanon Av"},{"lng":-75.255801,"lat":39.977953,"stopid":30680,"stopname":"68th St &amp; Malvern Av"},{"lng":-75.253505,"lat":39.979369,"stopid":30681,"stopname":"Malvern Av &amp; 66th St"},{"lng":-75.25843,"lat":39.989898,"stopid":30682,"stopname":"Lankenau &amp; Lancaster - MBFS"},{"lng":-75.285515,"lat":40.005248,"stopid":30683,"stopname":"Lancaster Av &amp; Church Rd"},{"lng":-75.29191,"lat":40.010369,"stopid":30684,"stopname":"Montgomery Av &amp; Bleddyn Rd"},{"lng":-75.304761,"lat":40.014898,"stopid":30685,"stopname":"Lancaster Av &amp; Booth Ln"},{"lng":-75.264992,"lat":39.992986,"stopid":30691,"stopname":"Lancaster &amp; Indian Creek Rd"},{"lng":-75.255835,"lat":39.978248,"stopid":30692,"stopname":"Malvern Av &amp; 68th St"},{"lng":-75.255582,"lat":39.975659,"stopid":30693,"stopname":"68th &amp; Lebanon Av"},{"lng":-75.295004,"lat":40.011622,"stopid":30701,"stopname":"Woodside &amp; Montgomery - FS"},{"lng":-75.31989,"lat":40.022338,"stopid":31015,"stopname":"Lancaster Av &amp; Summit Grove Av"},{"lng":-75.266088,"lat":39.994121,"stopid":31056,"stopname":"Lancaster Av &amp; Remington Rd - MBNS"},{"lng":-75.328867,"lat":40.026817,"stopid":32302,"stopname":"Norwood Av &amp; Lancaster Av - FS"}]