[{"lng":-75.276276,"lat":39.965244,"stopid":1968,"stopname":"West Chester Pk &amp; Carol Blvd"},{"lng":-75.319989,"lat":39.973278,"stopid":1983,"stopname":"West Chester Pk &amp; Eagle Rd - FS"},{"lng":-75.361749,"lat":39.982125,"stopid":1985,"stopname":"West Chester Pk &amp; Sproul Rd - FS"},{"lng":-75.36071,"lat":39.981625,"stopid":1996,"stopname":"West Chester Pk &amp; Sproul Rd - FS"},{"lng":-75.319139,"lat":39.972813,"stopid":1998,"stopname":"West Chester Pk &amp; Eagle Rd - FS"},{"lng":-75.393572,"lat":39.967751,"stopid":2168,"stopname":"Delaware County Community College"},{"lng":-75.296844,"lat":39.969132,"stopid":2197,"stopname":"West Chester Pk &amp; Darby Rd"},{"lng":-75.334277,"lat":39.977002,"stopid":2199,"stopname":"West Chester Pk &amp; Lawrence Rd"},{"lng":-75.33377,"lat":39.976573,"stopid":2200,"stopname":"West Chester Pk &amp; Lawrence Rd - MBF"},{"lng":-75.296455,"lat":39.968739,"stopid":2202,"stopname":"West Chester Pk &amp; Darby Rd - FS"},{"lng":-75.259689,"lat":39.962179,"stopid":15497,"stopname":"69th St Transportation Center West "},{"lng":-75.263184,"lat":39.962621,"stopid":18639,"stopname":"West Chester Pk &amp; Brief Av"},{"lng":-75.265722,"lat":39.963294,"stopid":18640,"stopname":"West Chester Pk &amp; College Av"},{"lng":-75.2678,"lat":39.96368,"stopid":18641,"stopname":"West Chester Pk &amp; Golf Rd"},{"lng":-75.270621,"lat":39.964202,"stopid":18642,"stopname":"West Chester Pk &amp; Ardsley Rd - FS"},{"lng":-75.271873,"lat":39.964426,"stopid":18643,"stopname":"West Chester Pk &amp; Kenmore Rd"},{"lng":-75.274529,"lat":39.964929,"stopid":18644,"stopname":"West Chester Pk &amp; Pennock Av - FS"},{"lng":-75.282758,"lat":39.966457,"stopid":18646,"stopname":"West Chester Pk &amp; S Lynn Blvd - MBF"},{"lng":-75.284706,"lat":39.966816,"stopid":18647,"stopname":"West Chester Pk &amp; Cloverdale Rd"},{"lng":-75.28891,"lat":39.967615,"stopid":18648,"stopname":"West Chester Pk &amp; Linden Av"},{"lng":-75.291295,"lat":39.968073,"stopid":18649,"stopname":"West Chester Pk &amp; Brighton Av - FS"},{"lng":-75.294672,"lat":39.968728,"stopid":18650,"stopname":"West Chester Pk &amp; Township Line Rd "},{"lng":-75.279098,"lat":39.965756,"stopid":18651,"stopname":"West Chester Pk &amp; Saint Laurence Rd"},{"lng":-75.299395,"lat":39.969625,"stopid":18652,"stopname":"West Chester Pk &amp; Vernon Rd - MBNS"},{"lng":-75.302724,"lat":39.970289,"stopid":18653,"stopname":"West Chester Pk &amp; Gilmore Rd - FS"},{"lng":-75.305806,"lat":39.970837,"stopid":18654,"stopname":"West Chester Pk &amp; Westwood Ln - FS"},{"lng":-75.309762,"lat":39.971501,"stopid":18655,"stopname":"West Chester Pk &amp; Sycamore Rd"},{"lng":-75.313529,"lat":39.972165,"stopid":18656,"stopname":"West Chester Pk &amp; Manoa Rd - FS"},{"lng":-75.317934,"lat":39.97291,"stopid":18657,"stopname":"West Chester Pk &amp; Washington Av - F"},{"lng":-75.32228,"lat":39.97369,"stopid":18659,"stopname":"West Chester Pk &amp; Glendale Rd - FS"},{"lng":-75.325599,"lat":39.974255,"stopid":18660,"stopname":"West Chester Pk &amp; Stanton Rd"},{"lng":-75.327051,"lat":39.974551,"stopid":18661,"stopname":"West Chester Pk &amp; Glen Gary Dr"},{"lng":-75.330617,"lat":39.975848,"stopid":18662,"stopname":"West Chester Pk &amp; Robinson Av"},{"lng":-75.331892,"lat":39.976349,"stopid":18663,"stopname":"West Chester Pk &amp; Old W Chester Pk"},{"lng":-75.346725,"lat":39.979804,"stopid":18664,"stopname":"West Chester Pk &amp; New Ardmore Av - "},{"lng":-75.349678,"lat":39.980297,"stopid":18665,"stopname":"West Chester Pk &amp; Raymond Rd - FS"},{"lng":-75.353788,"lat":39.980907,"stopid":18666,"stopname":"West Chester Pk &amp; Edgewood Rd - FS"},{"lng":-75.356812,"lat":39.981373,"stopid":18667,"stopname":"West Chester Pk &amp; Church Rd"},{"lng":-75.36521,"lat":39.9826,"stopid":18668,"stopname":"West Chester Pk &amp; Malin Rd - FS"},{"lng":-75.36736,"lat":39.982887,"stopid":18669,"stopname":"West Chester Pk &amp; E Garden Rd - FS"},{"lng":-75.369758,"lat":39.983227,"stopid":18670,"stopname":"West Chester Pk &amp; James Rd"},{"lng":-75.373869,"lat":39.983809,"stopid":18671,"stopname":"West Chester Pk &amp; Ann Rd"},{"lng":-75.372582,"lat":39.983326,"stopid":18799,"stopname":"West Chester Pk &amp; Latches Ln"},{"lng":-75.370113,"lat":39.982959,"stopid":18800,"stopname":"West Chester Pk &amp; Hawthorne Rd"},{"lng":-75.367715,"lat":39.982637,"stopid":18801,"stopname":"West Chester Pk &amp; Rittenhouse Rd"},{"lng":-75.365069,"lat":39.982252,"stopid":18802,"stopname":"West Chester Pk &amp; Malin Rd"},{"lng":-75.357001,"lat":39.981069,"stopid":18803,"stopname":"West Chester Pk &amp; Berkley Rd"},{"lng":-75.354001,"lat":39.980594,"stopid":18804,"stopname":"West Chester Pk &amp; Edgewood Rd"},{"lng":-75.349962,"lat":39.979994,"stopid":18805,"stopname":"West Chester Pk &amp; Raymond Rd"},{"lng":-75.346855,"lat":39.979501,"stopid":18806,"stopname":"West Chester Pk &amp; New Ardmore Av"},{"lng":-75.331396,"lat":39.97584,"stopid":18807,"stopname":"West Chester Pk &amp; Robinson Av"},{"lng":-75.327524,"lat":39.974328,"stopid":18808,"stopname":"West Chester Pk &amp; Glen Gary Dr"},{"lng":-75.325091,"lat":39.973853,"stopid":18809,"stopname":"West Chester Pk &amp; Ivy Rock Ln"},{"lng":-75.322469,"lat":39.973396,"stopid":18810,"stopname":"West Chester Pk &amp; Glendale Rd"},{"lng":-75.317675,"lat":39.972562,"stopid":18811,"stopname":"West Chester Pk &amp; Washington Av"},{"lng":-75.316647,"lat":39.972391,"stopid":18812,"stopname":"West Chester Pk &amp; Pinzon Av - FS"},{"lng":-75.313306,"lat":39.971799,"stopid":18813,"stopname":"West Chester Pk &amp; Manoa Rd - FS"},{"lng":-75.309798,"lat":39.971198,"stopid":18814,"stopname":"West Chester Pk &amp; Westwood Park - 1"},{"lng":-75.304248,"lat":39.970273,"stopid":18815,"stopname":"West Chester Pk &amp; Steel Rd"},{"lng":-75.302205,"lat":39.969905,"stopid":18816,"stopname":"West Chester Pk &amp; Gilmore Rd - FS"},{"lng":-75.298262,"lat":39.969098,"stopid":18817,"stopname":"West Chester Pk &amp; Darby Rd - MBNS"},{"lng":-75.294389,"lat":39.968344,"stopid":18818,"stopname":"West Chester Pk &amp; Township Line - F"},{"lng":-75.290953,"lat":39.967706,"stopid":18819,"stopname":"West Chester Pk &amp; Brighton Av - FS"},{"lng":-75.288851,"lat":39.967302,"stopid":18820,"stopname":"West Chester Pk &amp; Linden Av - FS"},{"lng":-75.284967,"lat":39.966575,"stopid":18821,"stopname":"West Chester Pk &amp; Cloverdale Av"},{"lng":-75.282676,"lat":39.966144,"stopid":18822,"stopname":"West Chester Pk &amp; S Lynn Blvd"},{"lng":-75.280398,"lat":39.965704,"stopid":18823,"stopname":"West Chester Pk &amp; Park Av"},{"lng":-75.278509,"lat":39.965354,"stopid":18824,"stopname":"West Chester Pk &amp; Cedar Ln - FS"},{"lng":-75.276312,"lat":39.964958,"stopid":18825,"stopname":"West Chester Pk &amp; Carol Blvd - FS"},{"lng":-75.274471,"lat":39.964635,"stopid":18826,"stopname":"West Chester Pk &amp; Pennock Av"},{"lng":-75.272121,"lat":39.964204,"stopid":18827,"stopname":"West Chester Pk &amp; Kenmore Rd"},{"lng":-75.269571,"lat":39.963745,"stopid":18828,"stopname":"West Chester Pk &amp; Berbro Av"},{"lng":-75.268048,"lat":39.963475,"stopid":18829,"stopname":"West Chester Pk &amp; Elm Av"},{"lng":-75.265935,"lat":39.963089,"stopid":18830,"stopname":"West Chester Pk &amp; College Av"},{"lng":-75.378654,"lat":39.98365,"stopid":19488,"stopname":"Media Line Rd &amp; West Chester Pk - F"},{"lng":-75.378241,"lat":39.983722,"stopid":19489,"stopname":"Media Line Rd &amp; West Chester Pk"},{"lng":-75.38077,"lat":39.982152,"stopid":29850,"stopname":"Media Line Rd &amp; Larchmont Cir"},{"lng":-75.384304,"lat":39.979699,"stopid":29852,"stopname":"Media Line Rd &amp; Highland Av"},{"lng":-75.385793,"lat":39.978673,"stopid":29853,"stopname":"Media Line Rd &amp; Eastburn Av - FS"},{"lng":-75.387306,"lat":39.977558,"stopid":29854,"stopname":"Media Line Rd &amp; Old Cedar Grove Rd"},{"lng":-75.388677,"lat":39.976594,"stopid":29855,"stopname":"Media Line Rd &amp; Malley St"},{"lng":-75.390567,"lat":39.975256,"stopid":29856,"stopname":"Media Line Rd &amp; Heather Rd"},{"lng":-75.394988,"lat":39.970331,"stopid":29858,"stopname":"Media Line Rd &amp; Drew Cir"},{"lng":-75.395425,"lat":39.969769,"stopid":29859,"stopname":"Media Line Rd &amp; Drew Cir"},{"lng":-75.391832,"lat":39.9734,"stopid":29860,"stopname":"Media Line Rd &amp; Dogwood Ln - FS"},{"lng":-75.39052,"lat":39.975096,"stopid":29861,"stopname":"Media Line Rd &amp; Heather Rd"},{"lng":-75.388842,"lat":39.976282,"stopid":29862,"stopname":"Media Line Rd &amp; Malley St"},{"lng":-75.387128,"lat":39.977522,"stopid":29863,"stopname":"Media Line Rd &amp; Old Cedar Grove Rd "},{"lng":-75.385994,"lat":39.978343,"stopid":29864,"stopname":"Media Line &amp; Eastburn Av"},{"lng":-75.382661,"lat":39.980662,"stopid":29866,"stopname":"Media Line Rd &amp; Pennview Av - FS"},{"lng":-75.381255,"lat":39.981652,"stopid":29867,"stopname":"Media Line Rd &amp; Mark Ter - FS"},{"lng":-75.305795,"lat":39.970515,"stopid":30480,"stopname":"West Chester Pk &amp; Westwood Park - 2"},{"lng":-75.384564,"lat":39.979315,"stopid":31180,"stopname":"Media Line Rd &amp; Highland Av"},{"lng":-75.376646,"lat":39.983792,"stopid":31729,"stopname":"West Chester Pk &amp; Evergreen Av"},{"lng":-75.372358,"lat":39.983085,"stopid":31741,"stopname":"Latches Ln &amp; West Chester Pk"},{"lng":-75.392033,"lat":39.973293,"stopid":31872,"stopname":"Media Line Rd &amp; Dogwood Ln"}]