[{"lng":-74.95357,"lat":40.13806,"stopid":330,"stopname":"Neshaminy Mall"},{"lng":-74.881256,"lat":40.182396,"stopid":332,"stopname":"Oxford Valley Mall &amp; J C Penney"},{"lng":-74.866905,"lat":40.106088,"stopid":1769,"stopname":"Lower Bucks Hospital"},{"lng":-74.866889,"lat":40.10657,"stopid":1776,"stopname":"Old Orchard Rd &amp; Harrison St"},{"lng":-74.860068,"lat":40.096739,"stopid":1777,"stopname":"Mill St &amp; Old US 13"},{"lng":-74.871972,"lat":40.101309,"stopid":1783,"stopname":"Bristol Park Shop Ctr"},{"lng":-74.877323,"lat":40.110267,"stopid":1784,"stopname":"Bucks County Office Center"},{"lng":-74.871853,"lat":40.101406,"stopid":1792,"stopname":"Bristol Park Shop Ctr"},{"lng":-74.960444,"lat":40.118833,"stopid":13534,"stopname":"Street Rd &amp; Tillman Dr - north"},{"lng":-74.855145,"lat":40.154377,"stopid":15262,"stopname":"New Falls Rd &amp; Edgley Rd - FS"},{"lng":-74.855961,"lat":40.154416,"stopid":15269,"stopname":"Woodbourne Rd &amp; New Falls Rd - FS"},{"lng":-74.952476,"lat":40.121008,"stopid":18973,"stopname":"Parx Race Track"},{"lng":-74.95084,"lat":40.105462,"stopid":23371,"stopname":"Street Rd &amp; Knights Rd - FS"},{"lng":-74.951447,"lat":40.106687,"stopid":23372,"stopname":"Street Rd &amp; Knights Rd - MBFS"},{"lng":-74.952555,"lat":40.109173,"stopid":23373,"stopname":"Street Rd &amp; Mechanicsville Rd - MBN"},{"lng":-74.954323,"lat":40.112045,"stopid":23374,"stopname":"Street Rd &amp; Mechanicsville Rd - MBF"},{"lng":-74.957781,"lat":40.115271,"stopid":23375,"stopname":"Street Rd &amp; Tillman Dr"},{"lng":-74.958111,"lat":40.115495,"stopid":23376,"stopname":"Street Rd &amp; Tillman Dr - south"},{"lng":-74.954136,"lat":40.111607,"stopid":23377,"stopname":"Street Rd &amp; Mechanicsville Rd"},{"lng":-74.951438,"lat":40.106223,"stopid":23379,"stopname":"Street Rd &amp; Knights Rd - MBNS"},{"lng":-74.841296,"lat":40.165087,"stopid":27988,"stopname":"Levittown Pkwy &amp; New Falls Rd - FS"},{"lng":-74.839265,"lat":40.164283,"stopid":27989,"stopname":"Levittown Pkwy &amp; Holly Turn"},{"lng":-74.833143,"lat":40.161246,"stopid":27991,"stopname":"Levittown Pkwy &amp; Crabtree Dr - FS"},{"lng":-74.825953,"lat":40.151581,"stopid":27996,"stopname":"Levittown Pkwy &amp; Sexton Ln"},{"lng":-74.823049,"lat":40.147657,"stopid":27998,"stopname":"Levittown Pkwy &amp; Spur Ln"},{"lng":-74.821306,"lat":40.145203,"stopid":27999,"stopname":"Levittown Pkwy &amp; Lakeside Dr - FS"},{"lng":-74.820629,"lat":40.14262,"stopid":28000,"stopname":"Levittown Town Ctr &amp; Walmart"},{"lng":-74.820451,"lat":40.142673,"stopid":28076,"stopname":"Levittown Town Center &amp; Walmart"},{"lng":-74.821196,"lat":40.145533,"stopid":28077,"stopname":"Levittown Pkwy &amp; Lakeside Dr"},{"lng":-74.825597,"lat":40.151615,"stopid":28079,"stopname":"Levittown Pkwy &amp; Sexton Ln"},{"lng":-74.827669,"lat":40.154454,"stopid":28080,"stopname":"Levittown Pkwy &amp; Penn Ln"},{"lng":-74.829707,"lat":40.15715,"stopid":28082,"stopname":"Levittown Pkwy &amp; Willowood Way"},{"lng":-74.831733,"lat":40.159873,"stopid":28084,"stopname":"Levittown Pkwy &amp; Willowood Gate"},{"lng":-74.832588,"lat":40.161011,"stopid":28085,"stopname":"Levittown Pkwy &amp; Magnolia Dr"},{"lng":-74.839027,"lat":40.164478,"stopid":28086,"stopname":"Levittown Pkwy &amp; Holly Turn"},{"lng":-74.8226,"lat":40.147512,"stopid":28097,"stopname":"Levittown Pkwy &amp; Spur Ln"},{"lng":-74.882526,"lat":40.172752,"stopid":28118,"stopname":"Woodbourne Rd &amp; Terrace Rd - MBFS"},{"lng":-74.879455,"lat":40.170159,"stopid":28119,"stopname":"Woodbourne Rd &amp; Harmony Rd"},{"lng":-74.877537,"lat":40.1685,"stopid":28121,"stopname":"Woodbourne Rd &amp; Trenton Rd"},{"lng":-74.874161,"lat":40.165423,"stopid":28122,"stopname":"Woodbourne Rd &amp; Brist Oxf Val Rd - "},{"lng":-74.868427,"lat":40.159605,"stopid":28124,"stopname":"Woodbourne Rd &amp; Cobalt Ridge Dr"},{"lng":-74.862151,"lat":40.156479,"stopid":28126,"stopname":"Woodbourne Rd &amp; Quincy Dr"},{"lng":-74.852033,"lat":40.156915,"stopid":28128,"stopname":"New Falls Rd &amp; Red Cedar Dr"},{"lng":-74.847789,"lat":40.160431,"stopid":28130,"stopname":"New Falls Rd &amp; Wistar Rd - FS"},{"lng":-74.845344,"lat":40.162472,"stopid":28131,"stopname":"New Falls Rd &amp; Appletree Pl"},{"lng":-74.834477,"lat":40.128985,"stopid":28141,"stopname":"Bristol Pk &amp; Edgley Rd"},{"lng":-74.840113,"lat":40.123201,"stopid":28143,"stopname":"Bristol Pk &amp; Airport Rd - MBFS"},{"lng":-74.842011,"lat":40.121264,"stopid":28144,"stopname":"Bristol Pk &amp; I276"},{"lng":-74.840509,"lat":40.113902,"stopid":28146,"stopname":"Green Ln &amp; Wilson Av"},{"lng":-74.837827,"lat":40.110409,"stopid":28149,"stopname":"Green Ln &amp; Farragut Av"},{"lng":-74.847934,"lat":40.103181,"stopid":28155,"stopname":"Pond St &amp; Lincoln St"},{"lng":-74.849289,"lat":40.102465,"stopid":28156,"stopname":"Pond St &amp; Jefferson Av"},{"lng":-74.848319,"lat":40.100952,"stopid":28157,"stopname":"Jefferson Av &amp; Wood St"},{"lng":-74.847135,"lat":40.099616,"stopid":28158,"stopname":"Jefferson Av &amp; Radcliffe St"},{"lng":-74.853136,"lat":40.096422,"stopid":28161,"stopname":"Radcliffe St &amp; Walnut St - FS"},{"lng":-74.86076,"lat":40.097465,"stopid":28167,"stopname":"Bath St &amp; Otter St - FS"},{"lng":-74.861658,"lat":40.099183,"stopid":28172,"stopname":"Bath St &amp; Buckley St"},{"lng":-74.862801,"lat":40.101286,"stopid":28173,"stopname":"Bath St &amp; Howell St - MBFS"},{"lng":-74.869859,"lat":40.108226,"stopid":28176,"stopname":"Old Orchard Rd &amp; Fayette Dr"},{"lng":-74.876852,"lat":40.096144,"stopid":28187,"stopname":"State Rd &amp; River Rd - FS"},{"lng":-74.882752,"lat":40.093564,"stopid":28188,"stopname":"State Rd &amp; Industrial Dr - FS"},{"lng":-74.887757,"lat":40.092024,"stopid":28190,"stopname":"State Rd &amp; Elm Av"},{"lng":-74.893829,"lat":40.090193,"stopid":28193,"stopname":"State Rd &amp; Linton Av"},{"lng":-74.900481,"lat":40.088222,"stopid":28196,"stopname":"State Rd &amp; Rosa Av - FS"},{"lng":-74.903991,"lat":40.087165,"stopid":28198,"stopname":"State Rd &amp; Cedar Av"},{"lng":-74.905507,"lat":40.090233,"stopid":28201,"stopname":"Cedar Av &amp; Main Av"},{"lng":-74.906533,"lat":40.092344,"stopid":28202,"stopname":"Cedar Av &amp; Magnolia Av"},{"lng":-74.916489,"lat":40.093251,"stopid":28206,"stopname":"Bristol Pk &amp; Gray Av"},{"lng":-74.923684,"lat":40.091459,"stopid":28208,"stopname":"Bristol Pk &amp; Bensalem Blvd"},{"lng":-74.926919,"lat":40.089116,"stopid":28209,"stopname":"Bristol Pk &amp; Appleton Av - MBFS"},{"lng":-74.933667,"lat":40.085081,"stopid":28210,"stopname":"Bristol Pk &amp; Street Rd - MBNS"},{"lng":-74.943188,"lat":40.13429,"stopid":28236,"stopname":"Galloway Rd &amp; Bristol Rd - MBNS"},{"lng":-74.943377,"lat":40.134433,"stopid":28241,"stopname":"Galloway Rd &amp; Bristol Rd - MBFS"},{"lng":-74.94298,"lat":40.131834,"stopid":28242,"stopname":"Galloway Rd &amp; Richlieu Rd"},{"lng":-74.933716,"lat":40.084787,"stopid":28267,"stopname":"Bristol Pk &amp; Street Rd - FS"},{"lng":-74.924553,"lat":40.090641,"stopid":28268,"stopname":"Bristol Pk &amp; Park Av - FS"},{"lng":-74.916656,"lat":40.093055,"stopid":28273,"stopname":"Bristol Pk &amp; Gray Av"},{"lng":-74.915483,"lat":40.093309,"stopid":28274,"stopname":"Bristol Pk &amp; Haunted Ln"},{"lng":-74.920898,"lat":40.092251,"stopid":28277,"stopname":"Bristol Pk &amp; Allen Av - FS"},{"lng":-74.905813,"lat":40.090395,"stopid":28279,"stopname":"Cedar Av &amp; Main Av"},{"lng":-74.900423,"lat":40.088079,"stopid":28283,"stopname":"State Rd &amp; Rosa Av"},{"lng":-74.896451,"lat":40.089258,"stopid":28285,"stopname":"State Rd &amp; Church St - FS"},{"lng":-74.893985,"lat":40.089988,"stopid":28286,"stopname":"State Rd &amp; Linton Av"},{"lng":-74.883216,"lat":40.093227,"stopid":28292,"stopname":"State Rd &amp; Industrial Dr"},{"lng":-74.876331,"lat":40.096178,"stopid":28293,"stopname":"State Rd &amp; River Rd - FS"},{"lng":-74.876875,"lat":40.1069,"stopid":28302,"stopname":"Veterans Hwy &amp; Winder Dr"},{"lng":-74.878807,"lat":40.111184,"stopid":28307,"stopname":"Veterans Hwy &amp; Rockview Dr"},{"lng":-74.879163,"lat":40.111042,"stopid":28308,"stopname":"Veterans Hwy &amp; Rockview Dr - FS"},{"lng":-74.876199,"lat":40.10712,"stopid":28309,"stopname":"Winder Dr &amp; Veterans Hwy - FS"},{"lng":-74.862722,"lat":40.10083,"stopid":28317,"stopname":"Bath St &amp; Howell St"},{"lng":-74.861999,"lat":40.099434,"stopid":28318,"stopname":"Bath St &amp; Mifflin St"},{"lng":-74.858443,"lat":40.095723,"stopid":28319,"stopname":"Mill St &amp; Wood St"},{"lng":-74.852853,"lat":40.096385,"stopid":28321,"stopname":"Radcliffe St &amp; Walnut St"},{"lng":-74.848059,"lat":40.100924,"stopid":28351,"stopname":"Jefferson Av &amp; Wood St"},{"lng":-74.84922,"lat":40.102232,"stopid":28352,"stopname":"Jefferson Av &amp; Pond St"},{"lng":-74.837485,"lat":40.110255,"stopid":28359,"stopname":"Green Ln &amp; Farragut St"},{"lng":-74.840108,"lat":40.11365,"stopid":28362,"stopname":"Green Ln &amp; Wilson Av"},{"lng":-74.848347,"lat":40.160183,"stopid":28380,"stopname":"New Falls Rd &amp; Wistar Rd - FS"},{"lng":-74.852103,"lat":40.157068,"stopid":28382,"stopname":"New Falls Rd &amp; Red Cedar Dr"},{"lng":-74.86826,"lat":40.15972,"stopid":28386,"stopname":"Woodbourne Rd &amp; Cobalt Ridge Dr - F"},{"lng":-74.874781,"lat":40.16639,"stopid":28388,"stopname":"Woodbourne Rd &amp; Brist Oxf Val Rd - "},{"lng":-74.876547,"lat":40.167844,"stopid":28389,"stopname":"Woodbourne Rd &amp; Trenton Rd"},{"lng":-74.879206,"lat":40.170149,"stopid":28391,"stopname":"Woodbourne Rd &amp; Harmony Rd"},{"lng":-74.960591,"lat":40.121717,"stopid":28553,"stopname":"Richlieu Rd &amp; Essington Way - FS"},{"lng":-74.957113,"lat":40.125096,"stopid":28555,"stopname":"Richlieu Rd &amp; Debra Dr - MBFS"},{"lng":-74.951316,"lat":40.136909,"stopid":28680,"stopname":"Neshaminy Blvd &amp; Bristol Rd - MBNS"},{"lng":-74.956909,"lat":40.125506,"stopid":28685,"stopname":"Richlieu Rd &amp; Debra Dr - MBNS"},{"lng":-74.961019,"lat":40.121486,"stopid":28688,"stopname":"Richlieu Rd &amp; Esssington Way"},{"lng":-74.926837,"lat":40.088999,"stopid":29603,"stopname":"Bristol Pk &amp; Appleton Av - MBNS"},{"lng":-74.890664,"lat":40.091001,"stopid":29604,"stopname":"State Rd &amp; Central Av - FS"},{"lng":-74.886573,"lat":40.092233,"stopid":29605,"stopname":"State Rd &amp; Oak Av"},{"lng":-74.879287,"lat":40.094888,"stopid":29606,"stopname":"State Rd &amp; Mack Rd - MBFS"},{"lng":-74.859279,"lat":40.096218,"stopid":29654,"stopname":"Mill St &amp; Pond St"},{"lng":-74.851688,"lat":40.097013,"stopid":29655,"stopname":"Radcliffe St &amp; Franklin St - FS"},{"lng":-74.850226,"lat":40.097792,"stopid":29656,"stopname":"Radcliffe St &amp; Dorrance St"},{"lng":-74.844299,"lat":40.104923,"stopid":29657,"stopname":"Pond St &amp; Farragut St"},{"lng":-74.841429,"lat":40.104222,"stopid":29658,"stopname":"Radcliffe St &amp; Monroe St - FS"},{"lng":-74.837596,"lat":40.108265,"stopid":29659,"stopname":"Radcliffe St &amp; Seabird Dr"},{"lng":-74.871726,"lat":40.163235,"stopid":29660,"stopname":"Woodbourne Rd &amp; Wister Rd - MBNS"},{"lng":-74.871623,"lat":40.162841,"stopid":29661,"stopname":"Woodbourne Rd &amp; Wister Rd - MBFS"},{"lng":-74.837523,"lat":40.108622,"stopid":29662,"stopname":"Radcliffe St &amp; Seabird Dr - FS"},{"lng":-74.841593,"lat":40.10433,"stopid":29663,"stopname":"Radcliffe St &amp; Monroe St"},{"lng":-74.850106,"lat":40.098015,"stopid":29664,"stopname":"Radcliffe St &amp; Dorrance St"},{"lng":-74.880461,"lat":40.094571,"stopid":29665,"stopname":"State Rd &amp; Mack Dr"},{"lng":-74.890829,"lat":40.091108,"stopid":29666,"stopname":"State Rd &amp; Central Av"},{"lng":-74.896628,"lat":40.089366,"stopid":29667,"stopname":"State Rd &amp; Chruch St"},{"lng":-74.953046,"lat":40.117172,"stopid":30140,"stopname":"Parx Casino"},{"lng":-74.939377,"lat":40.089129,"stopid":30211,"stopname":"Street Rd &amp; High Av - FS"},{"lng":-74.94218,"lat":40.092799,"stopid":30212,"stopname":"Street Rd &amp; Brookwood Dr"},{"lng":-74.939575,"lat":40.089683,"stopid":30213,"stopname":"Street Rd &amp; Essex Dr - FS"},{"lng":-74.94367,"lat":40.094635,"stopid":30214,"stopname":"Street Rd &amp; Pearl Av"},{"lng":-74.944353,"lat":40.095173,"stopid":30215,"stopname":"Street Rd &amp; Pearl Av - MBNS"},{"lng":-74.941759,"lat":40.092048,"stopid":30216,"stopname":"Street Rd &amp; Tyler Av - MBNS"},{"lng":-74.857339,"lat":40.096245,"stopid":30707,"stopname":"Market St &amp; Wood St"},{"lng":-74.877667,"lat":40.10859,"stopid":30708,"stopname":"Veterans Hwy &amp; Winder Dr - MBFS"},{"lng":-74.818052,"lat":40.140778,"stopid":30861,"stopname":"Levittown Pkwy &amp; Bristol Pk"},{"lng":-74.830362,"lat":40.132714,"stopid":30862,"stopname":"Bristol Pk &amp; Haines Rd - FS"},{"lng":-74.846992,"lat":40.099732,"stopid":30925,"stopname":"Jefferson Av &amp; Radcliffe St - FS"},{"lng":-74.907235,"lat":40.093338,"stopid":31070,"stopname":"Cedar Av &amp; Coventry Ln"},{"lng":-74.907046,"lat":40.093292,"stopid":31071,"stopname":"Cedar Av &amp; Coventry Ln"},{"lng":-74.828856,"lat":40.155549,"stopid":31245,"stopname":"Levittown Pkwy &amp; Mill Creek Pkwy"},{"lng":-74.828407,"lat":40.15543,"stopid":31246,"stopname":"Levittown Pkwy &amp; Mill Creek Pkwy"},{"lng":-74.906795,"lat":40.093666,"stopid":31251,"stopname":"Croydon Station"},{"lng":-74.952639,"lat":40.108959,"stopid":31311,"stopname":"Street Rd &amp; Castle Dr - MBNS"},{"lng":-74.947966,"lat":40.138619,"stopid":31360,"stopname":"Neshaminy Blvd &amp; Bristol Rd"},{"lng":-74.907574,"lat":40.09391,"stopid":31405,"stopname":"Bristol Pk &amp; Belmont Av"},{"lng":-74.818165,"lat":40.141305,"stopid":31478,"stopname":"Levittown Pkwy &amp; Bristol Pike - FS"},{"lng":-74.854063,"lat":40.095935,"stopid":31505,"stopname":"Radcliffe St &amp; Mulberry St"},{"lng":-74.854029,"lat":40.095774,"stopid":31506,"stopname":"Radcliffe St &amp; Mulberry St"},{"lng":-74.909491,"lat":40.0939,"stopid":31509,"stopname":"Bristol Pk &amp; Hillcrest Av"},{"lng":-74.877718,"lat":40.178783,"stopid":31543,"stopname":"Mall Blvd &amp; Lincoln Hwy"},{"lng":-74.883477,"lat":40.17389,"stopid":31544,"stopname":"Woodbourne Rd &amp; Terrace Rd"},{"lng":-74.884694,"lat":40.175832,"stopid":31545,"stopname":"Woodbourne Rd &amp; Lincoln Hwy - FS"},{"lng":-74.884689,"lat":40.176511,"stopid":31548,"stopname":"Woodbourne Rd &amp; Lincoln Hwy"},{"lng":-74.830115,"lat":40.132544,"stopid":31606,"stopname":"Bristol Pk &amp; Haines Rd"},{"lng":-74.861949,"lat":40.156559,"stopid":31685,"stopname":"Woodbourne Rd &amp; Quincy Dr"},{"lng":-74.90385,"lat":40.087093,"stopid":31837,"stopname":"State Rd &amp; Cedar Av - FS"},{"lng":-74.843694,"lat":40.105045,"stopid":31838,"stopname":"Monroe St &amp; Farragut Av"},{"lng":-74.84408,"lat":40.118614,"stopid":31839,"stopname":"Green Ln &amp; Bristol Pk"},{"lng":-74.844152,"lat":40.118507,"stopid":31840,"stopname":"Green Ln &amp; Bristol Pk - FS"},{"lng":-74.842361,"lat":40.165217,"stopid":31841,"stopname":"New Falls Rd &amp; Oxford Valley Rd - F"},{"lng":-74.832089,"lat":40.159866,"stopid":32008,"stopname":"Levittown Pkwy &amp; Willowood Gate"},{"lng":-74.830027,"lat":40.157107,"stopid":32009,"stopname":"Levittown Pkwy &amp; Willowood Way"},{"lng":-74.828025,"lat":40.15442,"stopid":32010,"stopname":"Levittown Pkwy &amp; Penn Ln"},{"lng":-74.834445,"lat":40.128592,"stopid":32015,"stopname":"Bristol Pk &amp; Edgley Rd"},{"lng":-74.947532,"lat":40.099273,"stopid":32356,"stopname":"Street Rd &amp; Hansell Dr - FS"},{"lng":-74.947487,"lat":40.09897,"stopid":32357,"stopname":"Street Rd &amp; Hansell Dr"}]