[{"lng":-74.95357,"lat":40.13806,"stopid":330,"stopname":"Neshaminy Mall"},{"lng":-74.916953,"lat":40.175503,"stopid":331,"stopname":"Pine St &amp; Richardson Av"},{"lng":-74.96447,"lat":40.085833,"stopid":410,"stopname":"Phila Mills &amp; Marshalls"},{"lng":-74.981369,"lat":40.064401,"stopid":954,"stopname":"City Line Loop"},{"lng":-74.957526,"lat":40.101882,"stopid":1796,"stopname":"Creekside Apts Rd &amp; Dunks Ferry Rd "},{"lng":-74.925234,"lat":40.202359,"stopid":1799,"stopname":"Saint Mary Medical Center"},{"lng":-74.916607,"lat":40.225452,"stopid":1800,"stopname":"Pheasant Run &amp; Terry Dr"},{"lng":-74.936706,"lat":40.221114,"stopid":1801,"stopname":"Gloria Dei Plaza"},{"lng":-74.935903,"lat":40.229323,"stopid":1802,"stopname":"Washington Av &amp; Court St"},{"lng":-74.967153,"lat":40.240269,"stopid":1806,"stopname":"Bucks County Community College - 1"},{"lng":-74.945678,"lat":40.235377,"stopid":1809,"stopname":"Durham Rd &amp; West Rd"},{"lng":-74.935916,"lat":40.229162,"stopid":1810,"stopname":"Washington Av &amp; Court St - FS"},{"lng":-74.916121,"lat":40.225397,"stopid":1812,"stopname":"Pheasant Run &amp; Terry Dr - FS"},{"lng":-74.957727,"lat":40.101922,"stopid":1816,"stopname":"Creekside  Rd &amp; Dunks Ferry Rd - MB"},{"lng":-74.960444,"lat":40.118833,"stopid":13534,"stopname":"Street Rd &amp; Tillman Dr - north"},{"lng":-74.965356,"lat":40.091495,"stopid":17062,"stopname":"Franklin Mills Dr &amp; Knights Rd"},{"lng":-74.965534,"lat":40.071431,"stopid":17064,"stopname":"Bristol Pk &amp; Biddle Ln - MBFS"},{"lng":-74.965449,"lat":40.071743,"stopid":17071,"stopname":"Bristol Pk &amp; Home Depot Plaza - FS"},{"lng":-74.980525,"lat":40.065121,"stopid":17072,"stopname":"Bristol Pk &amp; Red Lion Rd"},{"lng":-74.952476,"lat":40.121008,"stopid":18973,"stopname":"Parx Race Track"},{"lng":-74.96586,"lat":40.086784,"stopid":21117,"stopname":"Phila Mills &amp; Liberty Bell - MBFS"},{"lng":-74.965791,"lat":40.088292,"stopid":21118,"stopname":"Franklin Mills &amp; Liberty Bell Blvd"},{"lng":-74.976194,"lat":40.065436,"stopid":21120,"stopname":"Bristol Pk &amp; Edgewood Av"},{"lng":-74.972769,"lat":40.066486,"stopid":21121,"stopname":"Bristol Pk &amp; Tennis Av"},{"lng":-74.970941,"lat":40.067479,"stopid":21122,"stopname":"Bristol Pk &amp; Buttonwood Av"},{"lng":-74.967185,"lat":40.070348,"stopid":21124,"stopname":"Bristol Pk &amp; Penn St"},{"lng":-74.95411,"lat":40.101307,"stopid":21127,"stopname":"Knights Rd &amp; Dunks Ferry Rd - FS"},{"lng":-74.952264,"lat":40.103067,"stopid":21128,"stopname":"Knights Rd &amp; McKinley Av - FS"},{"lng":-74.965006,"lat":40.090806,"stopid":22585,"stopname":"Franklin Mills &amp; Design Center Dr"},{"lng":-74.912332,"lat":40.160891,"stopid":23089,"stopname":"Bellvue Av &amp; Comly Av - MBNS"},{"lng":-74.913238,"lat":40.163483,"stopid":23090,"stopname":"Bellevue Av &amp; Park Av"},{"lng":-74.914372,"lat":40.170485,"stopid":23091,"stopname":"Pine St &amp; Woods Dr - FS"},{"lng":-74.915448,"lat":40.167357,"stopid":23092,"stopname":"Bellevue Av &amp; Pine St"},{"lng":-74.916569,"lat":40.174627,"stopid":23093,"stopname":"Pine St &amp; Flowers Av"},{"lng":-74.917255,"lat":40.176344,"stopid":23094,"stopname":"Pine St &amp; Maple Av"},{"lng":-74.95084,"lat":40.105462,"stopid":23371,"stopname":"Street Rd &amp; Knights Rd - FS"},{"lng":-74.951447,"lat":40.106687,"stopid":23372,"stopname":"Street Rd &amp; Knights Rd - MBFS"},{"lng":-74.952555,"lat":40.109173,"stopid":23373,"stopname":"Street Rd &amp; Mechanicsville Rd - MBN"},{"lng":-74.954323,"lat":40.112045,"stopid":23374,"stopname":"Street Rd &amp; Mechanicsville Rd - MBF"},{"lng":-74.957781,"lat":40.115271,"stopid":23375,"stopname":"Street Rd &amp; Tillman Dr"},{"lng":-74.958111,"lat":40.115495,"stopid":23376,"stopname":"Street Rd &amp; Tillman Dr - south"},{"lng":-74.954136,"lat":40.111607,"stopid":23377,"stopname":"Street Rd &amp; Mechanicsville Rd"},{"lng":-74.951438,"lat":40.106223,"stopid":23379,"stopname":"Street Rd &amp; Knights Rd - MBNS"},{"lng":-74.951677,"lat":40.104109,"stopid":23381,"stopname":"Knights Rd &amp; Virgina Av"},{"lng":-74.954357,"lat":40.101441,"stopid":23382,"stopname":"Knights Rd &amp; Dunks Ferry Rd"},{"lng":-74.96028,"lat":40.095117,"stopid":23384,"stopname":"Knights Rd &amp; McCarthy Cir"},{"lng":-74.962089,"lat":40.093571,"stopid":23385,"stopname":"Knights Rd &amp; Mechanicsville Rd"},{"lng":-74.916828,"lat":40.174807,"stopid":23586,"stopname":"Pine St &amp; Flowers Av"},{"lng":-74.917528,"lat":40.176354,"stopid":23587,"stopname":"Pine St &amp; Maple Av - FS"},{"lng":-74.914609,"lat":40.170379,"stopid":23588,"stopname":"Pine St &amp; Woods Dr"},{"lng":-74.915662,"lat":40.167251,"stopid":23589,"stopname":"Bellevue Av &amp; Highland Av - FS"},{"lng":-74.913509,"lat":40.163645,"stopid":23590,"stopname":"Bellevue Av &amp; Park Av"},{"lng":-74.91258,"lat":40.161088,"stopid":23591,"stopname":"Bellevue Av &amp; Comly Rd - FS"},{"lng":-74.912149,"lat":40.158409,"stopid":23641,"stopname":"Bellevue Av &amp; Lincoln Hwy - FS"},{"lng":-74.964967,"lat":40.089512,"stopid":23734,"stopname":"Franklin Mills &amp; Design Ctr - MBFS"},{"lng":-74.943188,"lat":40.13429,"stopid":28236,"stopname":"Galloway Rd &amp; Bristol Rd - MBNS"},{"lng":-74.947644,"lat":40.138913,"stopid":28238,"stopname":"Neshaminy Blvd &amp; Bristol Rd"},{"lng":-74.943377,"lat":40.134433,"stopid":28241,"stopname":"Galloway Rd &amp; Bristol Rd - MBFS"},{"lng":-74.94298,"lat":40.131834,"stopid":28242,"stopname":"Galloway Rd &amp; Richlieu Rd"},{"lng":-74.966993,"lat":40.070713,"stopid":28504,"stopname":"Bristol Pk &amp; Penn St"},{"lng":-74.969264,"lat":40.068892,"stopid":28505,"stopname":"Bristol Pk &amp; Poquessing Av"},{"lng":-74.970952,"lat":40.067666,"stopid":28506,"stopname":"Bristol Pk &amp; Buttonwood Av"},{"lng":-74.972567,"lat":40.06669,"stopid":28507,"stopname":"Bristol Pk &amp; Tennis Av"},{"lng":-74.960591,"lat":40.121717,"stopid":28553,"stopname":"Richlieu Rd &amp; Essington Way - FS"},{"lng":-74.957113,"lat":40.125096,"stopid":28555,"stopname":"Richlieu Rd &amp; Debra Dr - MBFS"},{"lng":-74.940422,"lat":40.142348,"stopid":28558,"stopname":"Neshaminy Blvd &amp; Neshaminy Valley"},{"lng":-74.939697,"lat":40.142729,"stopid":28559,"stopname":"Neshaminy Blvd &amp; 3rd Av"},{"lng":-74.935919,"lat":40.144562,"stopid":28561,"stopname":"Neshaminy Blvd &amp; Durham Pl"},{"lng":-74.932915,"lat":40.144059,"stopid":28563,"stopname":"Pasqualone Blvd &amp; Declaration Dr"},{"lng":-74.929572,"lat":40.139547,"stopid":28567,"stopname":"Pasqualone Blvd &amp; Bensalem Blvd"},{"lng":-74.926113,"lat":40.134749,"stopid":28569,"stopname":"Pasqualone Blvd &amp; Springdale Dr"},{"lng":-74.924038,"lat":40.131831,"stopid":28571,"stopname":"Pasqualone Blvd &amp; Bristol Rd - FS"},{"lng":-74.919216,"lat":40.133954,"stopid":28574,"stopname":"Hulmeville Rd &amp; Florence Rd - FS"},{"lng":-74.914372,"lat":40.139138,"stopid":28577,"stopname":"Hulmeville Rd &amp; Bensalem Blvd"},{"lng":-74.912481,"lat":40.143593,"stopid":28588,"stopname":"Bellevue Av &amp; Green St - FS"},{"lng":-74.911772,"lat":40.154828,"stopid":28592,"stopname":"Bellevue Av &amp; Dehaven Av"},{"lng":-74.911957,"lat":40.158711,"stopid":28594,"stopname":"Bellevue Av &amp; Lincoln Hwy"},{"lng":-74.912195,"lat":40.148822,"stopid":28596,"stopname":"Bellevue Av &amp; Parkview Av"},{"lng":-74.917961,"lat":40.178712,"stopid":28597,"stopname":"Pine St &amp; Watson Av"},{"lng":-74.918735,"lat":40.181536,"stopid":28598,"stopname":"Pine St &amp; Winchester Av"},{"lng":-74.922835,"lat":40.187988,"stopid":28599,"stopname":"Newtown &amp; Old Mill Dr"},{"lng":-74.926278,"lat":40.190331,"stopid":28600,"stopname":"Newtown &amp; Bridgetown Pk"},{"lng":-74.927922,"lat":40.192552,"stopid":28601,"stopname":"Newtown Rd &amp; Heaton Mill"},{"lng":-74.929138,"lat":40.194859,"stopid":28602,"stopname":"Newtown Rd &amp; Windham Dr"},{"lng":-74.929808,"lat":40.205805,"stopid":28606,"stopname":"Newtown Rd &amp; Tollgate Rd"},{"lng":-74.930803,"lat":40.212638,"stopid":28607,"stopname":"Newtown Rd &amp; Summit Trace"},{"lng":-74.926092,"lat":40.21851,"stopid":28608,"stopname":"PA 332 &amp; Summit Trace - FS"},{"lng":-74.909857,"lat":40.222845,"stopid":28609,"stopname":"Penns Tr &amp; PA 332 Bypass - FS"},{"lng":-74.910668,"lat":40.225526,"stopid":28610,"stopname":"Pheasant Run Dr &amp; Penns Tr - FS"},{"lng":-74.919516,"lat":40.229829,"stopid":28611,"stopname":"Newtown-Yardley Rd &amp; Terry Dr - FS"},{"lng":-74.925758,"lat":40.228854,"stopid":28612,"stopname":"Washington Av &amp; Elm Av"},{"lng":-74.931641,"lat":40.228521,"stopid":28613,"stopname":"Lincoln Av &amp; Washington Av - FS"},{"lng":-74.931928,"lat":40.226442,"stopid":28614,"stopname":"Lincoln Av &amp; Penn St"},{"lng":-74.932205,"lat":40.224122,"stopid":28615,"stopname":"Lincoln Av &amp; Sterling St"},{"lng":-74.931802,"lat":40.217239,"stopid":28616,"stopname":"State St &amp; PA 332 - FS"},{"lng":-74.932761,"lat":40.219135,"stopid":28617,"stopname":"State St &amp; Fountain Farm Ln"},{"lng":-74.931954,"lat":40.22438,"stopid":28620,"stopname":"Lincoln Av &amp; Sterling St - FS"},{"lng":-74.931752,"lat":40.226209,"stopid":28621,"stopname":"Lincoln Av &amp; Penn St"},{"lng":-74.93139,"lat":40.228832,"stopid":28622,"stopname":"Lincoln Av &amp; Washington Av"},{"lng":-74.934042,"lat":40.229244,"stopid":28623,"stopname":"Washington Av &amp; Congress St"},{"lng":-74.940612,"lat":40.234117,"stopid":28626,"stopname":"S Eagle Rd &amp; Silo Dr"},{"lng":-74.941671,"lat":40.235246,"stopid":28627,"stopname":"S Eagle Rd &amp; West Rd"},{"lng":-74.954698,"lat":40.23567,"stopid":28628,"stopname":"Swamp Rd &amp; Short Ln - FS"},{"lng":-74.954817,"lat":40.235599,"stopid":28629,"stopname":"Swamp Rd &amp; Saw Mill Ln"},{"lng":-74.941003,"lat":40.234199,"stopid":28631,"stopname":"S Eagle &amp; Silo Dr"},{"lng":-74.940578,"lat":40.230484,"stopid":28632,"stopname":"S Eagle Rd &amp; Swamp Rd - MBNS"},{"lng":-74.93402,"lat":40.229075,"stopid":28634,"stopname":"Washington Av &amp; Congress St - FS"},{"lng":-74.926044,"lat":40.228704,"stopid":28635,"stopname":"Washington Av &amp; Elm Av"},{"lng":-74.9101,"lat":40.225327,"stopid":28637,"stopname":"Pheasant Run &amp; Penns Trail"},{"lng":-74.910159,"lat":40.22373,"stopid":28638,"stopname":"Penns Trail &amp; PA 332 - MBNS"},{"lng":-74.926648,"lat":40.218664,"stopid":28639,"stopname":"PA 332 &amp; Summit Trace Rd - FS"},{"lng":-74.933068,"lat":40.219261,"stopid":28640,"stopname":"State St &amp; Fountain Farm Ln"},{"lng":-74.931027,"lat":40.212835,"stopid":28642,"stopname":"Newtown Langhorne Rd &amp; Summit Trace"},{"lng":-74.929988,"lat":40.20544,"stopid":28643,"stopname":"Newtown Langhorne Rd &amp; Green Valley"},{"lng":-74.928323,"lat":40.192794,"stopid":28648,"stopname":"Newtown Rd &amp; Heaton Mill"},{"lng":-74.923167,"lat":40.188061,"stopid":28650,"stopname":"Newtown Rd &amp; Old Mill Dr"},{"lng":-74.919018,"lat":40.181724,"stopid":28651,"stopname":"Pine St &amp; Winchester Av"},{"lng":-74.918197,"lat":40.178909,"stopid":28652,"stopname":"Pine St &amp; Watson Av"},{"lng":-74.912201,"lat":40.159426,"stopid":28653,"stopname":"Bellevue Av &amp; Durham Rd - FS"},{"lng":-74.912017,"lat":40.155409,"stopid":28655,"stopname":"Bellevue Av &amp; Dehaven Av"},{"lng":-74.912383,"lat":40.149055,"stopid":28658,"stopname":"Bellevue Av &amp; Parkview Av"},{"lng":-74.912938,"lat":40.144336,"stopid":28660,"stopname":"Bellevue Av &amp; Neshaminy St"},{"lng":-74.914848,"lat":40.138881,"stopid":28662,"stopname":"Hulmeville Rd &amp; Bensalem Blvd - FS"},{"lng":-74.919429,"lat":40.134017,"stopid":28665,"stopname":"Hulmeville Rd &amp; Florence Rd Ln"},{"lng":-74.922293,"lat":40.130744,"stopid":28667,"stopname":"Hulmeville Rd &amp; Bristol Rd"},{"lng":-74.92386,"lat":40.131938,"stopid":28668,"stopname":"Pasqualone &amp; Bristol Rd"},{"lng":-74.925794,"lat":40.134641,"stopid":28670,"stopname":"Pasqualone Blvd &amp; Springdale Dr"},{"lng":-74.92971,"lat":40.140074,"stopid":28672,"stopname":"Pasqualone Blvd &amp; Bensalem Blvd - F"},{"lng":-74.932432,"lat":40.143691,"stopid":28676,"stopname":"Pasqualone Blvd &amp; Declaration Dr"},{"lng":-74.935787,"lat":40.144802,"stopid":28678,"stopname":"Neshaminy Blvd &amp; Durham Pl"},{"lng":-74.951316,"lat":40.136909,"stopid":28680,"stopname":"Neshaminy Blvd &amp; Bristol Rd - MBNS"},{"lng":-74.956909,"lat":40.125506,"stopid":28685,"stopname":"Richlieu Rd &amp; Debra Dr - MBNS"},{"lng":-74.961019,"lat":40.121486,"stopid":28688,"stopname":"Richlieu Rd &amp; Esssington Way"},{"lng":-74.91357,"lat":40.140331,"stopid":29601,"stopname":"Hulmeville Rd &amp; Bensalem Blvd  - MB"},{"lng":-74.912587,"lat":40.145405,"stopid":29627,"stopname":"Bellevue Av &amp; McCarthy Dr"},{"lng":-74.929858,"lat":40.207064,"stopid":29628,"stopname":"Newtown Rd &amp; Pennswood Village"},{"lng":-74.931546,"lat":40.216515,"stopid":29629,"stopname":"Newtown Rd &amp; Newtown Bypass"},{"lng":-74.928662,"lat":40.228982,"stopid":29630,"stopname":"Washington Av &amp; Norwood Av"},{"lng":-74.964311,"lat":40.072069,"stopid":29631,"stopname":"Bristol Pk &amp; Woodhaven Rd - MBNS"},{"lng":-74.965298,"lat":40.239262,"stopid":29691,"stopname":"Bucks County Community College - 2"},{"lng":-74.928343,"lat":40.228829,"stopid":29693,"stopname":"Washington Av &amp; Norwood Av - FS"},{"lng":-74.930176,"lat":40.207324,"stopid":29694,"stopname":"Newtown Langhorne Rd &amp; Pennwood Vil"},{"lng":-74.934625,"lat":40.222106,"stopid":29804,"stopname":"State St &amp; Chancellor St"},{"lng":-74.912018,"lat":40.15033,"stopid":29805,"stopname":"Bellevue Av &amp; Holly Av"},{"lng":-74.953046,"lat":40.117172,"stopid":30140,"stopname":"Parx Casino"},{"lng":-74.942643,"lat":40.235321,"stopid":30410,"stopname":"West Rd &amp; Eagle Rd - MBFS"},{"lng":-74.943083,"lat":40.23518,"stopid":30411,"stopname":"West Rd &amp; Eagle Rd - MBNS"},{"lng":-74.963029,"lat":40.092745,"stopid":30677,"stopname":"Knights &amp; Mechanicsville Rd - MBNS"},{"lng":-74.958921,"lat":40.098495,"stopid":30704,"stopname":"Plum Av &amp; Knights Rd - MBFS"},{"lng":-74.913405,"lat":40.140214,"stopid":30705,"stopname":"Hulmeville Rd &amp; Bensalem Blvd - MBF"},{"lng":-74.959841,"lat":40.237805,"stopid":30706,"stopname":"Bucks County Community College 3"},{"lng":-74.975541,"lat":40.065791,"stopid":30710,"stopname":"Bristol Pk &amp; Colonial Av"},{"lng":-74.913583,"lat":40.225618,"stopid":30723,"stopname":"Pheasant Run &amp; Terry - MBNS"},{"lng":-74.959664,"lat":40.095204,"stopid":31298,"stopname":"Knights Rd &amp; Franklin Mills Circle"},{"lng":-74.940432,"lat":40.142544,"stopid":31300,"stopname":"Neshaminy Blvd &amp; Neshaminy Vly Dr"},{"lng":-74.952639,"lat":40.108959,"stopid":31311,"stopname":"Street Rd &amp; Castle Dr - MBNS"},{"lng":-74.947598,"lat":40.138778,"stopid":31359,"stopname":"Neshaminy Blvd &amp; Bristol Rd - FS"},{"lng":-74.947966,"lat":40.138619,"stopid":31360,"stopname":"Neshaminy Blvd &amp; Bristol Rd"},{"lng":-74.95904,"lat":40.098397,"stopid":31843,"stopname":"Plum Av &amp; Knights Rd - MBNS"},{"lng":-74.919529,"lat":40.229659,"stopid":31844,"stopname":"Newtown Yardley Rd &amp; Terry Dr"},{"lng":-74.940439,"lat":40.229921,"stopid":31846,"stopname":"Eagle Rd &amp; Swamp Rd - FS"},{"lng":-74.929518,"lat":40.201475,"stopid":32039,"stopname":"Newtown Rd &amp; St Mary Blvd"},{"lng":-74.929685,"lat":40.201395,"stopid":32040,"stopname":"Newtown Rd &amp; St Mary Blvd - FS"}]