[{"lng":-74.981369,"lat":40.064401,"stopid":954,"stopname":"City Line Loop"},{"lng":-74.951947,"lat":40.072531,"stopid":1875,"stopname":"Station Av &amp; Railroad Av - MBFS"},{"lng":-74.921513,"lat":40.085559,"stopid":1877,"stopname":"Marshall Ln &amp; Winks Ln"},{"lng":-74.921264,"lat":40.085648,"stopid":1882,"stopname":"Winks Ln &amp; Marshall Ln"},{"lng":-74.951188,"lat":40.070984,"stopid":1884,"stopname":"Station Av &amp; White Av - FS"},{"lng":-74.965534,"lat":40.071431,"stopid":17064,"stopname":"Bristol Pk &amp; Biddle Ln - MBFS"},{"lng":-74.965449,"lat":40.071743,"stopid":17071,"stopname":"Bristol Pk &amp; Home Depot Plaza - FS"},{"lng":-74.980525,"lat":40.065121,"stopid":17072,"stopname":"Bristol Pk &amp; Red Lion Rd"},{"lng":-74.976194,"lat":40.065436,"stopid":21120,"stopname":"Bristol Pk &amp; Edgewood Av"},{"lng":-74.972769,"lat":40.066486,"stopid":21121,"stopname":"Bristol Pk &amp; Tennis Av"},{"lng":-74.970941,"lat":40.067479,"stopid":21122,"stopname":"Bristol Pk &amp; Buttonwood Av"},{"lng":-74.967185,"lat":40.070348,"stopid":21124,"stopname":"Bristol Pk &amp; Penn St"},{"lng":-74.956267,"lat":40.075716,"stopid":28218,"stopname":"Bristol Pk &amp; Kings Av - FS"},{"lng":-74.95879,"lat":40.07519,"stopid":28219,"stopname":"Bristol Pk &amp; Hulmeville Rd"},{"lng":-74.958993,"lat":40.074986,"stopid":28258,"stopname":"Bristol Pk &amp; Hulmeville Rd"},{"lng":-74.953697,"lat":40.076153,"stopid":28260,"stopname":"Bristol Pk &amp; Station Av"},{"lng":-74.966993,"lat":40.070713,"stopid":28504,"stopname":"Bristol Pk &amp; Penn St"},{"lng":-74.969264,"lat":40.068892,"stopid":28505,"stopname":"Bristol Pk &amp; Poquessing Av"},{"lng":-74.970952,"lat":40.067666,"stopid":28506,"stopname":"Bristol Pk &amp; Buttonwood Av"},{"lng":-74.972567,"lat":40.06669,"stopid":28507,"stopname":"Bristol Pk &amp; Tennis Av"},{"lng":-74.948262,"lat":40.068162,"stopid":28985,"stopname":"State Rd &amp; Hemlock Av"},{"lng":-74.942193,"lat":40.070129,"stopid":28987,"stopname":"State Rd &amp; Imperial Ct - FS"},{"lng":-74.939334,"lat":40.071323,"stopid":28988,"stopname":"State Rd &amp; Camer Dr"},{"lng":-74.934635,"lat":40.073375,"stopid":28989,"stopname":"State Rd &amp; American Dr"},{"lng":-74.928031,"lat":40.082372,"stopid":28994,"stopname":"Dunks Ferry Rd &amp; Marshall Ln"},{"lng":-74.929138,"lat":40.083073,"stopid":28995,"stopname":"Dunks Ferry Rd &amp; Clive Av - FS"},{"lng":-74.92009,"lat":40.082778,"stopid":28996,"stopname":"Winks Ln &amp; Marshall La - MBFS"},{"lng":-74.927782,"lat":40.082461,"stopid":29032,"stopname":"Marshall Ln &amp; Dunks Ferry Rd"},{"lng":-74.929798,"lat":40.083486,"stopid":29034,"stopname":"Dunks Ferry Rd &amp; Progress Dr"},{"lng":-74.934338,"lat":40.07365,"stopid":29038,"stopname":"State Rd &amp; American Dr"},{"lng":-74.938217,"lat":40.071988,"stopid":29039,"stopname":"State Rd &amp; Camer Dr - MBNS"},{"lng":-74.94231,"lat":40.070236,"stopid":29040,"stopname":"State Rd &amp; Imperial Ct"},{"lng":-74.948036,"lat":40.068295,"stopid":29042,"stopname":"State Rd &amp; Hemlock Av"},{"lng":-74.950024,"lat":40.068276,"stopid":29043,"stopname":"State Rd &amp; Station Av"},{"lng":-74.953249,"lat":40.075937,"stopid":29045,"stopname":"Station Av &amp; Bristol Pk"},{"lng":-74.960095,"lat":40.074677,"stopid":29046,"stopname":"Bristol Pk &amp; Gravel Pk - MBFS"},{"lng":-74.964311,"lat":40.072069,"stopid":29631,"stopname":"Bristol Pk &amp; Woodhaven Rd - MBNS"},{"lng":-74.954822,"lat":40.076023,"stopid":29670,"stopname":"Bristol Pk &amp; Wildman Av - FS"},{"lng":-74.960702,"lat":40.074082,"stopid":29672,"stopname":"Bristol Pk &amp; Clarmont Av"},{"lng":-74.944874,"lat":40.068988,"stopid":29673,"stopname":"State Rd &amp; Wicker St"},{"lng":-74.931967,"lat":40.082825,"stopid":29676,"stopname":"Dunks Ferry Rd &amp; Street Rd - MBNS"},{"lng":-74.9239,"lat":40.084311,"stopid":29677,"stopname":"Marshall Ln &amp; Winks Ln - MBNS"},{"lng":-74.923875,"lat":40.084525,"stopid":29685,"stopname":"Marshall Ln &amp; Winks Ln - MBFS"},{"lng":-74.944719,"lat":40.069166,"stopid":29688,"stopname":"State Rd &amp; Wicker Av"},{"lng":-74.975541,"lat":40.065791,"stopid":30710,"stopname":"Bristol Pk &amp; Colonial Av"},{"lng":-74.919783,"lat":40.082634,"stopid":31198,"stopname":"Winks Ln &amp; State Rd - MBFS"},{"lng":-74.928419,"lat":40.075948,"stopid":31334,"stopname":"State Rd &amp; Street Rd - FS"},{"lng":-74.924052,"lat":40.077903,"stopid":31335,"stopname":"State Rd &amp; Dunks Ferry Rd - MBNS"},{"lng":-74.92405,"lat":40.078108,"stopid":31849,"stopname":"State Rd &amp; Dunks Ferry Rd - FS"},{"lng":-74.9292,"lat":40.07587,"stopid":31850,"stopname":"State Rd &amp; Street Rd - FS"},{"lng":-74.968861,"lat":40.069024,"stopid":32036,"stopname":"Bristol Pk &amp; Kings Ln"}]