{"type": "FeatureCollection", "features": [{"geometry": {"type": "Point", "coordinates": [-75.284034, 40.117196]}, "type": "Feature", "properties": {"route": "150", "id": 246, "name": "Plymouth Meeting Mall"}}, {"geometry": {"type": "Point", "coordinates": [-74.96281, 40.124528]}, "type": "Feature", "properties": {"route": "150", "id": 13520, "name": "Street Rd &amp; Kingston Way"}}, {"geometry": {"type": "Point", "coordinates": [-74.96191, 40.120999]}, "type": "Feature", "properties": {"route": "150", "id": 13528, "name": "Street Rd &amp; Richlieu Rd"}}, {"geometry": {"type": "Point", "coordinates": [-74.960444, 40.118833]}, "type": "Feature", "properties": {"route": "150", "id": 13534, "name": "Street Rd &amp; Tillman Dr - north"}}, {"geometry": {"type": "Point", "coordinates": [-75.285779, 40.114895]}, "type": "Feature", "properties": {"route": "150", "id": 16747, "name": "Germantown Pk &amp; Launfall Rd"}}, {"geometry": {"type": "Point", "coordinates": [-74.952476, 40.121008]}, "type": "Feature", "properties": {"route": "150", "id": 18973, "name": "Parx Race Track"}}, {"geometry": {"type": "Point", "coordinates": [-74.961989, 40.121588]}, "type": "Feature", "properties": {"route": "150", "id": 22760, "name": "Street Rd &amp; Richlieu Rd - FS"}}, {"geometry": {"type": "Point", "coordinates": [-74.962514, 40.124589]}, "type": "Feature", "properties": {"route": "150", "id": 22761, "name": "Street Rd &amp; Kingston Way - FS"}}, {"geometry": {"type": "Point", "coordinates": [-75.284577, 40.117937]}, "type": "Feature", "properties": {"route": "150", "id": 26578, "name": "Hickory Rd &amp; Germantown Pk - MBNS"}}, {"geometry": {"type": "Point", "coordinates": [-74.953046, 40.117172]}, "type": "Feature", "properties": {"route": "150", "id": 30140, "name": "Parx Casino"}}, {"geometry": {"type": "Point", "coordinates": [-75.283097, 40.118248]}, "type": "Feature", "properties": {"route": "150", "id": 30443, "name": "Hickory Rd &amp; Fountain Rd - MBFS"}}]}