[{"lng":-75.527483,"lat":40.057318,"stopid":1870,"stopname":"Valley Stream Pkwy &amp; Morehall Rd - "},{"lng":-75.520336,"lat":40.054949,"stopid":1872,"stopname":"Swedesford Rd &amp; Liberty Blvd - MBNS"},{"lng":-75.484057,"lat":40.042367,"stopid":1874,"stopname":"Paoli Regional Rail Station"},{"lng":-75.539477,"lat":40.074614,"stopid":15301,"stopname":"General Warren Blvd &amp; Otis - FS"},{"lng":-75.523535,"lat":40.049948,"stopid":19282,"stopname":"Matthews Rd &amp; Morehall Rd"},{"lng":-75.488029,"lat":40.04183,"stopid":19379,"stopname":"Lancaster Av &amp; Plank Av"},{"lng":-75.492759,"lat":40.041676,"stopid":19380,"stopname":"Lancaster Av &amp; Cedar Hollow Rd"},{"lng":-75.493184,"lat":40.041506,"stopid":19388,"stopname":"Lancaster Av &amp; Cedar Hollow Rd"},{"lng":-75.488218,"lat":40.041678,"stopid":19389,"stopname":"Lancaster Av &amp; Plank Av"},{"lng":-75.503602,"lat":40.042473,"stopid":29183,"stopname":"Lincoln Hwy &amp; Chester Valley Rehab"},{"lng":-75.509645,"lat":40.043148,"stopid":29184,"stopname":"Lincoln Hwy &amp; Woodview Way"},{"lng":-75.523665,"lat":40.050207,"stopid":29187,"stopname":"Matthews Rd &amp; Morehall Rd - MBNS"},{"lng":-75.526852,"lat":40.054721,"stopid":29191,"stopname":"Liberty Blvd &amp; Morehall Rd - MBFS"},{"lng":-75.517748,"lat":40.056066,"stopid":29192,"stopname":"Valley Stream Pkwy &amp; Swedesford Rd "},{"lng":-75.511938,"lat":40.043075,"stopid":29199,"stopname":"Lincoln Hwy &amp; Sunrise Asstd Living"},{"lng":-75.519402,"lat":40.054941,"stopid":29263,"stopname":"Swedesford Rd &amp; Liberty Blvd - MBFS"},{"lng":-75.540786,"lat":40.063938,"stopid":29269,"stopname":"Great Valley Pkwy &amp; 27 43 Bldg"},{"lng":-75.545479,"lat":40.062756,"stopid":29271,"stopname":"Great Valley Pkwy &amp; 77 123 Bldg"},{"lng":-75.544494,"lat":40.060383,"stopid":29272,"stopname":"Great Valley Pkwy &amp; 155 Bldg"},{"lng":-75.546246,"lat":40.061684,"stopid":29273,"stopname":"Great Valley Pkwy &amp; 125 Bldg"},{"lng":-75.543583,"lat":40.060616,"stopid":29274,"stopname":"Great Valley Pkwy &amp; 201 Bldg"},{"lng":-75.540214,"lat":40.061449,"stopid":29275,"stopname":"Great Valley Pkwy &amp; 257 275 Bldg"},{"lng":-75.538737,"lat":40.062021,"stopid":29276,"stopname":"Great Valley Pkwy &amp; Technology Dr"},{"lng":-75.522552,"lat":40.05816,"stopid":29278,"stopname":"Valley Stream Pkwy &amp; Swedesford Rd "},{"lng":-75.523921,"lat":40.055892,"stopid":29281,"stopname":"Liberty Blvd &amp; Swedesford Rd - MBFS"},{"lng":-75.526593,"lat":40.055132,"stopid":29282,"stopname":"Liberty Blvd &amp; Morehall Rd - MBNS"},{"lng":-75.498387,"lat":40.042039,"stopid":29765,"stopname":"Lancaster Av &amp; Central Av"},{"lng":-75.543138,"lat":40.063347,"stopid":29788,"stopname":"Great Valley Pkwy &amp; 45 67 Bldg"},{"lng":-75.537142,"lat":40.063495,"stopid":30412,"stopname":"Great Valley Pkwy &amp; Morehall Rd - M"},{"lng":-75.520824,"lat":40.047353,"stopid":30421,"stopname":"Foundary Way &amp; Carnegie Blvd"},{"lng":-75.522135,"lat":40.046219,"stopid":30621,"stopname":"Brennan Blvd &amp; Morehall Rd - MBFS"},{"lng":-75.522581,"lat":40.0438,"stopid":30673,"stopname":"Lancaster Av &amp; Morehall Rd - FS"},{"lng":-75.51879,"lat":40.057021,"stopid":31820,"stopname":"Valley Stream Pkwy &amp; Swedesford Rd"},{"lng":-75.523873,"lat":40.055634,"stopid":31860,"stopname":"Liberty Blvd &amp; Swedesford Rd - MBNS"},{"lng":-75.522422,"lat":40.058419,"stopid":31861,"stopname":"Valley Stream Pkwy &amp; Swedesford Rd "},{"lng":-75.527483,"lat":40.057568,"stopid":31862,"stopname":"Valley Stream Pkwy &amp; Morehall Rd - "},{"lng":-75.521321,"lat":40.047951,"stopid":31966,"stopname":"Foundary Way &amp; Carnegie Blvd"},{"lng":-75.521083,"lat":40.046585,"stopid":32092,"stopname":"Foundary Way &amp; Brennan Blvd"},{"lng":-75.521548,"lat":40.050048,"stopid":32093,"stopname":"Matthews Rd &amp; Foundary Way"}]