[{"lng":-75.090786,"lat":40.054435,"stopid":375,"stopname":"Rising Sun Av &amp; Knorr St"},{"lng":-75.090797,"lat":40.054569,"stopid":378,"stopname":"Rising Sun Av &amp; Knorr St"},{"lng":-75.087997,"lat":40.036595,"stopid":389,"stopname":"Oxford Av &amp; Summerdale Av - FS"},{"lng":-75.087987,"lat":40.036166,"stopid":404,"stopname":"Oxford Av &amp; Summerdale Av"},{"lng":-75.084959,"lat":40.075903,"stopid":467,"stopname":"Oxford Av &amp; Loney St"},{"lng":-75.07178,"lat":40.121056,"stopid":470,"stopname":"Old Welsh Rd Gloria Dei Towers"},{"lng":-75.043727,"lat":40.171412,"stopid":471,"stopname":"Knowles Av &amp; 2nd St Pk"},{"lng":-75.085101,"lat":40.075885,"stopid":476,"stopname":"Oxford Av &amp; Loney St - FS"},{"lng":-75.089856,"lat":40.065875,"stopid":477,"stopname":"Central Av &amp; Cottman Av - MBNS"},{"lng":-75.089026,"lat":40.043898,"stopid":478,"stopname":"Martins Mill Rd &amp; Oxford Av - FS"},{"lng":-75.090083,"lat":40.065501,"stopid":1029,"stopname":"Central Av &amp; Cottman Av - FS"},{"lng":-75.080408,"lat":40.10903,"stopid":1117,"stopname":"Huntingdon Pk &amp; Holy Redeemer Hosp "},{"lng":-75.088622,"lat":40.064193,"stopid":6451,"stopname":"Cottman Av &amp; Hasbrook Av - FS"},{"lng":-75.089574,"lat":40.055655,"stopid":15869,"stopname":"Rising Sun Av &amp; Longshore Av"},{"lng":-75.088362,"lat":40.056856,"stopid":15870,"stopname":"Rising Sun Av &amp; Tyson Av"},{"lng":-75.085914,"lat":40.05934,"stopid":15872,"stopname":"Rising Sun Av &amp; Saint Vincent St"},{"lng":-75.084872,"lat":40.07434,"stopid":16382,"stopname":"Oxford Av &amp; Borbeck Av"},{"lng":-75.085937,"lat":40.059491,"stopid":16431,"stopname":"Rising Sun Av &amp; Saint Vincent St"},{"lng":-75.087149,"lat":40.058272,"stopid":16432,"stopname":"Rising Sun Av &amp; Princeton Av"},{"lng":-75.088385,"lat":40.057008,"stopid":16433,"stopname":"Rising Sun Av &amp; Tyson Av"},{"lng":-75.089585,"lat":40.055788,"stopid":16434,"stopname":"Rising Sun Av &amp; Longshore Av"},{"lng":-75.084931,"lat":40.062059,"stopid":17498,"stopname":"Cottman Av &amp; Oakley St"},{"lng":-75.084246,"lat":40.061798,"stopid":17697,"stopname":"Cottman Av &amp; Rising Sun Av - FS"},{"lng":-75.0894,"lat":40.064794,"stopid":17700,"stopname":"Cottman Av &amp; Ryers Av"},{"lng":-75.089743,"lat":40.064866,"stopid":20620,"stopname":"Cottman Av &amp; Ryers Av"},{"lng":-75.077374,"lat":40.023329,"stopid":21204,"stopname":"Frankford Transportation Center - M"},{"lng":-75.078169,"lat":40.022725,"stopid":21961,"stopname":"Frankford Transportation Center - R"},{"lng":-75.075898,"lat":40.111651,"stopid":22402,"stopname":"Huntingdon Pk &amp; Meadowbrook Dr"},{"lng":-75.07603,"lat":40.111303,"stopid":22410,"stopname":"Huntingdon Pk &amp; Meadowbrook Dr"},{"lng":-75.086475,"lat":40.063099,"stopid":22808,"stopname":"Cottman Av &amp; Rockwell Av"},{"lng":-75.087808,"lat":40.063852,"stopid":22809,"stopname":"Cottman Av &amp; Shelbourne St"},{"lng":-75.088657,"lat":40.064354,"stopid":22810,"stopname":"Cottman Av &amp; Hasbrook Av"},{"lng":-75.088594,"lat":40.037944,"stopid":22845,"stopname":"Oxford Av &amp; Langdon St"},{"lng":-75.088481,"lat":40.039193,"stopid":22846,"stopname":"Oxford Av &amp; Benner St - FS"},{"lng":-75.088257,"lat":40.041611,"stopid":22847,"stopname":"Oxford Av &amp; Devereaux Av"},{"lng":-75.088294,"lat":40.041228,"stopid":22995,"stopname":"Oxford Av &amp; Algon Av"},{"lng":-75.088611,"lat":40.039274,"stopid":22997,"stopname":"Oxford Av &amp; Benner St"},{"lng":-75.088607,"lat":40.037632,"stopid":23000,"stopname":"Oxford Av &amp; Langdon St - FS"},{"lng":-75.093878,"lat":40.088565,"stopid":23456,"stopname":"Huntingdon Pk &amp; Montgomery Av"},{"lng":-75.093846,"lat":40.087842,"stopid":23457,"stopname":"Huntingdon Pk &amp; San Gabriel Av"},{"lng":-75.093611,"lat":40.084887,"stopid":23459,"stopname":"Huntingdon Pk &amp; Shady Ln"},{"lng":-75.092565,"lat":40.08342,"stopid":23461,"stopname":"Huntingdon Pk &amp; Penn Av - FS"},{"lng":-75.091575,"lat":40.082606,"stopid":23462,"stopname":"Huntingdon Pk &amp; Central Av"},{"lng":-75.090126,"lat":40.081352,"stopid":23464,"stopname":"Huntingdon Pk &amp; Sylvania Av"},{"lng":-75.087805,"lat":40.079356,"stopid":23465,"stopname":"Huntingdon Pk &amp; Fox St"},{"lng":-75.087016,"lat":40.078666,"stopid":23466,"stopname":"Huntingdon Pk &amp; Fillmore St"},{"lng":-75.086368,"lat":40.078102,"stopid":23467,"stopname":"Huntingdon Pk &amp; Burholme Av - MBNS"},{"lng":-75.086379,"lat":40.078254,"stopid":23534,"stopname":"Huntingdon Pk &amp; Burholme Av"},{"lng":-75.088876,"lat":40.080456,"stopid":23536,"stopname":"Huntingdon Pk &amp; Jarrett Av"},{"lng":-75.089925,"lat":40.081343,"stopid":23537,"stopname":"Huntingdon Pk &amp; Sylvania Av"},{"lng":-75.091386,"lat":40.082587,"stopid":23539,"stopname":"Huntingdon Pk &amp; Central Av"},{"lng":-75.09247,"lat":40.083509,"stopid":23540,"stopname":"Huntingdon Pk &amp; Penn Av"},{"lng":-75.093387,"lat":40.084735,"stopid":23541,"stopname":"Huntingdon Pk &amp; Shady Ln"},{"lng":-75.09365,"lat":40.086735,"stopid":23542,"stopname":"Huntingdon Pk &amp; Berkley Av - FS"},{"lng":-75.093659,"lat":40.087288,"stopid":23543,"stopname":"Huntingdon Pk &amp; Pasadena Av - FS"},{"lng":-75.093725,"lat":40.088449,"stopid":23544,"stopname":"Huntingdon Pk &amp; Montgomery Av"},{"lng":-75.088073,"lat":40.028223,"stopid":23592,"stopname":"Pratt St &amp; Castor Av"},{"lng":-75.08114,"lat":40.024339,"stopid":23594,"stopname":"Pratt St &amp; Saul St"},{"lng":-75.082555,"lat":40.025147,"stopid":23595,"stopname":"Pratt St &amp; Oakland St"},{"lng":-75.084642,"lat":40.026304,"stopid":23596,"stopname":"Pratt St &amp; Oxford Av"},{"lng":-75.085891,"lat":40.027003,"stopid":23597,"stopname":"Pratt St &amp; Large St"},{"lng":-75.086988,"lat":40.027604,"stopid":23598,"stopname":"Pratt St &amp; Rutland St"},{"lng":-75.089169,"lat":40.028833,"stopid":23599,"stopname":"Pratt St &amp; Roosevelt Blvd"},{"lng":-75.090112,"lat":40.029344,"stopid":23600,"stopname":"Pratt St &amp; Roosevelt Blvd  - FS"},{"lng":-75.091445,"lat":40.030071,"stopid":23601,"stopname":"Pratt St &amp; Loretto Av"},{"lng":-75.092883,"lat":40.03086,"stopid":23602,"stopname":"Pratt St &amp; Summerdale Av"},{"lng":-75.091837,"lat":40.032062,"stopid":23603,"stopname":"Summerdale Av &amp; Bridge St"},{"lng":-75.090614,"lat":40.033317,"stopid":23604,"stopname":"Summerdale Av &amp; Sanger St"},{"lng":-75.089378,"lat":40.034564,"stopid":23605,"stopname":"Summerdale Av &amp; Cheltenham Av"},{"lng":-75.088154,"lat":40.035828,"stopid":23606,"stopname":"Summerdale Av &amp; Van Kirk St"},{"lng":-75.08886,"lat":40.044121,"stopid":23607,"stopname":"Oxford Av &amp; Martins Mills Rd"},{"lng":-75.090317,"lat":40.046044,"stopid":23608,"stopname":"Martins Mill Rd &amp; Montour St"},{"lng":-75.090916,"lat":40.046876,"stopid":23609,"stopname":"Martins Mill Rd &amp; Levick St"},{"lng":-75.091206,"lat":40.048028,"stopid":23610,"stopname":"Martins Mill Rd &amp; Tabor Av"},{"lng":-75.091342,"lat":40.049403,"stopid":23611,"stopname":"Martins Mill Rd &amp; Lawndale St"},{"lng":-75.091503,"lat":40.05034,"stopid":23612,"stopname":"Martins Mill Rd &amp; Gilham St"},{"lng":-75.091908,"lat":40.05226,"stopid":23613,"stopname":"Martins Mill Rd &amp; Fanshawne St"},{"lng":-75.092069,"lat":40.053064,"stopid":23614,"stopname":"Martins Mill Rd &amp; Rising Sun Av"},{"lng":-75.089049,"lat":40.066533,"stopid":23616,"stopname":"Central Av &amp; Tudor St"},{"lng":-75.087041,"lat":40.068518,"stopid":23617,"stopname":"Central Av &amp; Shelmire Av - FS"},{"lng":-75.085293,"lat":40.070263,"stopid":23618,"stopname":"Hasbrook Av &amp; Central Av - FS"},{"lng":-75.084989,"lat":40.072154,"stopid":23619,"stopname":"Hasbrook Av &amp; Hartel Av"},{"lng":-75.084672,"lat":40.074099,"stopid":23620,"stopname":"Oxford Av &amp; Borbeck Av - FS"},{"lng":-75.087934,"lat":40.079606,"stopid":23621,"stopname":"Huntingdon Pk &amp; Robbins Av"},{"lng":-75.093527,"lat":40.090162,"stopid":23622,"stopname":"Huntingdon Pk &amp; Rockledge Av"},{"lng":-75.093191,"lat":40.091294,"stopid":23623,"stopname":"Huntingdon Pk &amp; Rockledge Av - MBFS"},{"lng":-75.092455,"lat":40.094247,"stopid":23624,"stopname":"Huntingdon Pk &amp; Sioux Av - FS"},{"lng":-75.09171,"lat":40.096699,"stopid":23625,"stopname":"Huntingdon Pk &amp; Susquehanna St"},{"lng":-75.090817,"lat":40.097848,"stopid":23626,"stopname":"Huntingdon Pk &amp; Linton Rd"},{"lng":-75.08744,"lat":40.101195,"stopid":23627,"stopname":"Huntingdon Pk &amp; Hoyt Rd"},{"lng":-75.085822,"lat":40.103137,"stopid":23628,"stopname":"Huntingdon Pk &amp; Meetinghouse Rd"},{"lng":-75.084696,"lat":40.105793,"stopid":23629,"stopname":"Huntingdon Pk &amp; Moredon Rd"},{"lng":-75.083828,"lat":40.106817,"stopid":23630,"stopname":"Huntingdon Pk &amp; Moredon Rd - MBFS"},{"lng":-75.081226,"lat":40.108738,"stopid":23631,"stopname":"Huntingdon Pk &amp; Holy Redeemer Hosp"},{"lng":-75.072074,"lat":40.114255,"stopid":23633,"stopname":"Huntingdon Pk &amp; Moreland Rd"},{"lng":-75.068054,"lat":40.118153,"stopid":23634,"stopname":"Huntingdon Pk &amp; Chestnut St"},{"lng":-75.068681,"lat":40.123453,"stopid":23636,"stopname":"Gloria Dei Manor"},{"lng":-75.068434,"lat":40.120314,"stopid":23637,"stopname":"Old Welsh Rd &amp; Walton Rd - FS"},{"lng":-75.067124,"lat":40.119579,"stopid":23638,"stopname":"Huntingdon Pk &amp; Philmont Av - FS"},{"lng":-75.06287,"lat":40.12502,"stopid":23639,"stopname":"Huntingdon Pk &amp; Red Lion Rd"},{"lng":-75.062107,"lat":40.128436,"stopid":23640,"stopname":"Huntingdon Pk &amp; Buck Rd"},{"lng":-75.061766,"lat":40.134835,"stopid":23648,"stopname":"Huntingdon Pk &amp; College Dr"},{"lng":-75.06181,"lat":40.133282,"stopid":23649,"stopname":"Huntingdon Pk &amp; Tomlinson Rd"},{"lng":-75.058738,"lat":40.164004,"stopid":23650,"stopname":"County Line Rd &amp; James Way"},{"lng":-75.049222,"lat":40.158379,"stopid":23651,"stopname":"County Line Rd &amp; Huntingdon Pk - FS"},{"lng":-75.052425,"lat":40.166297,"stopid":23652,"stopname":"James Way &amp; Jaymor Rd"},{"lng":-75.047438,"lat":40.164185,"stopid":23653,"stopname":"Jaymor Rd &amp; 2nd St Pk"},{"lng":-75.045798,"lat":40.167322,"stopid":23654,"stopname":"2nd St Pk &amp; Madison Av - FS"},{"lng":-75.045244,"lat":40.169176,"stopid":23655,"stopname":"2nd St Pk &amp; Rozel Av - FS"},{"lng":-75.044712,"lat":40.17104,"stopid":23656,"stopname":"2nd St Pk &amp; Knowles Av"},{"lng":-75.044012,"lat":40.173555,"stopid":23657,"stopname":"2nd St Pk &amp; Hampton  Av - FS"},{"lng":-75.039153,"lat":40.1718,"stopid":23658,"stopname":"Street Rd &amp; Knowles Av"},{"lng":-75.057855,"lat":40.149301,"stopid":23675,"stopname":"Huntingdon Pk &amp; Byberry Rd - FS"},{"lng":-75.055989,"lat":40.150697,"stopid":23676,"stopname":"Huntingdon Pk &amp; Warfield Ln"},{"lng":-75.045314,"lat":40.169346,"stopid":23681,"stopname":"2nd St Pk &amp; Rozel Av - MBNS"},{"lng":-75.045844,"lat":40.167589,"stopid":23682,"stopname":"2nd St Pk &amp; Madison Av - MBNS"},{"lng":-75.047283,"lat":40.164273,"stopid":23683,"stopname":"Jaymore Rd &amp; 2nd St Pk - FS"},{"lng":-75.053196,"lat":40.165978,"stopid":23684,"stopname":"James Way &amp; Jaymor Rd - FS"},{"lng":-75.056827,"lat":40.164748,"stopid":23685,"stopname":"James Way &amp; County Line Rd - MBNS"},{"lng":-75.051932,"lat":40.154148,"stopid":23686,"stopname":"Huntingdon Pk &amp; Wright Dr"},{"lng":-75.055976,"lat":40.150848,"stopid":23687,"stopname":"Huntingdon Pk &amp; Warfield Ln"},{"lng":-75.059603,"lat":40.147842,"stopid":23688,"stopname":"Huntingdon Pk &amp; Spur Rd - FS"},{"lng":-75.063083,"lat":40.124949,"stopid":23690,"stopname":"Huntingdon Pk &amp; Fettersmill Rd"},{"lng":-75.067288,"lat":40.11982,"stopid":23691,"stopname":"Huntingdon Pk &amp; Old Welsh Rd"},{"lng":-75.050323,"lat":40.156205,"stopid":23714,"stopname":"Huntingdon Pk &amp; Barnswallow Ln"},{"lng":-75.061963,"lat":40.133398,"stopid":23715,"stopname":"Huntingdon Pk &amp; Alnwick Rd"},{"lng":-75.062323,"lat":40.127812,"stopid":23716,"stopname":"Huntingdon Pk &amp; Buck Rd - FS"},{"lng":-75.068231,"lat":40.118359,"stopid":23717,"stopname":"Huntingdon Pk &amp; Chestnut St"},{"lng":-75.070993,"lat":40.115046,"stopid":23718,"stopname":"Huntingdon Pk &amp; Welsh Rd"},{"lng":-75.080941,"lat":40.10905,"stopid":23740,"stopname":"Huntingdon Pk &amp; Holy Redeemer Hos -"},{"lng":-75.082222,"lat":40.108482,"stopid":23741,"stopname":"Huntingdon Pk &amp; Holy Redeemer Hosp "},{"lng":-75.084849,"lat":40.106026,"stopid":23742,"stopname":"Huntingdon Pk &amp; Moredon Rd"},{"lng":-75.085916,"lat":40.10328,"stopid":23743,"stopname":"Huntingdon Pk &amp; Meetinghouse Rd"},{"lng":-75.087463,"lat":40.101356,"stopid":23744,"stopname":"Huntingdon Pk &amp; King Rd"},{"lng":-75.091244,"lat":40.097626,"stopid":23745,"stopname":"Huntingdon Pk &amp; Susquehanna St"},{"lng":-75.09279,"lat":40.093471,"stopid":23746,"stopname":"Huntingdon Pk &amp; Arthur Av"},{"lng":-75.085343,"lat":40.077198,"stopid":23749,"stopname":"Oxford Av &amp; Pine Rd"},{"lng":-75.085106,"lat":40.072351,"stopid":23750,"stopname":"Hasbrook Av &amp; Hartel Av"},{"lng":-75.085411,"lat":40.070316,"stopid":23751,"stopname":"Hasbrook Av &amp; Central Av"},{"lng":-75.086707,"lat":40.069035,"stopid":23752,"stopname":"Central Av &amp; Faunce St"},{"lng":-75.087194,"lat":40.068536,"stopid":23753,"stopname":"Central Av &amp; Shelmire Av"},{"lng":-75.08906,"lat":40.066667,"stopid":23754,"stopname":"Central Av &amp; Tudor St"},{"lng":-75.08762,"lat":40.063602,"stopid":23755,"stopname":"Cottman Av &amp; Hasbrook Av"},{"lng":-75.092177,"lat":40.052904,"stopid":23756,"stopname":"Martins Mill &amp; Rising Sun - FS"},{"lng":-75.092026,"lat":40.052153,"stopid":23757,"stopname":"Martins Mill Rd &amp; Fanshawe St - FS"},{"lng":-75.091714,"lat":40.05068,"stopid":23758,"stopname":"Martins Mill Rd &amp; Gilham St"},{"lng":-75.091359,"lat":40.048171,"stopid":23760,"stopname":"Martins Mill Rd &amp; Tabor Av"},{"lng":-75.09121,"lat":40.047251,"stopid":23761,"stopname":"Martins Mill Rd &amp; Levick St"},{"lng":-75.0906,"lat":40.046179,"stopid":23762,"stopname":"Martins Mill Rd &amp; Montour St"},{"lng":-75.089401,"lat":40.034733,"stopid":23763,"stopname":"Summerdale Av &amp; Cheltenham Av"},{"lng":-75.090625,"lat":40.033469,"stopid":23764,"stopname":"Summerdale Av &amp; Sanger St"},{"lng":-75.091837,"lat":40.032205,"stopid":23765,"stopname":"Summerdale Av &amp; Bridge St"},{"lng":-75.092825,"lat":40.030708,"stopid":23766,"stopname":"Pratt St &amp; Summdale Av - FS"},{"lng":-75.091728,"lat":40.030107,"stopid":23767,"stopname":"Pratt St &amp; Loretto Av"},{"lng":-75.090219,"lat":40.029255,"stopid":23768,"stopname":"Pratt St &amp; Roosevelt Blvd"},{"lng":-75.089158,"lat":40.02869,"stopid":23769,"stopname":"Pratt St &amp; Roosevelt Blvd - FS"},{"lng":-75.088356,"lat":40.028224,"stopid":23770,"stopname":"Pratt St &amp; Castor Av"},{"lng":-75.087201,"lat":40.027587,"stopid":23771,"stopname":"Pratt St &amp; Rutland St"},{"lng":-75.086104,"lat":40.026986,"stopid":23772,"stopname":"Pratt St &amp; Large St"},{"lng":-75.084454,"lat":40.026035,"stopid":23773,"stopname":"Pratt St &amp; Horrocks St"},{"lng":-75.082839,"lat":40.025147,"stopid":23774,"stopname":"Pratt St &amp; Oakland St"},{"lng":-75.081412,"lat":40.024349,"stopid":23775,"stopname":"Pratt St &amp; Saul St"},{"lng":-75.091699,"lat":40.051305,"stopid":25492,"stopname":"Martins Mill Rd &amp; Magee Av"},{"lng":-75.084878,"lat":40.07293,"stopid":25494,"stopname":"Hasbrook Av &amp; Chandler St"},{"lng":-75.092888,"lat":40.092695,"stopid":25495,"stopname":"Huntingdon Pk &amp; Roseland Av"},{"lng":-75.070876,"lat":40.114868,"stopid":25497,"stopname":"Huntingdon Pk &amp; Welsh Rd"},{"lng":-75.061811,"lat":40.130765,"stopid":25498,"stopname":"Huntingdon Pk &amp; Alden Rd"},{"lng":-75.053754,"lat":40.15235,"stopid":25499,"stopname":"Huntingdon Pk &amp; Albidale Dr"},{"lng":-75.051743,"lat":40.154183,"stopid":25500,"stopname":"Huntingdon Pk &amp; Wright Dr - FS"},{"lng":-75.055774,"lat":40.162228,"stopid":25502,"stopname":"County Line Rd &amp; Mann Rd - FS"},{"lng":-75.056828,"lat":40.164641,"stopid":25503,"stopname":"James Way &amp; County Line Rd - MBFS"},{"lng":-75.055007,"lat":40.161681,"stopid":25525,"stopname":"County Line Rd &amp; Mann Rd - MBFS"},{"lng":-75.048963,"lat":40.158039,"stopid":25526,"stopname":"County Line Rd &amp; Huntingdon Pk"},{"lng":-75.053741,"lat":40.152502,"stopid":25527,"stopname":"Huntingdon Pk &amp; Albidale Dr"},{"lng":-75.061895,"lat":40.135121,"stopid":25528,"stopname":"Huntingdon Pk &amp; Cathedral Rd"},{"lng":-75.06194,"lat":40.130881,"stopid":25529,"stopname":"Huntingdon Pk &amp; Alden Rd"},{"lng":-75.0867,"lat":40.06309,"stopid":25540,"stopname":"Cottman Av &amp; Rockwell Av"},{"lng":-75.079926,"lat":40.023729,"stopid":30219,"stopname":"Penn St &amp; Pratt St"},{"lng":-75.068667,"lat":40.120949,"stopid":30310,"stopname":"Old Welsh Rd &amp; Walton Rd"},{"lng":-75.091518,"lat":40.049653,"stopid":30548,"stopname":"Martins Mill &amp; Hellerman St"},{"lng":-75.05215,"lat":40.159968,"stopid":31091,"stopname":"County Line Rd &amp; Somers Dr - MBNS"},{"lng":-75.087589,"lat":40.057666,"stopid":31104,"stopname":"Rising Sun Av &amp; Princeton Av - MBNS"},{"lng":-75.050133,"lat":40.156258,"stopid":31431,"stopname":"Huntingdon Pk &amp; Barn Swallow La - F"},{"lng":-75.082946,"lat":40.107993,"stopid":31432,"stopname":"Huntingdon Pk &amp; St Joseph Manor"},{"lng":-75.072099,"lat":40.113987,"stopid":31660,"stopname":"Huntingdon Pk &amp; Moreland Rd"},{"lng":-75.08709,"lat":40.058183,"stopid":32059,"stopname":"Rising Sun Av &amp; Princeton Av"}]