{"type": "FeatureCollection", "features": [{"geometry": {"type": "Point", "coordinates": [-75.206826, 40.014986]}, "type": "Feature", "properties": {"route": "27", "id": 2, "name": "Ridge Av &amp; Lincoln Dr  - FS"}}, {"geometry": {"type": "Point", "coordinates": [-75.214703, 40.032921]}, "type": "Feature", "properties": {"route": "27", "id": 123, "name": "Ridge Av &amp; Lyceum Av"}}, {"geometry": {"type": "Point", "coordinates": [-75.214758, 40.032616]}, "type": "Feature", "properties": {"route": "27", "id": 133, "name": "Lyceum  Av &amp; Ridge Av"}}, {"geometry": {"type": "Point", "coordinates": [-75.166333, 39.947238]}, "type": "Feature", "properties": {"route": "27", "id": 145, "name": "Spruce St &amp; 15th St"}}, {"geometry": {"type": "Point", "coordinates": [-75.284034, 40.117196]}, "type": "Feature", "properties": {"route": "27", "id": 246, "name": "Plymouth Meeting Mall"}}, {"geometry": {"type": "Point", "coordinates": [-75.250666, 40.085039]}, "type": "Feature", "properties": {"route": "27", "id": 511, "name": "Germantown Pk &amp; Church Rd - MBNS"}}, {"geometry": {"type": "Point", "coordinates": [-75.23638, 40.060946]}, "type": "Feature", "properties": {"route": "27", "id": 513, "name": "Port Royal Av &amp; Henry Av"}}, {"geometry": {"type": "Point", "coordinates": [-75.233775, 40.057925]}, "type": "Feature", "properties": {"route": "27", "id": 514, "name": "Henry Av &amp; Summit Av"}}, {"geometry": {"type": "Point", "coordinates": [-75.165333, 39.952752]}, "type": "Feature", "properties": {"route": "27", "id": 515, "name": "15th St &amp; Market St"}}, {"geometry": {"type": "Point", "coordinates": [-75.233455, 40.057916]}, "type": "Feature", "properties": {"route": "27", "id": 519, "name": "Henry Av &amp; Summit Av"}}, {"geometry": {"type": "Point", "coordinates": [-75.23586, 40.060928]}, "type": "Feature", "properties": {"route": "27", "id": 520, "name": "Henry Av &amp; Port Royal Av"}}, {"geometry": {"type": "Point", "coordinates": [-75.253017, 40.081731]}, "type": "Feature", "properties": {"route": "27", "id": 521, "name": "Ridge Pk &amp; Church Rd"}}, {"geometry": {"type": "Point", "coordinates": [-75.219644, 40.049192]}, "type": "Feature", "properties": {"route": "27", "id": 1308, "name": "Henry Av &amp; Cinnaminson St"}}, {"geometry": {"type": "Point", "coordinates": [-75.293587, 40.104175]}, "type": "Feature", "properties": {"route": "27", "id": 1636, "name": "Metroplex Shopping Center"}}, {"geometry": {"type": "Point", "coordinates": [-75.168098, 39.939317]}, "type": "Feature", "properties": {"route": "27", "id": 2635, "name": "Carpenter St &amp; 15th St"}}, {"geometry": {"type": "Point", "coordinates": [-75.166137, 39.95561]}, "type": "Feature", "properties": {"route": "27", "id": 3024, "name": "16th St &amp; Cherry St"}}, {"geometry": {"type": "Point", "coordinates": [-75.165945, 39.956528]}, "type": "Feature", "properties": {"route": "27", "id": 3057, "name": "16th St &amp; Race St"}}, {"geometry": {"type": "Point", "coordinates": [-75.163295, 39.954524]}, "type": "Feature", "properties": {"route": "27", "id": 5131, "name": "Broad St &amp; Arch St"}}, {"geometry": {"type": "Point", "coordinates": [-75.165653, 39.942721]}, "type": "Feature", "properties": {"route": "27", "id": 5135, "name": "Broad St &amp; Bainbridge St"}}, {"geometry": {"type": "Point", "coordinates": [-75.166482, 39.938858]}, "type": "Feature", "properties": {"route": "27", "id": 5150, "name": "Broad St &amp; Carpenter St"}}, {"geometry": {"type": "Point", "coordinates": [-75.166074, 39.940741]}, "type": "Feature", "properties": {"route": "27", "id": 5152, "name": "Broad St &amp; Catherine St"}}, {"geometry": {"type": "Point", "coordinates": [-75.166242, 39.939974]}, "type": "Feature", "properties": {"route": "27", "id": 5166, "name": "Broad St &amp; Christian St"}}, {"geometry": {"type": "Point", "coordinates": [-75.165846, 39.941749]}, "type": "Feature", "properties": {"route": "27", "id": 5195, "name": "Broad St &amp; Fitzwater St"}}, {"geometry": {"type": "Point", "coordinates": [-75.164476, 39.948145]}, "type": "Feature", "properties": {"route": "27", "id": 5229, "name": "Broad St &amp; Locust St"}}, {"geometry": {"type": "Point", "coordinates": [-75.165233, 39.944568]}, "type": "Feature", "properties": {"route": "27", "id": 5233, "name": "Broad St &amp; Lombard St"}}, {"geometry": {"type": "Point", "coordinates": [-75.165029, 39.945486]}, "type": "Feature", "properties": {"route": "27", "id": 5281, "name": "Broad St &amp; Pine St"}}, {"geometry": {"type": "Point", "coordinates": [-75.164729, 39.946923]}, "type": "Feature", "properties": {"route": "27", "id": 5318, "name": "Broad St &amp; Spruce St"}}, {"geometry": {"type": "Point", "coordinates": [-75.291425, 40.102691]}, "type": "Feature", "properties": {"route": "27", "id": 5910, "name": "Chemical Rd &amp; Metroplex Dr"}}, {"geometry": {"type": "Point", "coordinates": [-75.212079, 40.036639]}, "type": "Feature", "properties": {"route": "27", "id": 6840, "name": "Dupont St &amp; Lawnton St - MBFS"}}, {"geometry": {"type": "Point", "coordinates": [-75.21048, 40.03743]}, "type": "Feature", "properties": {"route": "27", "id": 6841, "name": "Dupont St &amp; Henry Av"}}, {"geometry": {"type": "Point", "coordinates": [-75.213878, 40.035785]}, "type": "Feature", "properties": {"route": "27", "id": 6842, "name": "Dupont St &amp; Lawnton St"}}, {"geometry": {"type": "Point", "coordinates": [-75.219904, 40.049076]}, "type": "Feature", "properties": {"route": "27", "id": 8517, "name": "Henry Av &amp; Cinnaminson St"}}, {"geometry": {"type": "Point", "coordinates": [-75.213936, 40.04023]}, "type": "Feature", "properties": {"route": "27", "id": 8523, "name": "Henry Av &amp; Gates St"}}, {"geometry": {"type": "Point", "coordinates": [-75.216249, 40.041528]}, "type": "Feature", "properties": {"route": "27", "id": 8524, "name": "Henry Av &amp; Gates St - MBNS"}}, {"geometry": {"type": "Point", "coordinates": [-75.224179, 40.051064]}, "type": "Feature", "properties": {"route": "27", "id": 8525, "name": "Henry Av &amp; Valley Green Ct - FS"}}, {"geometry": {"type": "Point", "coordinates": [-75.213205, 40.039452]}, "type": "Feature", "properties": {"route": "27", "id": 8528, "name": "Henry Av &amp; Hermitage St"}}, {"geometry": {"type": "Point", "coordinates": [-75.22686, 40.052568]}, "type": "Feature", "properties": {"route": "27", "id": 8531, "name": "Henry Av &amp; Wigard Av"}}, {"geometry": {"type": "Point", "coordinates": [-75.211742, 40.038459]}, "type": "Feature", "properties": {"route": "27", "id": 8533, "name": "Henry Av &amp; Leverington Av"}}, {"geometry": {"type": "Point", "coordinates": [-75.217891, 40.046154]}, "type": "Feature", "properties": {"route": "27", "id": 8534, "name": "Henry Av &amp; Livezey Ln"}}, {"geometry": {"type": "Point", "coordinates": [-75.217884, 40.044431]}, "type": "Feature", "properties": {"route": "27", "id": 8545, "name": "Henry Av &amp; Valley Av"}}, {"geometry": {"type": "Point", "coordinates": [-75.23281, 40.056183]}, "type": "Feature", "properties": {"route": "27", "id": 8546, "name": "Henry Av &amp; Cheswick Rd - MBFS"}}, {"geometry": {"type": "Point", "coordinates": [-75.22738, 40.05256]}, "type": "Feature", "properties": {"route": "27", "id": 8549, "name": "Henry Av &amp; Wigard Av"}}, {"geometry": {"type": "Point", "coordinates": [-75.231315, 40.053727]}, "type": "Feature", "properties": {"route": "27", "id": 8550, "name": "Henry Av &amp; Wises Mill Rd"}}, {"geometry": {"type": "Point", "coordinates": [-75.214537, 40.037045]}, "type": "Feature", "properties": {"route": "27", "id": 9392, "name": "Leverington Av &amp; Lawnton St"}}, {"geometry": {"type": "Point", "coordinates": [-75.21616, 40.031889]}, "type": "Feature", "properties": {"route": "27", "id": 9898, "name": "Lyceum Av &amp; Mitchell St"}}, {"geometry": {"type": "Point", "coordinates": [-75.217652, 40.030954]}, "type": "Feature", "properties": {"route": "27", "id": 9899, "name": "Lyceum Av &amp; Pechin St"}}, {"geometry": {"type": "Point", "coordinates": [-75.212042, 40.021493]}, "type": "Feature", "properties": {"route": "27", "id": 10200, "name": "Manayunk Av &amp; Hermit St"}}, {"geometry": {"type": "Point", "coordinates": [-75.213996, 40.02404]}, "type": "Feature", "properties": {"route": "27", "id": 10201, "name": "Manayunk Av &amp; Kingsley St"}}, {"geometry": {"type": "Point", "coordinates": [-75.218155, 40.028956]}, "type": "Feature", "properties": {"route": "27", "id": 10205, "name": "Manayunk Av &amp; Monastery Av"}}, {"geometry": {"type": "Point", "coordinates": [-75.215669, 40.02622]}, "type": "Feature", "properties": {"route": "27", "id": 10206, "name": "Manayunk Av &amp; Pennsdale St"}}, {"geometry": {"type": "Point", "coordinates": [-75.216151, 40.026864]}, "type": "Feature", "properties": {"route": "27", "id": 10207, "name": "Manayunk Av &amp; Rector St"}}, {"geometry": {"type": "Point", "coordinates": [-75.210771, 40.019759]}, "type": "Feature", "properties": {"route": "27", "id": 10208, "name": "Manayunk Av &amp; Ridge Av"}}, {"geometry": {"type": "Point", "coordinates": [-75.216492, 40.027525]}, "type": "Feature", "properties": {"route": "27", "id": 10209, "name": "Manayunk Av &amp; Roxborough Av"}}, {"geometry": {"type": "Point", "coordinates": [-75.21163, 40.020939]}, "type": "Feature", "properties": {"route": "27", "id": 10210, "name": "Manayunk Av &amp; Salaignac St"}}, {"geometry": {"type": "Point", "coordinates": [-75.212878, 40.022601]}, "type": "Feature", "properties": {"route": "27", "id": 10211, "name": "Manayunk Av &amp; Seville St"}}, {"geometry": {"type": "Point", "coordinates": [-75.239423, 40.06403]}, "type": "Feature", "properties": {"route": "27", "id": 12253, "name": "Ridge Av &amp; Cathedral Rd"}}, {"geometry": {"type": "Point", "coordinates": [-75.210557, 40.016331]}, "type": "Feature", "properties": {"route": "27", "id": 12261, "name": "Ridge Av &amp; Osborn St - MBFS"}}, {"geometry": {"type": "Point", "coordinates": [-75.215822, 40.03411]}, "type": "Feature", "properties": {"route": "27", "id": 12274, "name": "Ridge Av &amp; Green Ln"}}, {"geometry": {"type": "Point", "coordinates": [-75.216082, 40.034155]}, "type": "Feature", "properties": {"route": "27", "id": 12275, "name": "Ridge Av &amp; Green Ln"}}, {"geometry": {"type": "Point", "coordinates": [-75.217272, 40.035737]}, "type": "Feature", "properties": {"route": "27", "id": 12299, "name": "Leverington Av &amp; Ridge Av"}}, {"geometry": {"type": "Point", "coordinates": [-75.211321, 40.017689]}, "type": "Feature", "properties": {"route": "27", "id": 12319, "name": "Ridge Av &amp; Osborn St"}}, {"geometry": {"type": "Point", "coordinates": [-75.242453, 40.072326]}, "type": "Feature", "properties": {"route": "27", "id": 12365, "name": "Ridge Av &amp; Ayrdale Cresent Rd"}}, {"geometry": {"type": "Point", "coordinates": [-75.24009, 40.066735]}, "type": "Feature", "properties": {"route": "27", "id": 12366, "name": "Ridge Av &amp; Caledonia St - MBFS"}}, {"geometry": {"type": "Point", "coordinates": [-75.241274, 40.070914]}, "type": "Feature", "properties": {"route": "27", "id": 12370, "name": "Ridge Av &amp; Bells Mill Rd - FS"}}, {"geometry": {"type": "Point", "coordinates": [-75.269809, 40.08992]}, "type": "Feature", "properties": {"route": "27", "id": 12372, "name": "Ridge Pk &amp; Birch Dr"}}, {"geometry": {"type": "Point", "coordinates": [-75.288293, 40.094387]}, "type": "Feature", "properties": {"route": "27", "id": 12374, "name": "Ridge Pk &amp; Butler Pk - 2 MBNS"}}, {"geometry": {"type": "Point", "coordinates": [-75.276928, 40.091937]}, "type": "Feature", "properties": {"route": "27", "id": 12391, "name": "Ridge Pk &amp; Ash Ln - MBNS"}}, {"geometry": {"type": "Point", "coordinates": [-75.283775, 40.093615]}, "type": "Feature", "properties": {"route": "27", "id": 12396, "name": "Ridge Pike &amp; Butler Pike - MBFS"}}, {"geometry": {"type": "Point", "coordinates": [-75.238935, 40.060888]}, "type": "Feature", "properties": {"route": "27", "id": 12397, "name": "Ridge Av &amp; Ivins Rd"}}, {"geometry": {"type": "Point", "coordinates": [-75.26573, 40.088567]}, "type": "Feature", "properties": {"route": "27", "id": 12398, "name": "Ridge Pk &amp; Joshua Rd - FS"}}, {"geometry": {"type": "Point", "coordinates": [-75.27383, 40.09097]}, "type": "Feature", "properties": {"route": "27", "id": 12401, "name": "Ridge Pk &amp; Birch Dr - MBNS"}}, {"geometry": {"type": "Point", "coordinates": [-75.240417, 40.068414]}, "type": "Feature", "properties": {"route": "27", "id": 12408, "name": "Ridge Av &amp; Manatawna Av"}}, {"geometry": {"type": "Point", "coordinates": [-75.247647, 40.07652]}, "type": "Feature", "properties": {"route": "27", "id": 12410, "name": "Ridge Pk &amp; Manor Rd"}}, {"geometry": {"type": "Point", "coordinates": [-75.262195, 40.08759]}, "type": "Feature", "properties": {"route": "27", "id": 12413, "name": "Ridge Pk &amp; Mulberry Ln"}}, {"geometry": {"type": "Point", "coordinates": [-75.243172, 40.073505]}, "type": "Feature", "properties": {"route": "27", "id": 12415, "name": "Ridge Av &amp; Northwestern Av"}}, {"geometry": {"type": "Point", "coordinates": [-75.280061, 40.092976]}, "type": "Feature", "properties": {"route": "27", "id": 12438, "name": "Ridge Pk &amp; Spring Mill Rd"}}, {"geometry": {"type": "Point", "coordinates": [-75.21674, 40.027614]}, "type": "Feature", "properties": {"route": "27", "id": 12784, "name": "Manayunk Av &amp; Roxborough Av"}}, {"geometry": {"type": "Point", "coordinates": [-75.166402, 39.954173]}, "type": "Feature", "properties": {"route": "27", "id": 14934, "name": "16th St &amp; Arch St - FS"}}, {"geometry": {"type": "Point", "coordinates": [-75.291854, 40.094962]}, "type": "Feature", "properties": {"route": "27", "id": 14989, "name": "Ridge Pk &amp; Lynda Dr"}}, {"geometry": {"type": "Point", "coordinates": [-75.248887, 40.07745]}, "type": "Feature", "properties": {"route": "27", "id": 14990, "name": "Ridge Pk &amp; Barren Hill Rd - MBFS"}}, {"geometry": {"type": "Point", "coordinates": [-75.241298, 40.0707]}, "type": "Feature", "properties": {"route": "27", "id": 14991, "name": "Ridge Av &amp; Spring  Ln"}}, {"geometry": {"type": "Point", "coordinates": [-75.237861, 40.059904]}, "type": "Feature", "properties": {"route": "27", "id": 14993, "name": "Port Royal  Av Ridge Av - FS"}}, {"geometry": {"type": "Point", "coordinates": [-75.210297, 40.016322]}, "type": "Feature", "properties": {"route": "27", "id": 14995, "name": "Ridge Av &amp; Osborn St - MBNS"}}, {"geometry": {"type": "Point", "coordinates": [-75.165449, 39.943577]}, "type": "Feature", "properties": {"route": "27", "id": 14996, "name": "Broad St &amp; South St"}}, {"geometry": {"type": "Point", "coordinates": [-75.232491, 40.056085]}, "type": "Feature", "properties": {"route": "27", "id": 14997, "name": "Henry Av &amp; Cheswick Rd - MBNS"}}, {"geometry": {"type": "Point", "coordinates": [-75.254384, 40.083527]}, "type": "Feature", "properties": {"route": "27", "id": 14999, "name": "Ridge Pk &amp; Crescent Av"}}, {"geometry": {"type": "Point", "coordinates": [-75.16409, 39.950482]}, "type": "Feature", "properties": {"route": "27", "id": 15185, "name": "Broad St &amp; Chestnut St - FS"}}, {"geometry": {"type": "Point", "coordinates": [-75.164342, 39.949394]}, "type": "Feature", "properties": {"route": "27", "id": 15186, "name": "Broad St &amp; Walnut St"}}, {"geometry": {"type": "Point", "coordinates": [-75.164582, 39.948261]}, "type": "Feature", "properties": {"route": "27", "id": 15187, "name": "Broad St &amp; Locust St"}}, {"geometry": {"type": "Point", "coordinates": [-75.164846, 39.947048]}, "type": "Feature", "properties": {"route": "27", "id": 15188, "name": "Broad St &amp; Spruce St"}}, {"geometry": {"type": "Point", "coordinates": [-75.165147, 39.94563]}, "type": "Feature", "properties": {"route": "27", "id": 15189, "name": "Broad St &amp; Pine St"}}, {"geometry": {"type": "Point", "coordinates": [-75.165339, 39.944702]}, "type": "Feature", "properties": {"route": "27", "id": 15190, "name": "Broad St &amp; Lombard St"}}, {"geometry": {"type": "Point", "coordinates": [-75.165567, 39.943703]}, "type": "Feature", "properties": {"route": "27", "id": 15191, "name": "Broad St &amp; South St"}}, {"geometry": {"type": "Point", "coordinates": [-75.165795, 39.942632]}, "type": "Feature", "properties": {"route": "27", "id": 15192, "name": "Broad St &amp; Bainbridge St - FS"}}, {"geometry": {"type": "Point", "coordinates": [-75.165975, 39.941865]}, "type": "Feature", "properties": {"route": "27", "id": 15193, "name": "Broad St &amp; Fitzwater St"}}, {"geometry": {"type": "Point", "coordinates": [-75.166191, 39.940866]}, "type": "Feature", "properties": {"route": "27", "id": 15194, "name": "Broad St &amp; Catherine St"}}, {"geometry": {"type": "Point", "coordinates": [-75.16636, 39.940099]}, "type": "Feature", "properties": {"route": "27", "id": 15195, "name": "Broad St &amp; Christian St"}}, {"geometry": {"type": "Point", "coordinates": [-75.166564, 39.939144]}, "type": "Feature", "properties": {"route": "27", "id": 15196, "name": "Broad St &amp; Carpenter St"}}, {"geometry": {"type": "Point", "coordinates": [-75.168492, 39.93814]}, "type": "Feature", "properties": {"route": "27", "id": 15202, "name": "15th St &amp; Washington Av"}}, {"geometry": {"type": "Point", "coordinates": [-75.164212, 39.949278]}, "type": "Feature", "properties": {"route": "27", "id": 15941, "name": "Broad St &amp; Walnut St"}}, {"geometry": {"type": "Point", "coordinates": [-75.21643, 40.031617]}, "type": "Feature", "properties": {"route": "27", "id": 16022, "name": "Lyceum Av &amp; Mitchell St"}}, {"geometry": {"type": "Point", "coordinates": [-75.217876, 40.030684]}, "type": "Feature", "properties": {"route": "27", "id": 16023, "name": "Lyceum Av &amp; Pechin St"}}, {"geometry": {"type": "Point", "coordinates": [-75.219003, 40.029912]}, "type": "Feature", "properties": {"route": "27", "id": 16024, "name": "Manayunk Av &amp; Lyceum Av"}}, {"geometry": {"type": "Point", "coordinates": [-75.217907, 40.028893]}, "type": "Feature", "properties": {"route": "27", "id": 16052, "name": "Manayunk Av &amp; Monastery Av"}}, {"geometry": {"type": "Point", "coordinates": [-75.285779, 40.114895]}, "type": "Feature", "properties": {"route": "27", "id": 16747, "name": "Germantown Pk &amp; Launfall Rd"}}, {"geometry": {"type": "Point", "coordinates": [-75.162911, 39.956317]}, "type": "Feature", "properties": {"route": "27", "id": 17170, "name": "Broad St &amp; Race St"}}, {"geometry": {"type": "Point", "coordinates": [-75.211486, 40.017618]}, "type": "Feature", "properties": {"route": "27", "id": 17345, "name": "Ridge Av &amp; Osborn St - FS"}}, {"geometry": {"type": "Point", "coordinates": [-75.164763, 39.953652]}, "type": "Feature", "properties": {"route": "27", "id": 17842, "name": "JFK Blvd &amp; 15th St"}}, {"geometry": {"type": "Point", "coordinates": [-75.219062, 40.030055]}, "type": "Feature", "properties": {"route": "27", "id": 18586, "name": "Lyceum Av &amp; Manayunk Av"}}, {"geometry": {"type": "Point", "coordinates": [-75.212689, 40.022565]}, "type": "Feature", "properties": {"route": "27", "id": 19033, "name": "Manayunk Av &amp; Seville St"}}, {"geometry": {"type": "Point", "coordinates": [-75.213796, 40.023986]}, "type": "Feature", "properties": {"route": "27", "id": 19034, "name": "Manayunk Av &amp; Kingsley St"}}, {"geometry": {"type": "Point", "coordinates": [-75.215468, 40.026175]}, "type": "Feature", "properties": {"route": "27", "id": 19035, "name": "Manayunk Av &amp; Pensdale St"}}, {"geometry": {"type": "Point", "coordinates": [-75.211441, 40.020867]}, "type": "Feature", "properties": {"route": "27", "id": 19036, "name": "Manayunk Av &amp; Salaignac St"}}, {"geometry": {"type": "Point", "coordinates": [-75.215951, 40.026801]}, "type": "Feature", "properties": {"route": "27", "id": 19037, "name": "Manayunk Av &amp; Rector St"}}, {"geometry": {"type": "Point", "coordinates": [-75.217619, 40.0461]}, "type": "Feature", "properties": {"route": "27", "id": 19040, "name": "Henry Av &amp; Livezey Ln"}}, {"geometry": {"type": "Point", "coordinates": [-75.240263, 40.068333]}, "type": "Feature", "properties": {"route": "27", "id": 19042, "name": "Ridge Av &amp; Manatawna Av"}}, {"geometry": {"type": "Point", "coordinates": [-75.247115, 40.076287]}, "type": "Feature", "properties": {"route": "27", "id": 19043, "name": "Ridge Pk &amp; Manor Rd"}}, {"geometry": {"type": "Point", "coordinates": [-75.265446, 40.088638]}, "type": "Feature", "properties": {"route": "27", "id": 19044, "name": "Ridge Pk &amp; Joshua Rd"}}, {"geometry": {"type": "Point", "coordinates": [-75.287122, 40.094359]}, "type": "Feature", "properties": {"route": "27", "id": 19045, "name": "Ridge Pk &amp; Butler Pk - FS"}}, {"geometry": {"type": "Point", "coordinates": [-75.291463, 40.095042]}, "type": "Feature", "properties": {"route": "27", "id": 19046, "name": "Ridge Pk &amp; Lynda Rd"}}, {"geometry": {"type": "Point", "coordinates": [-75.293765, 40.104042]}, "type": "Feature", "properties": {"route": "27", "id": 19047, "name": "Metroplex Shop Ctr opposite shelter"}}, {"geometry": {"type": "Point", "coordinates": [-75.239696, 40.063763]}, "type": "Feature", "properties": {"route": "27", "id": 19281, "name": "Ridge Av &amp; Cathedral Rd - FS"}}, {"geometry": {"type": "Point", "coordinates": [-75.163755, 39.951446]}, "type": "Feature", "properties": {"route": "27", "id": 20414, "name": "Broad St &amp; S Penn Square"}}, {"geometry": {"type": "Point", "coordinates": [-75.162499, 39.952799]}, "type": "Feature", "properties": {"route": "27", "id": 20968, "name": "Juniper St &amp; Commerce St"}}, {"geometry": {"type": "Point", "coordinates": [-75.28957, 40.094746]}, "type": "Feature", "properties": {"route": "27", "id": 24009, "name": "Ridge Pk &amp; Little Av - MBNS"}}, {"geometry": {"type": "Point", "coordinates": [-75.284577, 40.117937]}, "type": "Feature", "properties": {"route": "27", "id": 26578, "name": "Hickory Rd &amp; Germantown Pk - MBNS"}}, {"geometry": {"type": "Point", "coordinates": [-75.283006, 40.105163]}, "type": "Feature", "properties": {"route": "27", "id": 27223, "name": "Chemical Rd &amp; Germantown Pk - MBFS"}}, {"geometry": {"type": "Point", "coordinates": [-75.294554, 40.099892]}, "type": "Feature", "properties": {"route": "27", "id": 27327, "name": "Chemical Rd &amp; Gallagher Rd - FS"}}, {"geometry": {"type": "Point", "coordinates": [-75.252933, 40.081981]}, "type": "Feature", "properties": {"route": "27", "id": 27350, "name": "Church Rd &amp; Ridge Pk"}}, {"geometry": {"type": "Point", "coordinates": [-75.259487, 40.086872]}, "type": "Feature", "properties": {"route": "27", "id": 27352, "name": "Ridge Pk &amp; Chestnut St"}}, {"geometry": {"type": "Point", "coordinates": [-75.262006, 40.08767]}, "type": "Feature", "properties": {"route": "27", "id": 27353, "name": "Ridge Pk &amp; Mulberry Ln"}}, {"geometry": {"type": "Point", "coordinates": [-75.289453, 40.094567]}, "type": "Feature", "properties": {"route": "27", "id": 29494, "name": "Ridge Pk &amp; Butler Pk - 1 MBNS"}}, {"geometry": {"type": "Point", "coordinates": [-75.28182, 40.106144]}, "type": "Feature", "properties": {"route": "27", "id": 29823, "name": "Germantown Pk &amp; Corson Ln - MBNS"}}, {"geometry": {"type": "Point", "coordinates": [-75.284414, 40.104968]}, "type": "Feature", "properties": {"route": "27", "id": 29824, "name": "Chemical Rd &amp; Germantown Pk - MBNS"}}, {"geometry": {"type": "Point", "coordinates": [-75.279795, 40.11836]}, "type": "Feature", "properties": {"route": "27", "id": 30125, "name": "Plymouth Meeting Mall - layover"}}, {"geometry": {"type": "Point", "coordinates": [-75.210711, 40.019884]}, "type": "Feature", "properties": {"route": "27", "id": 30394, "name": "Manayunk Av &amp; Ridge Av - FS"}}, {"geometry": {"type": "Point", "coordinates": [-75.283097, 40.118248]}, "type": "Feature", "properties": {"route": "27", "id": 30443, "name": "Hickory Rd &amp; Fountain Rd - MBFS"}}, {"geometry": {"type": "Point", "coordinates": [-75.251026, 40.082835]}, "type": "Feature", "properties": {"route": "27", "id": 30461, "name": "Church Rd &amp; Park Av - FS"}}, {"geometry": {"type": "Point", "coordinates": [-75.295615, 40.095948]}, "type": "Feature", "properties": {"route": "27", "id": 30462, "name": "Ridge Pk &amp; Chemical Rd"}}, {"geometry": {"type": "Point", "coordinates": [-75.255128, 40.084081]}, "type": "Feature", "properties": {"route": "27", "id": 30549, "name": "Ridge Pk &amp; Pine Ridge Rd"}}, {"geometry": {"type": "Point", "coordinates": [-75.206909, 40.014924]}, "type": "Feature", "properties": {"route": "27", "id": 30596, "name": "Ridge Av &amp; Lincoln Dr"}}, {"geometry": {"type": "Point", "coordinates": [-75.230865, 40.053753]}, "type": "Feature", "properties": {"route": "27", "id": 30726, "name": "Henry Av &amp; Wises Mill Rd"}}, {"geometry": {"type": "Point", "coordinates": [-75.23989, 40.066387]}, "type": "Feature", "properties": {"route": "27", "id": 30728, "name": "Ridge Av &amp; Grakyn Ln - MBFS"}}, {"geometry": {"type": "Point", "coordinates": [-75.242205, 40.072246]}, "type": "Feature", "properties": {"route": "27", "id": 30729, "name": "Ridge Av &amp; Ayrdale Rd"}}, {"geometry": {"type": "Point", "coordinates": [-75.244423, 40.074614]}, "type": "Feature", "properties": {"route": "27", "id": 30730, "name": "Ridge Av &amp; Northwestern Av - MBFS"}}, {"geometry": {"type": "Point", "coordinates": [-75.249111, 40.077798]}, "type": "Feature", "properties": {"route": "27", "id": 30731, "name": "Ridge Pk &amp; Barren Hill Rd - MBNS"}}, {"geometry": {"type": "Point", "coordinates": [-75.253129, 40.084275]}, "type": "Feature", "properties": {"route": "27", "id": 30732, "name": "Cresent Av &amp; Wagner Rd"}}, {"geometry": {"type": "Point", "coordinates": [-75.251315, 40.085781]}, "type": "Feature", "properties": {"route": "27", "id": 30733, "name": "Crescent Av &amp; Germantown Pk"}}, {"geometry": {"type": "Point", "coordinates": [-75.272304, 40.090664]}, "type": "Feature", "properties": {"route": "27", "id": 30734, "name": "Ridge Pk &amp; Birch Dr - MBFS"}}, {"geometry": {"type": "Point", "coordinates": [-75.277968, 40.092394]}, "type": "Feature", "properties": {"route": "27", "id": 30735, "name": "Ridge Pk &amp; Spring Mill Rd - MBNS"}}, {"geometry": {"type": "Point", "coordinates": [-75.285182, 40.093982]}, "type": "Feature", "properties": {"route": "27", "id": 30736, "name": "Ridge Pk &amp; Butler Pk - MBNS"}}, {"geometry": {"type": "Point", "coordinates": [-75.279943, 40.092807]}, "type": "Feature", "properties": {"route": "27", "id": 30737, "name": "Ridge Pk &amp; Spring Mill Rd - FS"}}, {"geometry": {"type": "Point", "coordinates": [-75.270093, 40.089867]}, "type": "Feature", "properties": {"route": "27", "id": 30738, "name": "Ridge Pk &amp; Birch Dr"}}, {"geometry": {"type": "Point", "coordinates": [-75.259807, 40.086864]}, "type": "Feature", "properties": {"route": "27", "id": 30739, "name": "Ridge Pk &amp;  S Gilinger Rd"}}, {"geometry": {"type": "Point", "coordinates": [-75.258672, 40.086273]}, "type": "Feature", "properties": {"route": "27", "id": 30740, "name": "Ridge Pk &amp; Holly Ln - FS"}}, {"geometry": {"type": "Point", "coordinates": [-75.251826, 40.080123]}, "type": "Feature", "properties": {"route": "27", "id": 30741, "name": "Ridge Pk &amp; Harts Ln - MBFS"}}, {"geometry": {"type": "Point", "coordinates": [-75.243207, 40.073336]}, "type": "Feature", "properties": {"route": "27", "id": 30742, "name": "Ridge Av &amp; Northwestern Av - FS"}}, {"geometry": {"type": "Point", "coordinates": [-75.214291, 40.040177]}, "type": "Feature", "properties": {"route": "27", "id": 30743, "name": "Henry Av &amp; Gates St"}}, {"geometry": {"type": "Point", "coordinates": [-75.21455, 40.024755]}, "type": "Feature", "properties": {"route": "27", "id": 30744, "name": "Manayunk Av &amp; Burnside St"}}, {"geometry": {"type": "Point", "coordinates": [-75.2119, 40.021492]}, "type": "Feature", "properties": {"route": "27", "id": 30746, "name": "Manayunk Av &amp; Hermit St - FS"}}, {"geometry": {"type": "Point", "coordinates": [-75.295875, 40.102241]}, "type": "Feature", "properties": {"route": "27", "id": 31278, "name": "Gallagher Rd &amp; Chemical Rd - FS"}}, {"geometry": {"type": "Point", "coordinates": [-75.214361, 40.02471]}, "type": "Feature", "properties": {"route": "27", "id": 31353, "name": "Manayunk Av &amp; Burnside St"}}, {"geometry": {"type": "Point", "coordinates": [-75.285225, 40.113556]}, "type": "Feature", "properties": {"route": "27", "id": 31455, "name": "Germantown Pk &amp; Launfall Rd - MBNS"}}, {"geometry": {"type": "Point", "coordinates": [-75.223116, 40.050831]}, "type": "Feature", "properties": {"route": "27", "id": 31714, "name": "Henry Av &amp; Domino La - MBNS"}}]}