[{"lng":-75.122493,"lat":40.142263,"stopid":809,"stopname":"Willow Grove Park Mall"},{"lng":-75.143042,"lat":40.155548,"stopid":810,"stopname":"Prudential Office Campus"},{"lng":-75.139296,"lat":40.173981,"stopid":1079,"stopname":"Dresher Rd &amp; Gibraltar Rd - MBNS"},{"lng":-75.134876,"lat":40.168508,"stopid":1080,"stopname":"Rock Road Office Complex"},{"lng":-75.129795,"lat":40.148805,"stopid":1085,"stopname":"Moreland Rd &amp; Fitzwatertown Rd"},{"lng":-75.129415,"lat":40.148876,"stopid":2321,"stopname":"Moreland &amp; Fitzwatertown Rd"},{"lng":-75.151658,"lat":40.169055,"stopid":2322,"stopname":"Horsham Business Center"},{"lng":-75.134259,"lat":40.151717,"stopid":16404,"stopname":"Moreland Rd &amp; Kimball Av"},{"lng":-75.139823,"lat":40.155059,"stopid":16405,"stopname":"Welsh Rd &amp; Computer Av - FS"},{"lng":-75.146084,"lat":40.15876,"stopid":16406,"stopname":"Welsh Rd &amp; Dryden Rd - MBNS"},{"lng":-75.148264,"lat":40.164629,"stopid":16408,"stopname":"Dresher Rd &amp; Welsh Rd - MBFS"},{"lng":-75.143292,"lat":40.169884,"stopid":16413,"stopname":"Dresher Rd &amp; Witmer Rd"},{"lng":-75.140847,"lat":40.172344,"stopid":16417,"stopname":"Dresher Rd &amp; Witmer Rd - MBFS"},{"lng":-75.131277,"lat":40.170873,"stopid":16418,"stopname":"Gibralter Rd &amp; Blair Mill Rd - MBNS"},{"lng":-75.147437,"lat":40.161057,"stopid":16419,"stopname":"Electronic Dr &amp; Welsh Rd - MBNS"},{"lng":-75.134824,"lat":40.172551,"stopid":16420,"stopname":"Prudential Rd &amp; Gibralter Rd - MBFS"},{"lng":-75.136478,"lat":40.170814,"stopid":16421,"stopname":"Prudential Rd &amp; Lakeside Dr"},{"lng":-75.132537,"lat":40.167119,"stopid":16423,"stopname":"Blair Mill Rd &amp; Carrell  Ln - FS"},{"lng":-75.133666,"lat":40.166059,"stopid":16424,"stopname":"Blair Mill Rd &amp; Witmer Rd - MBNS"},{"lng":-75.136472,"lat":40.163433,"stopid":16425,"stopname":"Blair Mill Rd &amp; Witmer Rd - 1 MBFS"},{"lng":-75.140218,"lat":40.159853,"stopid":16426,"stopname":"Blair Mill Rd &amp; Welsh Rd - MBNS"},{"lng":-75.145345,"lat":40.163096,"stopid":19544,"stopname":"Electronic Dr &amp; UPS"},{"lng":-75.14114,"lat":40.166005,"stopid":20399,"stopname":"Walnut Grove Drive - culdesac"},{"lng":-75.114103,"lat":40.143831,"stopid":20503,"stopname":"Willow Grove Station"},{"lng":-75.142209,"lat":40.156502,"stopid":21263,"stopname":"Welsh Rd &amp; Blair Mill Rd - MBNS 2"},{"lng":-75.134551,"lat":40.172657,"stopid":21951,"stopname":"Prudential Rd &amp; Gibraltar Rd"},{"lng":-75.122637,"lat":40.144602,"stopid":27679,"stopname":"Moreland Rd &amp; Coolidge Av - MBFS"},{"lng":-75.120923,"lat":40.143803,"stopid":27684,"stopname":"Moreland Rd &amp; Center Av - MBFS"},{"lng":-75.138889,"lat":40.154486,"stopid":29047,"stopname":"Welsh Rd &amp; Computer Av - MBNS"},{"lng":-75.146891,"lat":40.161403,"stopid":29048,"stopname":"Electronic Dr &amp; Welsh Rd - MBFS"},{"lng":-75.137163,"lat":40.174136,"stopid":29049,"stopname":"Gibraltar Rd &amp; Dresher Rd - MBFS"},{"lng":-75.136767,"lat":40.169547,"stopid":29050,"stopname":"Rock Rd &amp; Prudential Rd - MBFS"},{"lng":-75.1324,"lat":40.17151,"stopid":29051,"stopname":"Gibralter Rd &amp; Prudential Rd - MBFS"},{"lng":-75.137554,"lat":40.162391,"stopid":29052,"stopname":"Blair Mill Rd &amp; Witmer Rd - 2 MBFS"},{"lng":-75.139457,"lat":40.154701,"stopid":29053,"stopname":"Welsh Rd &amp; Computer Rd"},{"lng":-75.134566,"lat":40.151726,"stopid":29054,"stopname":"Moreland Rd &amp; Kimball Av"},{"lng":-75.149272,"lat":40.167487,"stopid":29399,"stopname":"255 Business Center Dr"},{"lng":-75.149154,"lat":40.167335,"stopid":29401,"stopname":"250 Business Center Dr"},{"lng":-75.142475,"lat":40.167008,"stopid":29402,"stopname":"5 Walnut Grove"},{"lng":-75.141169,"lat":40.155928,"stopid":31493,"stopname":"Welsh Rd &amp; Blair Mill Rd - MBNS 1"},{"lng":-75.119755,"lat":40.142837,"stopid":31567,"stopname":"Moreland Rd &amp; Park Av"},{"lng":-75.135046,"lat":40.164768,"stopid":31594,"stopname":"Blair Mill Rd &amp; Witmer Rd"},{"lng":-75.146134,"lat":40.170256,"stopid":31595,"stopname":"Manor Dr &amp; Witmer Rd - MBNS"},{"lng":-75.14871,"lat":40.165763,"stopid":31596,"stopname":"Village Dr &amp; Dresher Rd - MBFS"},{"lng":-75.139505,"lat":40.154541,"stopid":32382,"stopname":"Prudential Office Campus &amp; Welsh Rd"}]