{"type": "FeatureCollection", "features": [{"geometry": {"type": "Point", "coordinates": [-75.142305, 39.949783]}, "type": "Feature", "properties": {"route": "33", "id": 69, "name": "Front St &amp; Market St Loop"}}, {"geometry": {"type": "Point", "coordinates": [-75.150249, 39.950792]}, "type": "Feature", "properties": {"route": "33", "id": 359, "name": "Market St &amp; 6th St"}}, {"geometry": {"type": "Point", "coordinates": [-75.167644, 39.995739]}, "type": "Feature", "properties": {"route": "33", "id": 589, "name": "22nd St &amp; Lehigh Av"}}, {"geometry": {"type": "Point", "coordinates": [-75.140231, 39.948716]}, "type": "Feature", "properties": {"route": "33", "id": 593, "name": "Penn's Landing - 1"}}, {"geometry": {"type": "Point", "coordinates": [-75.168873, 39.972921]}, "type": "Feature", "properties": {"route": "33", "id": 595, "name": "20th St &amp; Girard Av - MBFS"}}, {"geometry": {"type": "Point", "coordinates": [-75.167527, 39.995498]}, "type": "Feature", "properties": {"route": "33", "id": 596, "name": "22nd St &amp; Lehigh Av"}}, {"geometry": {"type": "Point", "coordinates": [-75.165844, 40.00317]}, "type": "Feature", "properties": {"route": "33", "id": 597, "name": "22nd St &amp; Allegheny Av"}}, {"geometry": {"type": "Point", "coordinates": [-75.167528, 39.972543]}, "type": "Feature", "properties": {"route": "33", "id": 1206, "name": "19th St &amp; Girard Av"}}, {"geometry": {"type": "Point", "coordinates": [-75.165152, 39.982605]}, "type": "Feature", "properties": {"route": "33", "id": 2740, "name": "19th St &amp; Berks St"}}, {"geometry": {"type": "Point", "coordinates": [-75.168285, 39.968975]}, "type": "Feature", "properties": {"route": "33", "id": 2742, "name": "19th St &amp; Brown St"}}, {"geometry": {"type": "Point", "coordinates": [-75.170063, 39.960678]}, "type": "Feature", "properties": {"route": "33", "id": 2743, "name": "19th St &amp; Callowhill St"}}, {"geometry": {"type": "Point", "coordinates": [-75.164479, 39.985656]}, "type": "Feature", "properties": {"route": "33", "id": 2749, "name": "19th St &amp; Diamond St"}}, {"geometry": {"type": "Point", "coordinates": [-75.168634, 39.967333]}, "type": "Feature", "properties": {"route": "33", "id": 2751, "name": "19th St &amp; Fairmount Av"}}, {"geometry": {"type": "Point", "coordinates": [-75.169162, 39.964871]}, "type": "Feature", "properties": {"route": "33", "id": 2754, "name": "19th St &amp; Green St"}}, {"geometry": {"type": "Point", "coordinates": [-75.169751, 39.962132]}, "type": "Feature", "properties": {"route": "33", "id": 2755, "name": "19th St &amp; Hamilton St"}}, {"geometry": {"type": "Point", "coordinates": [-75.166426, 39.976789]}, "type": "Feature", "properties": {"route": "33", "id": 2756, "name": "19th St &amp; Jefferson St"}}, {"geometry": {"type": "Point", "coordinates": [-75.166726, 39.975424]}, "type": "Feature", "properties": {"route": "33", "id": 2761, "name": "19th St &amp; Master St"}}, {"geometry": {"type": "Point", "coordinates": [-75.165466, 39.981176]}, "type": "Feature", "properties": {"route": "33", "id": 2764, "name": "19th St &amp; Montgomery Av"}}, {"geometry": {"type": "Point", "coordinates": [-75.164804, 39.98414]}, "type": "Feature", "properties": {"route": "33", "id": 2767, "name": "19th St &amp; Norris St"}}, {"geometry": {"type": "Point", "coordinates": [-75.166113, 39.978199]}, "type": "Feature", "properties": {"route": "33", "id": 2769, "name": "19th St &amp; Oxford St"}}, {"geometry": {"type": "Point", "coordinates": [-75.168045, 39.970045]}, "type": "Feature", "properties": {"route": "33", "id": 2770, "name": "19th St &amp; Parrish St"}}, {"geometry": {"type": "Point", "coordinates": [-75.167804, 39.97125]}, "type": "Feature", "properties": {"route": "33", "id": 2773, "name": "19th St &amp; Poplar St"}}, {"geometry": {"type": "Point", "coordinates": [-75.16945, 39.963604]}, "type": "Feature", "properties": {"route": "33", "id": 2780, "name": "19th St &amp; Spring Garden St"}}, {"geometry": {"type": "Point", "coordinates": [-75.167026, 39.974015]}, "type": "Feature", "properties": {"route": "33", "id": 2783, "name": "19th St &amp; Thompson St - MBNS"}}, {"geometry": {"type": "Point", "coordinates": [-75.170411, 39.959197]}, "type": "Feature", "properties": {"route": "33", "id": 2784, "name": "19th St &amp; Vine St"}}, {"geometry": {"type": "Point", "coordinates": [-75.172027, 39.958695]}, "type": "Feature", "properties": {"route": "33", "id": 2799, "name": "20th St &amp; Ben Franklin Pkwy"}}, {"geometry": {"type": "Point", "coordinates": [-75.169726, 39.96896]}, "type": "Feature", "properties": {"route": "33", "id": 2801, "name": "20th St &amp; Brown St"}}, {"geometry": {"type": "Point", "coordinates": [-75.17154, 39.960717]}, "type": "Feature", "properties": {"route": "33", "id": 2802, "name": "20th St &amp; Callowhill St"}}, {"geometry": {"type": "Point", "coordinates": [-75.170099, 39.967149]}, "type": "Feature", "properties": {"route": "33", "id": 2807, "name": "20th St &amp; Fairmount Av"}}, {"geometry": {"type": "Point", "coordinates": [-75.170615, 39.964892]}, "type": "Feature", "properties": {"route": "33", "id": 2811, "name": "20th St &amp; Green St"}}, {"geometry": {"type": "Point", "coordinates": [-75.171204, 39.962171]}, "type": "Feature", "properties": {"route": "33", "id": 2812, "name": "20th St &amp; Hamilton St"}}, {"geometry": {"type": "Point", "coordinates": [-75.169486, 39.970093]}, "type": "Feature", "properties": {"route": "33", "id": 2828, "name": "20th St &amp; Parrish St"}}, {"geometry": {"type": "Point", "coordinates": [-75.169213, 39.971313]}, "type": "Feature", "properties": {"route": "33", "id": 2834, "name": "20th St &amp; Poplar St"}}, {"geometry": {"type": "Point", "coordinates": [-75.172331, 39.957345]}, "type": "Feature", "properties": {"route": "33", "id": 2836, "name": "20th St &amp; Race St"}}, {"geometry": {"type": "Point", "coordinates": [-75.164651, 40.009451]}, "type": "Feature", "properties": {"route": "33", "id": 2843, "name": "22nd St &amp; Venango St"}}, {"geometry": {"type": "Point", "coordinates": [-75.165625, 40.004955]}, "type": "Feature", "properties": {"route": "33", "id": 2846, "name": "22nd St &amp; Westmoreland St"}}, {"geometry": {"type": "Point", "coordinates": [-75.165531, 40.004743]}, "type": "Feature", "properties": {"route": "33", "id": 2847, "name": "22nd St &amp; Westmoreland St"}}, {"geometry": {"type": "Point", "coordinates": [-75.168618, 39.991154]}, "type": "Feature", "properties": {"route": "33", "id": 2852, "name": "22nd St &amp; York St"}}, {"geometry": {"type": "Point", "coordinates": [-75.167591, 39.98768]}, "type": "Feature", "properties": {"route": "33", "id": 3101, "name": "21st St &amp; Susquehanna Av"}}, {"geometry": {"type": "Point", "coordinates": [-75.16595, 40.003393]}, "type": "Feature", "properties": {"route": "33", "id": 3105, "name": "22nd St &amp; Allegheny Av"}}, {"geometry": {"type": "Point", "coordinates": [-75.170347, 39.983464]}, "type": "Feature", "properties": {"route": "33", "id": 3108, "name": "22nd St &amp; Berks St"}}, {"geometry": {"type": "Point", "coordinates": [-75.16683, 39.99862]}, "type": "Feature", "properties": {"route": "33", "id": 3109, "name": "22nd St &amp; Cambria St"}}, {"geometry": {"type": "Point", "coordinates": [-75.166948, 39.99879]}, "type": "Feature", "properties": {"route": "33", "id": 3110, "name": "22nd St &amp; Cambria St"}}, {"geometry": {"type": "Point", "coordinates": [-75.170984, 39.98044]}, "type": "Feature", "properties": {"route": "33", "id": 3112, "name": "22nd St &amp; Cecil B Moore Av"}}, {"geometry": {"type": "Point", "coordinates": [-75.166322, 40.001743]}, "type": "Feature", "properties": {"route": "33", "id": 3115, "name": "22nd St &amp; Clearfield Av"}}, {"geometry": {"type": "Point", "coordinates": [-75.166193, 40.001573]}, "type": "Feature", "properties": {"route": "33", "id": 3116, "name": "22nd St &amp; Clearfield St"}}, {"geometry": {"type": "Point", "coordinates": [-75.168293, 39.992751]}, "type": "Feature", "properties": {"route": "33", "id": 3119, "name": "22nd St &amp; Cumberland St"}}, {"geometry": {"type": "Point", "coordinates": [-75.168978, 39.989628]}, "type": "Feature", "properties": {"route": "33", "id": 3120, "name": "22nd St &amp; Dauphin St"}}, {"geometry": {"type": "Point", "coordinates": [-75.169686, 39.986479]}, "type": "Feature", "properties": {"route": "33", "id": 3121, "name": "22nd St &amp; Diamond St"}}, {"geometry": {"type": "Point", "coordinates": [-75.166587, 40.000548]}, "type": "Feature", "properties": {"route": "33", "id": 3128, "name": "22nd St &amp; Fox St"}}, {"geometry": {"type": "Point", "coordinates": [-75.167863, 39.993948]}, "type": "Feature", "properties": {"route": "33", "id": 3131, "name": "22nd St &amp; Huntingdon St"}}, {"geometry": {"type": "Point", "coordinates": [-75.167993, 39.994098]}, "type": "Feature", "properties": {"route": "33", "id": 3132, "name": "22nd St &amp; Huntingdon St"}}, {"geometry": {"type": "Point", "coordinates": [-75.166517, 40.000092]}, "type": "Feature", "properties": {"route": "33", "id": 3133, "name": "22nd St &amp; Indiana Av"}}, {"geometry": {"type": "Point", "coordinates": [-75.17066, 39.981974]}, "type": "Feature", "properties": {"route": "33", "id": 3142, "name": "22nd St &amp; Montgomery Av"}}, {"geometry": {"type": "Point", "coordinates": [-75.170011, 39.984954]}, "type": "Feature", "properties": {"route": "33", "id": 3146, "name": "22nd St &amp; Norris St"}}, {"geometry": {"type": "Point", "coordinates": [-75.165183, 40.006257]}, "type": "Feature", "properties": {"route": "33", "id": 3148, "name": "22nd St &amp; Ontario St"}}, {"geometry": {"type": "Point", "coordinates": [-75.165312, 40.006427]}, "type": "Feature", "properties": {"route": "33", "id": 3149, "name": "22nd St &amp; Ontario St"}}, {"geometry": {"type": "Point", "coordinates": [-75.171092, 39.979931]}, "type": "Feature", "properties": {"route": "33", "id": 3158, "name": "22nd St &amp; Ridge Av"}}, {"geometry": {"type": "Point", "coordinates": [-75.168188, 39.992483]}, "type": "Feature", "properties": {"route": "33", "id": 3160, "name": "22nd St &amp; Sedgley Av"}}, {"geometry": {"type": "Point", "coordinates": [-75.167178, 39.997113]}, "type": "Feature", "properties": {"route": "33", "id": 3163, "name": "22nd St &amp; Somerset St"}}, {"geometry": {"type": "Point", "coordinates": [-75.169362, 39.988032]}, "type": "Feature", "properties": {"route": "33", "id": 3168, "name": "22nd St &amp; Susquehanna Av"}}, {"geometry": {"type": "Point", "coordinates": [-75.164858, 40.007747]}, "type": "Feature", "properties": {"route": "33", "id": 3170, "name": "22nd St &amp; Tioga St"}}, {"geometry": {"type": "Point", "coordinates": [-75.164976, 40.007934]}, "type": "Feature", "properties": {"route": "33", "id": 3171, "name": "22nd St &amp; Tioga St"}}, {"geometry": {"type": "Point", "coordinates": [-75.148761, 39.950601]}, "type": "Feature", "properties": {"route": "33", "id": 3582, "name": "Market St &amp; 5th St"}}, {"geometry": {"type": "Point", "coordinates": [-75.16788, 39.986253]}, "type": "Feature", "properties": {"route": "33", "id": 6770, "name": "Diamond St &amp; 21st St"}}, {"geometry": {"type": "Point", "coordinates": [-75.142329, 39.949649]}, "type": "Feature", "properties": {"route": "33", "id": 7657, "name": "Market St &amp; Front St"}}, {"geometry": {"type": "Point", "coordinates": [-75.164504, 40.010923]}, "type": "Feature", "properties": {"route": "33", "id": 8712, "name": "Hunting Park Av &amp; 22nd St"}}, {"geometry": {"type": "Point", "coordinates": [-75.168056, 39.954061]}, "type": "Feature", "properties": {"route": "33", "id": 8936, "name": "JFK Blvd &amp; 17th St"}}, {"geometry": {"type": "Point", "coordinates": [-75.169567, 39.954251]}, "type": "Feature", "properties": {"route": "33", "id": 8938, "name": "JFK Blvd &amp; 18th St"}}, {"geometry": {"type": "Point", "coordinates": [-75.171208, 39.95446]}, "type": "Feature", "properties": {"route": "33", "id": 8939, "name": "JFK Blvd &amp; 19th St"}}, {"geometry": {"type": "Point", "coordinates": [-75.17279, 39.954633]}, "type": "Feature", "properties": {"route": "33", "id": 8941, "name": "JFK Blvd &amp; 20th St"}}, {"geometry": {"type": "Point", "coordinates": [-75.157213, 39.951512]}, "type": "Feature", "properties": {"route": "33", "id": 10255, "name": "Market St &amp; 10th St"}}, {"geometry": {"type": "Point", "coordinates": [-75.156575, 39.951582]}, "type": "Feature", "properties": {"route": "33", "id": 10257, "name": "Market St &amp; 10th St"}}, {"geometry": {"type": "Point", "coordinates": [-75.158121, 39.951782]}, "type": "Feature", "properties": {"route": "33", "id": 10258, "name": "Market St &amp; 11th St"}}, {"geometry": {"type": "Point", "coordinates": [-75.159208, 39.951748]}, "type": "Feature", "properties": {"route": "33", "id": 10259, "name": "Market St &amp; 11th St - MBNS"}}, {"geometry": {"type": "Point", "coordinates": [-75.15955, 39.951954]}, "type": "Feature", "properties": {"route": "33", "id": 10262, "name": "Market St &amp; 12th St"}}, {"geometry": {"type": "Point", "coordinates": [-75.161604, 39.95203]}, "type": "Feature", "properties": {"route": "33", "id": 10263, "name": "Market St &amp; 13th St"}}, {"geometry": {"type": "Point", "coordinates": [-75.161261, 39.952154]}, "type": "Feature", "properties": {"route": "33", "id": 10264, "name": "Market St &amp; 13th St"}}, {"geometry": {"type": "Point", "coordinates": [-75.165475, 39.952547]}, "type": "Feature", "properties": {"route": "33", "id": 10266, "name": "Market St &amp; 15th St"}}, {"geometry": {"type": "Point", "coordinates": [-75.170173, 39.953119]}, "type": "Feature", "properties": {"route": "33", "id": 10272, "name": "Market St &amp; 18th St"}}, {"geometry": {"type": "Point", "coordinates": [-75.143852, 39.949894]}, "type": "Feature", "properties": {"route": "33", "id": 10288, "name": "Market St &amp; 2nd St"}}, {"geometry": {"type": "Point", "coordinates": [-75.147144, 39.950392]}, "type": "Feature", "properties": {"route": "33", "id": 10311, "name": "Market St &amp; 4th St"}}, {"geometry": {"type": "Point", "coordinates": [-75.150544, 39.950703]}, "type": "Feature", "properties": {"route": "33", "id": 10329, "name": "Market St &amp; 6th St"}}, {"geometry": {"type": "Point", "coordinates": [-75.152149, 39.950876]}, "type": "Feature", "properties": {"route": "33", "id": 10331, "name": "Market St &amp; 7th St"}}, {"geometry": {"type": "Point", "coordinates": [-75.153341, 39.951182]}, "type": "Feature", "properties": {"route": "33", "id": 10338, "name": "Market St &amp; 8th St"}}, {"geometry": {"type": "Point", "coordinates": [-75.155714, 39.95133]}, "type": "Feature", "properties": {"route": "33", "id": 10340, "name": "Market St &amp; 9th St"}}, {"geometry": {"type": "Point", "coordinates": [-75.154958, 39.951382]}, "type": "Feature", "properties": {"route": "33", "id": 10341, "name": "Market St &amp; 9th St"}}, {"geometry": {"type": "Point", "coordinates": [-75.169566, 39.977367]}, "type": "Feature", "properties": {"route": "33", "id": 12293, "name": "Ridge Av &amp; Jefferson St"}}, {"geometry": {"type": "Point", "coordinates": [-75.168709, 39.975848]}, "type": "Feature", "properties": {"route": "33", "id": 12307, "name": "Ridge Av &amp; Master St"}}, {"geometry": {"type": "Point", "coordinates": [-75.170458, 39.978957]}, "type": "Feature", "properties": {"route": "33", "id": 12320, "name": "Ridge Av &amp; Oxford St"}}, {"geometry": {"type": "Point", "coordinates": [-75.16777, 39.974213]}, "type": "Feature", "properties": {"route": "33", "id": 12342, "name": "Ridge Av &amp; Thompson St - FS"}}, {"geometry": {"type": "Point", "coordinates": [-75.166068, 40.009811]}, "type": "Feature", "properties": {"route": "33", "id": 13905, "name": "23rd St &amp; Venango St Loop"}}, {"geometry": {"type": "Point", "coordinates": [-75.167283, 39.990937]}, "type": "Feature", "properties": {"route": "33", "id": 14752, "name": "York St &amp; 21st St - MBFS"}}, {"geometry": {"type": "Point", "coordinates": [-75.168205, 39.991055]}, "type": "Feature", "properties": {"route": "33", "id": 14754, "name": "York St &amp; 22nd St"}}, {"geometry": {"type": "Point", "coordinates": [-75.168886, 39.966227]}, "type": "Feature", "properties": {"route": "33", "id": 14910, "name": "19th St &amp; Wallace St"}}, {"geometry": {"type": "Point", "coordinates": [-75.171024, 39.956405]}, "type": "Feature", "properties": {"route": "33", "id": 14911, "name": "19th St &amp; Cherry St"}}, {"geometry": {"type": "Point", "coordinates": [-75.171216, 39.955495]}, "type": "Feature", "properties": {"route": "33", "id": 14912, "name": "19th St &amp;  &amp; Arch St"}}, {"geometry": {"type": "Point", "coordinates": [-75.149081, 39.950521]}, "type": "Feature", "properties": {"route": "33", "id": 14913, "name": "Market St &amp; 5th St"}}, {"geometry": {"type": "Point", "coordinates": [-75.172716, 39.955507]}, "type": "Feature", "properties": {"route": "33", "id": 14916, "name": "20th St &amp; Arch St"}}, {"geometry": {"type": "Point", "coordinates": [-75.17172, 39.959923]}, "type": "Feature", "properties": {"route": "33", "id": 14917, "name": "20th St &amp; Wood St"}}, {"geometry": {"type": "Point", "coordinates": [-75.16749, 39.973302]}, "type": "Feature", "properties": {"route": "33", "id": 14918, "name": "College Av &amp; Ridge Av"}}, {"geometry": {"type": "Point", "coordinates": [-75.165813, 39.979608]}, "type": "Feature", "properties": {"route": "33", "id": 14919, "name": "19th St &amp; Cecil B Moore Av"}}, {"geometry": {"type": "Point", "coordinates": [-75.170904, 39.963491]}, "type": "Feature", "properties": {"route": "33", "id": 14920, "name": "20th St &amp; Spring Garden St"}}, {"geometry": {"type": "Point", "coordinates": [-75.170267, 39.966283]}, "type": "Feature", "properties": {"route": "33", "id": 14921, "name": "20th St &amp; Wallace St"}}, {"geometry": {"type": "Point", "coordinates": [-75.16599, 39.98599]}, "type": "Feature", "properties": {"route": "33", "id": 14922, "name": "Diamond St &amp; 20th St"}}, {"geometry": {"type": "Point", "coordinates": [-75.167243, 39.989223]}, "type": "Feature", "properties": {"route": "33", "id": 14924, "name": "21st St &amp; Dauphin St"}}, {"geometry": {"type": "Point", "coordinates": [-75.147428, 39.950312]}, "type": "Feature", "properties": {"route": "33", "id": 14930, "name": "Market St &amp; 4th St"}}, {"geometry": {"type": "Point", "coordinates": [-75.164763, 39.953652]}, "type": "Feature", "properties": {"route": "33", "id": 17842, "name": "JFK Blvd &amp; 15th St"}}, {"geometry": {"type": "Point", "coordinates": [-75.167371, 39.973507]}, "type": "Feature", "properties": {"route": "33", "id": 18426, "name": "Ridge Av &amp; 19th St"}}, {"geometry": {"type": "Point", "coordinates": [-75.167045, 39.952738]}, "type": "Feature", "properties": {"route": "33", "id": 18451, "name": "Market St &amp; 16th St"}}, {"geometry": {"type": "Point", "coordinates": [-75.154309, 39.95114]}, "type": "Feature", "properties": {"route": "33", "id": 18457, "name": "Market St &amp; 8th St - MBNS"}}, {"geometry": {"type": "Point", "coordinates": [-75.14587, 39.950103]}, "type": "Feature", "properties": {"route": "33", "id": 21318, "name": "Market St &amp; 3rd St"}}, {"geometry": {"type": "Point", "coordinates": [-75.145539, 39.950183]}, "type": "Feature", "properties": {"route": "33", "id": 30079, "name": "Market St &amp; 3rd St"}}, {"geometry": {"type": "Point", "coordinates": [-75.140487, 39.949779]}, "type": "Feature", "properties": {"route": "33", "id": 30631, "name": "Penn's Landing - 2"}}, {"geometry": {"type": "Point", "coordinates": [-75.164534, 40.00921]}, "type": "Feature", "properties": {"route": "33", "id": 30808, "name": "22nd St &amp; Venango St"}}, {"geometry": {"type": "Point", "coordinates": [-75.167308, 39.997283]}, "type": "Feature", "properties": {"route": "33", "id": 30809, "name": "22nd St &amp; Somerset St"}}, {"geometry": {"type": "Point", "coordinates": [-75.143615, 39.950018]}, "type": "Feature", "properties": {"route": "33", "id": 31041, "name": "Market St &amp; 2nd St - 2"}}, {"geometry": {"type": "Point", "coordinates": [-75.17142, 39.954559]}, "type": "Feature", "properties": {"route": "33", "id": 31348, "name": "19th St &amp; JFK Blvd"}}, {"geometry": {"type": "Point", "coordinates": [-75.166057, 40.009588]}, "type": "Feature", "properties": {"route": "33", "id": 31776, "name": "Venango St &amp; 23rd St"}}]}