[{"lng":-75.14876,"lat":39.951047,"stopid":638,"stopname":"5th St &amp; Market St - FS"},{"lng":-75.289491,"lat":40.008412,"stopid":694,"stopname":"Coulter Av &amp; Saint Georges Rd"},{"lng":-75.262739,"lat":40.006469,"stopid":695,"stopname":"Essex Av &amp; Windsor Av"},{"lng":-75.252335,"lat":40.008427,"stopid":696,"stopname":"Montgomery Av &amp; Haverford Av - FS"},{"lng":-75.22891,"lat":40.000243,"stopid":698,"stopname":"Bala Av &amp; City Av"},{"lng":-75.211255,"lat":40.008193,"stopid":699,"stopname":"City Av &amp; Presidential Blvd"},{"lng":-75.211763,"lat":40.008238,"stopid":703,"stopname":"City Av &amp; Presidential Blv - FS"},{"lng":-75.252311,"lat":40.008588,"stopid":705,"stopname":"Montgomery Av &amp; Haverford Av"},{"lng":-75.261359,"lat":40.005423,"stopid":706,"stopname":"Haverford Av &amp; Forrest Av - FS"},{"lng":-75.222237,"lat":40.003303,"stopid":952,"stopname":"City Av &amp; Belmont Av - MBFS"},{"lng":-75.177077,"lat":39.957863,"stopid":1167,"stopname":"23rd St &amp; Race St - FS"},{"lng":-75.228626,"lat":40.000287,"stopid":1169,"stopname":"City Av &amp; Bala Av"},{"lng":-75.18319,"lat":39.955591,"stopid":1537,"stopname":"30th St &amp; Market St - MBNS"},{"lng":-75.173194,"lat":39.95392,"stopid":2821,"stopname":"20th St &amp; Market St"},{"lng":-75.233088,"lat":39.997769,"stopid":3555,"stopname":"52nd St &amp; City Av - FS"},{"lng":-75.231605,"lat":39.995615,"stopid":3566,"stopname":"52nd St &amp; Overbrook Av"},{"lng":-75.231017,"lat":39.999024,"stopid":6232,"stopname":"City Av &amp; Bryn Mawr Av"},{"lng":-75.225834,"lat":40.00147,"stopid":6233,"stopname":"City Av &amp; Conshohocken Av - FS"},{"lng":-75.215468,"lat":40.006299,"stopid":6234,"stopname":"City Av &amp; Decker Blvd - FS"},{"lng":-75.224023,"lat":40.00244,"stopid":6236,"stopname":"City Av &amp; 47th St - FS"},{"lng":-75.222947,"lat":40.002813,"stopid":6237,"stopname":"City Av &amp; 47th St - FS"},{"lng":-75.234365,"lat":39.997449,"stopid":6239,"stopname":"City Av &amp; 53rd St"},{"lng":-75.217752,"lat":40.005214,"stopid":6251,"stopname":"City Av &amp; Kings Grant Dr - MBFS"},{"lng":-75.216378,"lat":40.00614,"stopid":6252,"stopname":"City Av &amp; Decker Blvd - FS"},{"lng":-75.218284,"lat":40.005242,"stopid":6255,"stopname":"City Av &amp; Kings Grant Dr"},{"lng":-75.168056,"lat":39.954061,"stopid":8936,"stopname":"JFK Blvd &amp; 17th St"},{"lng":-75.169567,"lat":39.954251,"stopid":8938,"stopname":"JFK Blvd &amp; 18th St"},{"lng":-75.171208,"lat":39.95446,"stopid":8939,"stopname":"JFK Blvd &amp; 19th St"},{"lng":-75.157213,"lat":39.951512,"stopid":10255,"stopname":"Market St &amp; 10th St"},{"lng":-75.159208,"lat":39.951748,"stopid":10259,"stopname":"Market St &amp; 11th St - MBNS"},{"lng":-75.15955,"lat":39.951954,"stopid":10262,"stopname":"Market St &amp; 12th St"},{"lng":-75.161604,"lat":39.95203,"stopid":10263,"stopname":"Market St &amp; 13th St"},{"lng":-75.165475,"lat":39.952547,"stopid":10266,"stopname":"Market St &amp; 15th St"},{"lng":-75.170173,"lat":39.953119,"stopid":10272,"stopname":"Market St &amp; 18th St"},{"lng":-75.17172,"lat":39.953319,"stopid":10275,"stopname":"Market St &amp; 19th St"},{"lng":-75.174918,"lat":39.95387,"stopid":10279,"stopname":"Market St &amp; 21st St"},{"lng":-75.1765,"lat":39.954069,"stopid":10281,"stopname":"Market St &amp; 22nd St"},{"lng":-75.177657,"lat":39.954214,"stopid":10282,"stopname":"Market St &amp; 23rd St"},{"lng":-75.177929,"lat":39.95409,"stopid":10283,"stopname":"Market St &amp; 23rd St"},{"lng":-75.179251,"lat":39.954253,"stopid":10285,"stopname":"Market St &amp; 24th St"},{"lng":-75.152149,"lat":39.950876,"stopid":10331,"stopname":"Market St &amp; 7th St"},{"lng":-75.155714,"lat":39.95133,"stopid":10340,"stopname":"Market St &amp; 9th St"},{"lng":-75.233853,"lat":39.994851,"stopid":11506,"stopname":"Overbrook Av &amp; 54th St"},{"lng":-75.157885,"lat":39.951745,"stopid":17833,"stopname":"Market St &amp; 10th St - MBFS"},{"lng":-75.164763,"lat":39.953652,"stopid":17842,"stopname":"JFK Blvd &amp; 15th St"},{"lng":-75.174871,"lat":39.9537,"stopid":18447,"stopname":"Market St &amp; 21st St - FS"},{"lng":-75.173325,"lat":39.953509,"stopid":18448,"stopname":"Market St &amp; 20th St"},{"lng":-75.167045,"lat":39.952738,"stopid":18451,"stopname":"Market St &amp; 16th St"},{"lng":-75.154309,"lat":39.95114,"stopid":18457,"stopname":"Market St &amp; 8th St - MBNS"},{"lng":-75.287034,"lat":40.007847,"stopid":18880,"stopname":"Coulter Av &amp; Glenn Rd"},{"lng":-75.284019,"lat":40.008646,"stopid":18882,"stopname":"Llanfair Rd &amp; Montgomery Av"},{"lng":-75.288887,"lat":40.009411,"stopid":18884,"stopname":"Montgomery Av &amp; Saint Georges Rd"},{"lng":-75.214024,"lat":40.006939,"stopid":20550,"stopname":"City Av &amp; Monument Rd"},{"lng":-75.21426,"lat":40.007091,"stopid":20558,"stopname":"City Av &amp; Monument Rd - FS"},{"lng":-75.225964,"lat":40.001524,"stopid":20559,"stopname":"City Av &amp; Conshohocken State Rd"},{"lng":-75.230851,"lat":39.99922,"stopid":20561,"stopname":"City Av &amp; Bryn Mawr Av"},{"lng":-75.22019,"lat":40.004111,"stopid":20587,"stopname":"City Av &amp; Belmont Av - FS"},{"lng":-75.235135,"lat":39.99696,"stopid":20589,"stopname":"54th St &amp; City Av"},{"lng":-75.233289,"lat":39.997965,"stopid":20592,"stopname":"City Av &amp; 52nd St"},{"lng":-75.176453,"lat":39.953899,"stopid":20644,"stopname":"Market St &amp; 22nd St - FS"},{"lng":-75.181541,"lat":39.954552,"stopid":21529,"stopname":"Market St &amp; Schuylkill Av"},{"lng":-75.17938,"lat":39.954432,"stopid":21536,"stopname":"Market St &amp; 24th St - MBFS"},{"lng":-75.279853,"lat":40.03954,"stopid":21652,"stopname":"Black Rock Rd &amp; Conshohocken State"},{"lng":-75.277908,"lat":40.037164,"stopid":21653,"stopname":"Conshohocken State Rd &amp; Maplecrest"},{"lng":-75.262824,"lat":40.031165,"stopid":21656,"stopname":"Hollow Rd &amp; Conshohocken State - FS"},{"lng":-75.259079,"lat":40.035042,"stopid":21658,"stopname":"Hagys Ford Rd &amp; Bobarn Rd - FS"},{"lng":-75.259268,"lat":40.034927,"stopid":21663,"stopname":"Hagys Ford Rd &amp; Bobarn Dr"},{"lng":-75.257288,"lat":40.032514,"stopid":21667,"stopname":"Hagys Ford Rd &amp; Tower Ln - MBFS"},{"lng":-75.254361,"lat":40.030234,"stopid":21668,"stopname":"Hagys Ford Rd &amp; Flat Rock Rd"},{"lng":-75.257683,"lat":40.025241,"stopid":21669,"stopname":"Conshohocken &amp; Hagys Ford Rd - FS"},{"lng":-75.256068,"lat":40.023489,"stopid":21673,"stopname":"Conshohocken St &amp; Centennial Rd"},{"lng":-75.24029,"lat":40.018254,"stopid":21677,"stopname":"Conshohocken State Rd &amp; RockHill Rd"},{"lng":-75.236201,"lat":40.013473,"stopid":21678,"stopname":"Conshohocken State Rd &amp; LeveringMil"},{"lng":-75.234081,"lat":40.010756,"stopid":21679,"stopname":"Conshohocken State Rd &amp; Lodges Ln"},{"lng":-75.232802,"lat":40.007532,"stopid":21680,"stopname":"Conshohocken State Rd &amp; Bala Av"},{"lng":-75.231277,"lat":40.003174,"stopid":21682,"stopname":"Bala Av &amp; Union Av"},{"lng":-75.231041,"lat":40.003103,"stopid":21769,"stopname":"Bala Av &amp; Union Av"},{"lng":-75.232238,"lat":40.006335,"stopid":21770,"stopname":"Bala Av &amp; Montgomery Av"},{"lng":-75.233821,"lat":40.010711,"stopid":21771,"stopname":"Conshohocken State Rd &amp; Lodges Ln"},{"lng":-75.235965,"lat":40.013401,"stopid":21773,"stopname":"Conshohocken State Rd &amp; Levering"},{"lng":-75.237308,"lat":40.015099,"stopid":21774,"stopname":"Conshohocken State Rd &amp; Overhill Rd"},{"lng":-75.238839,"lat":40.016895,"stopid":21776,"stopname":"Conshohocken State Rd &amp; Dartmouth"},{"lng":-75.240041,"lat":40.018245,"stopid":21777,"stopname":"Conshohocken State Rd &amp; Rockhill Rd"},{"lng":-75.255147,"lat":40.023318,"stopid":21779,"stopname":"Conshohocken State Rd &amp; Centennial"},{"lng":-75.257565,"lat":40.025348,"stopid":21780,"stopname":"Conshohocken St &amp; Hagys Ford Rd"},{"lng":-75.252839,"lat":40.029179,"stopid":21791,"stopname":"Hagys Ford Rd &amp; Flat Rock Rd - MBNS"},{"lng":-75.254066,"lat":40.030198,"stopid":21793,"stopname":"Hagys Ford Rd &amp; Flat Rock Rd"},{"lng":-75.258679,"lat":40.034185,"stopid":21796,"stopname":"Hagys Ford Rd &amp; Hollow Rd"},{"lng":-75.277612,"lat":40.037065,"stopid":21799,"stopname":"Conshohocken State Rd &amp; Maplecrest"},{"lng":-75.271316,"lat":40.013388,"stopid":21889,"stopname":"Montgomery Av &amp; Hansell Rd"},{"lng":-75.267344,"lat":40.013437,"stopid":21890,"stopname":"Montgomery Av &amp; Essex Av"},{"lng":-75.265068,"lat":40.011247,"stopid":21891,"stopname":"Essex Av &amp; Sabine Av"},{"lng":-75.263633,"lat":40.008568,"stopid":21893,"stopname":"Essex Av &amp; Woodbine Av"},{"lng":-75.260718,"lat":40.006823,"stopid":21894,"stopname":"Windsor Av &amp; Narberth Av"},{"lng":-75.25814,"lat":40.007471,"stopid":21895,"stopname":"Windsor Av &amp; Iona Av"},{"lng":-75.2558,"lat":40.007299,"stopid":21896,"stopname":"Haverford Av &amp; Shirley Rd"},{"lng":-75.250115,"lat":40.007719,"stopid":21897,"stopname":"Montgomery Av &amp; Merion Rd"},{"lng":-75.246997,"lat":40.006733,"stopid":21898,"stopname":"Montgomery Av &amp; Winding Way"},{"lng":-75.24584,"lat":40.006383,"stopid":21899,"stopname":"Montgomery Av &amp; Bowman Av"},{"lng":-75.24316,"lat":40.005379,"stopid":21900,"stopname":"Montgomery Av &amp; Old Lancaster"},{"lng":-75.241345,"lat":40.003592,"stopid":21901,"stopname":"Old Lancaster Rd &amp; Gramercy Rd"},{"lng":-75.240002,"lat":40.001751,"stopid":21902,"stopname":"Old Lancaster Rd &amp; Highland Av"},{"lng":-75.238471,"lat":39.999919,"stopid":21903,"stopname":"Old Lancaster Rd &amp; Latch Ln"},{"lng":-75.23655,"lat":39.998087,"stopid":21904,"stopname":"Old Lancaster Rd &amp; Edgehill Rd"},{"lng":-75.236207,"lat":39.997961,"stopid":21977,"stopname":"Old Lancaster Rd &amp; Edgehill Rd"},{"lng":-75.238635,"lat":40.000276,"stopid":21978,"stopname":"Old Lancaster Rd &amp; Latches Ln"},{"lng":-75.239766,"lat":40.00167,"stopid":21979,"stopname":"Old Lancaster Rd &amp; Highland Av"},{"lng":-75.241108,"lat":40.003511,"stopid":21980,"stopname":"Old Lancaster Rd &amp; Gramercy Rd"},{"lng":-75.246595,"lat":40.00675,"stopid":21982,"stopname":"Montgomery Av &amp; Winding Way"},{"lng":-75.249878,"lat":40.00779,"stopid":21983,"stopname":"Montgomery Av &amp; Winding Way"},{"lng":-75.25567,"lat":40.007468,"stopid":21985,"stopname":"Haverford Av &amp; Shirley Rd"},{"lng":-75.257669,"lat":40.006837,"stopid":21987,"stopname":"Haverford Av &amp; Iona Av"},{"lng":-75.260022,"lat":40.005948,"stopid":21988,"stopname":"Haverford Av &amp; Narberth Av"},{"lng":-75.262515,"lat":40.006362,"stopid":21989,"stopname":"Essex Av &amp; Windsor Av"},{"lng":-75.263408,"lat":40.00846,"stopid":21990,"stopname":"Essex Av &amp; Woodbine Av"},{"lng":-75.264844,"lat":40.011166,"stopid":21992,"stopname":"Essex Av &amp; Sabine Av"},{"lng":-75.267108,"lat":40.013374,"stopid":21993,"stopname":"Essex Av &amp; Montgomery  Av"},{"lng":-75.271103,"lat":40.013531,"stopid":21995,"stopname":"Montgomery Av &amp; Hansell Rd"},{"lng":-75.272853,"lat":40.01306,"stopid":21996,"stopname":"Montgomery Av &amp; Gypsy Rd"},{"lng":-75.274403,"lat":40.012205,"stopid":21997,"stopname":"Montgomery Av &amp; Cherry Ln"},{"lng":-75.276085,"lat":40.010645,"stopid":21998,"stopname":"Montgomery Av &amp; Wister Rd"},{"lng":-75.277966,"lat":40.009514,"stopid":21999,"stopname":"Montgomery Av &amp; Owen Rd - FS"},{"lng":-75.281041,"lat":40.008705,"stopid":22000,"stopname":"Montgomery Av &amp; Church Rd - FS"},{"lng":-75.232205,"lat":39.996536,"stopid":29553,"stopname":"52nd St &amp; Rexford Rd"},{"lng":-75.26725,"lat":40.013329,"stopid":29554,"stopname":"Essex Av &amp; Montgomery - FS"},{"lng":-75.266543,"lat":40.012489,"stopid":29555,"stopname":"Essex Av &amp; Dudley St - FS"},{"lng":-75.25347,"lat":40.027511,"stopid":29556,"stopname":"Hagys Ford Rd &amp; Tower Ln - MBNS"},{"lng":-75.255706,"lat":40.026568,"stopid":29557,"stopname":"Hagys Ford Rd &amp; Tower Ln"},{"lng":-75.253016,"lat":40.029152,"stopid":29558,"stopname":"Hagys Ford Rd &amp; Flat Rock Rd - MBFS"},{"lng":-75.244401,"lat":40.018796,"stopid":29559,"stopname":"Conshohocken State Rd &amp; Manayunk Rd"},{"lng":-75.238875,"lat":40.016726,"stopid":29560,"stopname":"Conshohocken &amp; Dartmouth - FS"},{"lng":-75.239594,"lat":40.017441,"stopid":29561,"stopname":"Conshohocken State Rd &amp; Rockhill Rd"},{"lng":-75.235353,"lat":40.012383,"stopid":29562,"stopname":"Conshohocken State Rd &amp; Derwen Rd"},{"lng":-75.237544,"lat":40.015171,"stopid":29563,"stopname":"Conshohocken State Rd &amp; Overhill Rd"},{"lng":-75.232462,"lat":40.00647,"stopid":29565,"stopname":"Bala Av &amp; Montgomery Av"},{"lng":-75.232206,"lat":40.005104,"stopid":29566,"stopname":"Bala Av &amp; Highland Av"},{"lng":-75.232052,"lat":40.004996,"stopid":29567,"stopname":"Bala Av &amp; Highland Av"},{"lng":-75.232613,"lat":40.007452,"stopid":29568,"stopname":"Conshohocken State Rd &amp; Bala Av"},{"lng":-75.253434,"lat":40.027395,"stopid":29569,"stopname":"Hagys Ford Rd &amp; Tower Ln - MBFS"},{"lng":-75.25943,"lat":40.036274,"stopid":29570,"stopname":"Hagys Ford Rd &amp; Bobarn Rd - MBFS"},{"lng":-75.258539,"lat":40.038023,"stopid":29571,"stopname":"Hagys Ford Rd &amp; Chermar Ln"},{"lng":-75.257485,"lat":40.038869,"stopid":29572,"stopname":"Oakwood Dr &amp; Oakwood Ter - FS"},{"lng":-75.257508,"lat":40.038994,"stopid":29573,"stopname":"Oakwood Dr &amp; Oakwood Ter"},{"lng":-75.258681,"lat":40.03813,"stopid":29574,"stopname":"Hagys Ford Rd &amp; Chermar Ln - FS"},{"lng":-75.259596,"lat":40.036257,"stopid":29575,"stopname":"Hagys Ford Rd &amp; Bobarn Dr - MBNS"},{"lng":-75.255003,"lat":40.0096,"stopid":29576,"stopname":"Montgomery Av &amp; Meeting House Ln"},{"lng":-75.256868,"lat":40.010272,"stopid":29577,"stopname":"Montgomery Av &amp; Woodbine Av"},{"lng":-75.258911,"lat":40.010989,"stopid":29578,"stopname":"Montgomery Av &amp; Brookhurst Av"},{"lng":-75.262678,"lat":40.012351,"stopid":29579,"stopname":"Montgomery Av &amp; Old Gulph Rd - FS"},{"lng":-75.262596,"lat":40.012181,"stopid":29582,"stopname":"Montgomery Av &amp; Narberth Av"},{"lng":-75.259608,"lat":40.011088,"stopid":29583,"stopname":"Montgomery Av &amp; Iona Av"},{"lng":-75.257247,"lat":40.010264,"stopid":29584,"stopname":"Montgomery Av &amp; Woodbine Av"},{"lng":-75.255499,"lat":40.009645,"stopid":29585,"stopname":"Montgomery Av &amp; Meetinghouse Ln"},{"lng":-75.152951,"lat":39.951146,"stopid":30080,"stopname":"Market St &amp; 7th St - MBFS"},{"lng":-75.156127,"lat":39.951501,"stopid":30081,"stopname":"Market St &amp; 9th St  - MBFS"},{"lng":-75.160529,"lat":39.952063,"stopid":30082,"stopname":"Market St &amp; 12th St - MBFS"},{"lng":-75.22891,"lat":40.000466,"stopid":30129,"stopname":"Bala Av &amp; City Av - FS"},{"lng":-75.235117,"lat":40.012311,"stopid":30130,"stopname":"Conshohocken State Rd &amp; Derwin Rd"},{"lng":-75.255505,"lat":40.026514,"stopid":30131,"stopname":"Hagys Ford Rd &amp; Tower Ln - FS"},{"lng":-75.256449,"lat":40.032049,"stopid":30132,"stopname":"Hagys Ford Rd &amp; Flat Rock Rd - MBFS"},{"lng":-75.256159,"lat":40.039528,"stopid":30134,"stopname":"Oakwood Dr &amp; Oakwood Ter - MBNS"},{"lng":-75.255994,"lat":40.039501,"stopid":30135,"stopname":"Oakwood Ter &amp; Oakwood Dr - MBFS"},{"lng":-75.280247,"lat":40.038024,"stopid":30136,"stopname":"Youngs Ford Rd &amp; Righters Mill Rd"},{"lng":-75.269408,"lat":40.031307,"stopid":30137,"stopname":"Conshohocken State Rd &amp; Mill Creek"},{"lng":-75.228958,"lat":39.999922,"stopid":30187,"stopname":"City Av &amp; Bala Av"},{"lng":-75.254867,"lat":40.040856,"stopid":30223,"stopname":"Oakhill Apartments Loop"},{"lng":-75.265595,"lat":40.01339,"stopid":30227,"stopname":"Montgomery Av &amp; Bryn Mawr Av"},{"lng":-75.274522,"lat":40.011946,"stopid":30545,"stopname":"Montgomery Av &amp; Penn Rd"},{"lng":-75.180795,"lat":39.955131,"stopid":30576,"stopname":"Schuylkill Av &amp; JFK Blvd"},{"lng":-75.235548,"lat":39.99721,"stopid":30592,"stopname":"Old Lancaster Rd &amp; City Line Av"},{"lng":-75.267096,"lat":40.013552,"stopid":30853,"stopname":"Montgomery Av &amp; Mc Clenaghan Mill R"},{"lng":-75.15445,"lat":39.951318,"stopid":31178,"stopname":"Market St &amp; 8th St - MBFS"},{"lng":-75.177305,"lat":39.956936,"stopid":31207,"stopname":"23rd St &amp; Cherry St - FS"},{"lng":-75.177437,"lat":39.95624,"stopid":31208,"stopname":"23rd St &amp; Arch St"},{"lng":-75.277813,"lat":40.009433,"stopid":31209,"stopname":"Montgomery Av &amp; Owen Rd"},{"lng":-75.263001,"lat":40.031183,"stopid":31210,"stopname":"Hollow Rd &amp; Conshohocken State Rd"},{"lng":-75.233158,"lat":39.998153,"stopid":31283,"stopname":"City Av &amp; Maple Av"},{"lng":-75.243785,"lat":40.005827,"stopid":31340,"stopname":"Montgomery Av &amp; Parsons Av"},{"lng":-75.245732,"lat":40.020618,"stopid":31449,"stopname":"Conshohocken State Rd &amp; Mary Waters"},{"lng":-75.245922,"lat":40.020627,"stopid":31450,"stopname":"Conshohocken State Rd &amp; Mary Waters"},{"lng":-75.280616,"lat":40.008482,"stopid":32216,"stopname":"Montgomery Av &amp; Church Rd"},{"lng":-75.273007,"lat":40.012846,"stopid":32217,"stopname":"Montgomery Av &amp; Wynnewood Av"},{"lng":-75.283923,"lat":40.009209,"stopid":32218,"stopname":"Montgomery Av &amp; Llanfair Rd"},{"lng":-75.286795,"lat":40.009328,"stopid":32219,"stopname":"Montgomery Av &amp; Glenn Rd"}]