[{"lng":-75.156475,"lat":39.912812,"stopid":99,"stopname":"Whitman Plaza - 1"},{"lng":-75.127989,"lat":40.046292,"stopid":722,"stopname":"Godfrey Loop - FS"},{"lng":-75.133584,"lat":40.022823,"stopid":723,"stopname":"5th St &amp; Wyoming Av"},{"lng":-75.138894,"lat":40.007796,"stopid":724,"stopname":"6th St &amp; Erie Av"},{"lng":-75.146914,"lat":39.984904,"stopid":725,"stopname":"8th St &amp; Susquehanna Av - FS"},{"lng":-75.153624,"lat":39.951343,"stopid":728,"stopname":"8th St &amp; Market St"},{"lng":-75.156953,"lat":39.936045,"stopid":729,"stopname":"8th St &amp; Washington Av"},{"lng":-75.159799,"lat":39.92319,"stopid":730,"stopname":"8th St &amp; Snyder Av"},{"lng":-75.158137,"lat":39.922776,"stopid":733,"stopname":"7th St &amp; Snyder Av"},{"lng":-75.155326,"lat":39.935434,"stopid":734,"stopname":"7th St &amp; Washington Av"},{"lng":-75.151949,"lat":39.950795,"stopid":735,"stopname":"7th St &amp; Market St"},{"lng":-75.149782,"lat":39.961286,"stopid":736,"stopname":"7th St &amp; Spring Garden St"},{"lng":-75.148082,"lat":39.970314,"stopid":737,"stopname":"7th St &amp; Girard Av"},{"lng":-75.145402,"lat":39.984767,"stopid":738,"stopname":"7th St &amp; Susquehanna Av"},{"lng":-75.136816,"lat":40.007238,"stopid":741,"stopname":"5th St &amp; Erie Av"},{"lng":-75.133455,"lat":40.022608,"stopid":742,"stopname":"5th St &amp; Wyoming Av"},{"lng":-75.128429,"lat":40.045552,"stopid":744,"stopname":"5th St &amp; Godfrey Av"},{"lng":-75.143612,"lat":39.986217,"stopid":16231,"stopname":"Dauphin St &amp; 6th St"},{"lng":-75.141593,"lat":39.985981,"stopid":16232,"stopname":"Dauphin St &amp; 5th St"},{"lng":-75.140825,"lat":39.988915,"stopid":16234,"stopname":"5th St &amp; Cumberland St"},{"lng":-75.128523,"lat":40.045882,"stopid":16236,"stopname":"5th St &amp; Godfrey Av"},{"lng":-75.128908,"lat":40.044205,"stopid":16237,"stopname":"5th St &amp; Spencer St"},{"lng":-75.129234,"lat":40.042698,"stopid":16238,"stopname":"5th St &amp; Champlost St"},{"lng":-75.129559,"lat":40.041172,"stopid":16239,"stopname":"5th St &amp; Nedro Av"},{"lng":-75.129897,"lat":40.039647,"stopid":16240,"stopname":"5th St &amp; Grange St"},{"lng":-75.130234,"lat":40.038104,"stopid":16241,"stopname":"5th St &amp; Chew St"},{"lng":-75.130584,"lat":40.03656,"stopid":16242,"stopname":"5th St &amp; Olney Av"},{"lng":-75.130945,"lat":40.034866,"stopid":16243,"stopname":"5th St &amp; Tabor Rd"},{"lng":-75.131247,"lat":40.03351,"stopid":16244,"stopname":"5th St &amp; Somerville Av"},{"lng":-75.131584,"lat":40.031993,"stopid":16245,"stopname":"5th St &amp; Fisher Av"},{"lng":-75.131909,"lat":40.03045,"stopid":16246,"stopname":"5th St &amp; Duncannon Av"},{"lng":-75.132259,"lat":40.028862,"stopid":16247,"stopname":"5th St &amp; Lindley Av"},{"lng":-75.132898,"lat":40.025865,"stopid":16248,"stopname":"5th St &amp; Rockland St"},{"lng":-75.133247,"lat":40.024375,"stopid":16249,"stopname":"5th St &amp; Loudon St"},{"lng":-75.134102,"lat":40.020423,"stopid":16251,"stopname":"5th St &amp; Annsbury St"},{"lng":-75.134247,"lat":40.019692,"stopid":16252,"stopname":"5th St &amp; Wingohocking St"},{"lng":-75.134573,"lat":40.018202,"stopid":16253,"stopname":"5th St &amp; Cayuga St"},{"lng":-75.134898,"lat":40.016703,"stopid":16254,"stopname":"5th St &amp; Bristol St"},{"lng":-75.135247,"lat":40.015115,"stopid":16255,"stopname":"5th St &amp; Hunting Park Av"},{"lng":-75.135596,"lat":40.013528,"stopid":16256,"stopname":"5th St &amp; Lycoming St"},{"lng":-75.135922,"lat":40.012056,"stopid":16257,"stopname":"5th St &amp; Luzerne St"},{"lng":-75.136247,"lat":40.010548,"stopid":16258,"stopname":"5th St &amp;  Pike St"},{"lng":-75.139255,"lat":40.006128,"stopid":16260,"stopname":"6th St &amp; Venango St"},{"lng":-75.13958,"lat":40.004621,"stopid":16261,"stopname":"6th St &amp; Tioga St"},{"lng":-75.140146,"lat":40.002016,"stopid":16262,"stopname":"6th St &amp; Glenwood Av"},{"lng":-75.140579,"lat":40.000062,"stopid":16263,"stopname":"6th St &amp; Allegheny Av"},{"lng":-75.141253,"lat":39.997002,"stopid":16264,"stopname":"6th St &amp; Indiana Av"},{"lng":-75.141578,"lat":39.995531,"stopid":16265,"stopname":"6th St &amp; Cambria St"},{"lng":-75.142252,"lat":39.992453,"stopid":16266,"stopname":"6th St &amp; Lehigh Av"},{"lng":-75.14259,"lat":39.990847,"stopid":16267,"stopname":"6th St &amp; Huntingdon St"},{"lng":-75.143251,"lat":39.98785,"stopid":16268,"stopname":"6th St &amp; York St"},{"lng":-75.143588,"lat":39.986342,"stopid":16269,"stopname":"6th St &amp; Dauphin St"},{"lng":-75.143925,"lat":39.984835,"stopid":16270,"stopname":"6th St &amp; Susquehanna Av"},{"lng":-75.147528,"lat":39.982058,"stopid":16273,"stopname":"8th St &amp; Norris St"},{"lng":-75.147864,"lat":39.980622,"stopid":16274,"stopname":"8th St &amp; Berks St"},{"lng":-75.148189,"lat":39.979079,"stopid":16275,"stopname":"8th St &amp; Montgomery Av"},{"lng":-75.148514,"lat":39.977607,"stopid":16276,"stopname":"8th St &amp; Cecil B Moore Av"},{"lng":-75.148827,"lat":39.976135,"stopid":16277,"stopname":"8th St &amp; Oxford St"},{"lng":-75.149139,"lat":39.974708,"stopid":16278,"stopname":"8th St &amp; Jefferson St"},{"lng":-75.14944,"lat":39.973334,"stopid":16279,"stopname":"8th St &amp; Master St"},{"lng":-75.148844,"lat":39.971824,"stopid":16280,"stopname":"Thompson St &amp; Franklin St"},{"lng":-75.149037,"lat":39.970602,"stopid":16281,"stopname":"Franklin St &amp; Girard Av"},{"lng":-75.150595,"lat":39.968044,"stopid":16282,"stopname":"8th St &amp; Poplar St"},{"lng":-75.151136,"lat":39.9656,"stopid":16283,"stopname":"8th St &amp; Brown St"},{"lng":-75.151569,"lat":39.963584,"stopid":16284,"stopname":"8th St &amp; Wallace St"},{"lng":-75.151797,"lat":39.962531,"stopid":16285,"stopname":"8th St &amp; Green St"},{"lng":-75.153022,"lat":39.954198,"stopid":16288,"stopname":"8th St &amp; Cherry St"},{"lng":-75.153215,"lat":39.953297,"stopid":16289,"stopname":"8th St &amp; Arch St"},{"lng":-75.153984,"lat":39.949711,"stopid":16290,"stopname":"8th St &amp; Chestnut St"},{"lng":-75.154549,"lat":39.947088,"stopid":16292,"stopname":"8th St &amp; Locust St"},{"lng":-75.154826,"lat":39.945822,"stopid":16293,"stopname":"8th St &amp; Spruce St"},{"lng":-75.155103,"lat":39.944403,"stopid":16294,"stopname":"8th St &amp; Pine St"},{"lng":-75.155331,"lat":39.94352,"stopid":16295,"stopname":"8th St &amp; Lombard St"},{"lng":-75.155559,"lat":39.942485,"stopid":16296,"stopname":"8th St &amp; South St"},{"lng":-75.155955,"lat":39.940657,"stopid":16297,"stopname":"8th St &amp; Fitzwater St"},{"lng":-75.156172,"lat":39.939666,"stopid":16298,"stopname":"8th St &amp; Catharine St"},{"lng":-75.156376,"lat":39.938667,"stopid":16299,"stopname":"8th St &amp; Christian St"},{"lng":-75.156688,"lat":39.937294,"stopid":16300,"stopname":"8th St &amp; Carpenter St"},{"lng":-75.157373,"lat":39.934145,"stopid":16301,"stopname":"8th St &amp; Federal St"},{"lng":-75.157638,"lat":39.932949,"stopid":16302,"stopname":"8th St &amp; Wharton St"},{"lng":-75.157902,"lat":39.931718,"stopid":16303,"stopname":"8th St &amp; Reed St"},{"lng":-75.158202,"lat":39.930505,"stopid":16304,"stopname":"8th St &amp; Dickinson St"},{"lng":-75.158454,"lat":39.929283,"stopid":16305,"stopname":"8th St &amp; Tasker St"},{"lng":-75.15873,"lat":39.928061,"stopid":16306,"stopname":"8th St &amp; Morris St"},{"lng":-75.158995,"lat":39.926839,"stopid":16307,"stopname":"8th St &amp; Moore St"},{"lng":-75.159523,"lat":39.924403,"stopid":16309,"stopname":"8th St &amp; McKean St"},{"lng":-75.160076,"lat":39.921959,"stopid":16310,"stopname":"8th St &amp; Jackson St"},{"lng":-75.160328,"lat":39.920737,"stopid":16311,"stopname":"8th St &amp; Wolf St"},{"lng":-75.160604,"lat":39.91947,"stopid":16312,"stopname":"8th St &amp; Ritner St"},{"lng":-75.160869,"lat":39.91823,"stopid":16313,"stopname":"8th St &amp; Porter St"},{"lng":-75.161168,"lat":39.916981,"stopid":16314,"stopname":"8th St &amp; Shunk St"},{"lng":-75.156573,"lat":39.915035,"stopid":16496,"stopname":"Oregon Av &amp; 5th St"},{"lng":-75.158083,"lat":39.915243,"stopid":16497,"stopname":"Oregon Av &amp; 6th St"},{"lng":-75.152132,"lat":39.958435,"stopid":18441,"stopname":"8th St &amp; Callowhill St"},{"lng":-75.152806,"lat":39.955188,"stopid":18442,"stopname":"8th St &amp; Race St"},{"lng":-75.159482,"lat":39.916612,"stopid":18491,"stopname":"7th St &amp; Shunk St"},{"lng":-75.159218,"lat":39.917861,"stopid":18492,"stopname":"7th St &amp; Porter St"},{"lng":-75.158941,"lat":39.91911,"stopid":18493,"stopname":"7th St &amp; Ritner St"},{"lng":-75.158665,"lat":39.920359,"stopid":18494,"stopname":"7th St &amp; Wolf St"},{"lng":-75.158413,"lat":39.921599,"stopid":18495,"stopname":"7th St &amp; Jackson St"},{"lng":-75.15786,"lat":39.924025,"stopid":18496,"stopname":"7th St &amp; McKean St"},{"lng":-75.157608,"lat":39.925256,"stopid":18497,"stopname":"7th St &amp; Mifflin St"},{"lng":-75.15732,"lat":39.926469,"stopid":18498,"stopname":"7th St &amp; Moore St"},{"lng":-75.157056,"lat":39.927691,"stopid":18499,"stopname":"7th St &amp; Morris St"},{"lng":-75.156779,"lat":39.928904,"stopid":18500,"stopname":"7th St &amp; Tasker St"},{"lng":-75.156503,"lat":39.930109,"stopid":18501,"stopname":"7th St &amp; Dickinson St"},{"lng":-75.156227,"lat":39.93134,"stopid":18502,"stopname":"7th St &amp; Reed St"},{"lng":-75.155963,"lat":39.932571,"stopid":18503,"stopname":"7th St &amp; Wharton St"},{"lng":-75.155698,"lat":39.933784,"stopid":18504,"stopname":"7th St &amp; Federal St"},{"lng":-75.155085,"lat":39.936621,"stopid":18505,"stopname":"7th St &amp; Carpenter St"},{"lng":-75.154737,"lat":39.938057,"stopid":18506,"stopname":"7th St &amp; Christian St"},{"lng":-75.154269,"lat":39.940233,"stopid":18508,"stopname":"7th St &amp; Fitzwater St"},{"lng":-75.154029,"lat":39.941268,"stopid":18509,"stopname":"7th St &amp; Bainbridge St"},{"lng":-75.15386,"lat":39.942107,"stopid":18510,"stopname":"7th St &amp; South St"},{"lng":-75.153644,"lat":39.943133,"stopid":18511,"stopname":"7th St &amp; Lombard St"},{"lng":-75.153428,"lat":39.944042,"stopid":18512,"stopname":"7th St &amp; Pine St"},{"lng":-75.153115,"lat":39.945452,"stopid":18513,"stopname":"7th St &amp; Spruce St"},{"lng":-75.153382,"lat":39.946738,"stopid":18514,"stopname":"Washington Sq &amp; Locust St"},{"lng":-75.152811,"lat":39.947745,"stopid":18515,"stopname":"7th St &amp; Walnut St"},{"lng":-75.152298,"lat":39.94919,"stopid":18516,"stopname":"7th St &amp; Chestnut St"},{"lng":-75.151492,"lat":39.952883,"stopid":18517,"stopname":"7th St &amp; Arch St"},{"lng":-75.151199,"lat":39.955252,"stopid":18518,"stopname":"7th St &amp; Race St - FS"},{"lng":-75.151278,"lat":39.956452,"stopid":18519,"stopname":"7th St &amp; Vine St"},{"lng":-75.150289,"lat":39.958601,"stopid":18520,"stopname":"7th St &amp; Willow St"},{"lng":-75.149602,"lat":39.96225,"stopid":18521,"stopname":"7th St &amp; Green St"},{"lng":-75.1493,"lat":39.963873,"stopid":18522,"stopname":"7th St &amp; Fairmount Av"},{"lng":-75.148854,"lat":39.966273,"stopid":18523,"stopname":"7th St &amp; Brown St - MBFS"},{"lng":-75.148323,"lat":39.969021,"stopid":18524,"stopname":"7th St &amp; Poplar St - MBFS"},{"lng":-75.14784,"lat":39.97167,"stopid":18525,"stopname":"7th St &amp; Thompson St"},{"lng":-75.147611,"lat":39.97291,"stopid":18526,"stopname":"7th St &amp; Master St"},{"lng":-75.147334,"lat":39.974293,"stopid":18527,"stopname":"7th St &amp; Jefferson St"},{"lng":-75.14708,"lat":39.975756,"stopid":18528,"stopname":"7th St &amp; Oxford St"},{"lng":-75.146766,"lat":39.977407,"stopid":18529,"stopname":"7th St &amp; Cecil B Moore Av - FS"},{"lng":-75.146513,"lat":39.978709,"stopid":18530,"stopname":"7th St &amp; Montgomery Av"},{"lng":-75.146259,"lat":39.980226,"stopid":18531,"stopname":"7th St &amp; Berks St"},{"lng":-75.145957,"lat":39.9817,"stopid":18532,"stopname":"7th St &amp; Norris St"},{"lng":-75.145656,"lat":39.98319,"stopid":18533,"stopname":"7th St &amp; Diamond St"},{"lng":-75.145088,"lat":39.986366,"stopid":18534,"stopname":"7th St &amp; Dauphin St"},{"lng":-75.141138,"lat":39.987426,"stopid":18537,"stopname":"5th St &amp; York St"},{"lng":-75.140488,"lat":39.990414,"stopid":18539,"stopname":"5th St &amp; Huntingdon St"},{"lng":-75.140151,"lat":39.992002,"stopid":18540,"stopname":"5th St &amp; Lehigh Av"},{"lng":-75.139802,"lat":39.993548,"stopid":18541,"stopname":"5th St &amp; Somerset St"},{"lng":-75.13944,"lat":39.995073,"stopid":18542,"stopname":"5th St &amp; Cambria St"},{"lng":-75.13914,"lat":39.996554,"stopid":18543,"stopname":"5th St &amp; Indiana St"},{"lng":-75.138803,"lat":39.998044,"stopid":18544,"stopname":"5th St &amp; Clearfield St"},{"lng":-75.138129,"lat":40.001217,"stopid":18545,"stopname":"5th St &amp; Westmoreland St"},{"lng":-75.137792,"lat":40.002691,"stopid":18546,"stopname":"5th St &amp; Ontario St"},{"lng":-75.13737,"lat":40.004556,"stopid":18547,"stopname":"5th St &amp; Sedgley Av"},{"lng":-75.137129,"lat":40.005704,"stopid":18549,"stopname":"5th St &amp; Venango St"},{"lng":-75.136443,"lat":40.008888,"stopid":18550,"stopname":"5th St &amp; Butler St"},{"lng":-75.135708,"lat":40.012296,"stopid":18552,"stopname":"5th St &amp; Luzerne St - FS"},{"lng":-75.135455,"lat":40.013411,"stopid":18553,"stopname":"5th St &amp; Lycoming St"},{"lng":-75.135118,"lat":40.014945,"stopid":18555,"stopname":"5th St &amp; Hunting Park Av"},{"lng":-75.134769,"lat":40.016533,"stopid":18556,"stopname":"5th St &amp; Bristol St"},{"lng":-75.134443,"lat":40.018032,"stopid":18557,"stopname":"5th St &amp; Cayuga St"},{"lng":-75.134118,"lat":40.019522,"stopid":18558,"stopname":"5th St &amp; Wingohocking St"},{"lng":-75.133973,"lat":40.020253,"stopid":18559,"stopname":"5th St &amp; Annsbury St"},{"lng":-75.133081,"lat":40.024357,"stopid":18562,"stopname":"5th St &amp; Roosevelt Blvd - FS"},{"lng":-75.132769,"lat":40.025695,"stopid":18563,"stopname":"5th St &amp; Rockland St"},{"lng":-75.132443,"lat":40.027176,"stopid":18564,"stopname":"5th St &amp; Ruscomb St"},{"lng":-75.13213,"lat":40.028701,"stopid":18565,"stopname":"5th St &amp; Lindley Av"},{"lng":-75.131792,"lat":40.030235,"stopid":18566,"stopname":"5th St &amp; Duncannon Av"},{"lng":-75.131455,"lat":40.031755,"stopid":18567,"stopname":"5th St &amp; Fisher Av"},{"lng":-75.131129,"lat":40.033295,"stopid":18568,"stopname":"5th St &amp; Somerville Av"},{"lng":-75.130816,"lat":40.034651,"stopid":18569,"stopname":"5th St &amp; Tabor Rd"},{"lng":-75.130454,"lat":40.036346,"stopid":18570,"stopname":"5th St &amp; Olney Av"},{"lng":-75.130117,"lat":40.037889,"stopid":18571,"stopname":"5th St &amp; Chew Av"},{"lng":-75.12943,"lat":40.040958,"stopid":18572,"stopname":"5th St &amp; Nedro Av"},{"lng":-75.129104,"lat":40.042483,"stopid":18573,"stopname":"5th St &amp; Champlost Av"},{"lng":-75.128779,"lat":40.043991,"stopid":18574,"stopname":"5th St &amp; Spencer St"},{"lng":-75.159983,"lat":39.915256,"stopid":18577,"stopname":"Oregon Av &amp; 7th St"},{"lng":-75.158355,"lat":39.915066,"stopid":18578,"stopname":"Oregon Av &amp; 6th St"},{"lng":-75.151871,"lat":39.961683,"stopid":20855,"stopname":"8th St &amp; Spring Garden St"},{"lng":-75.149853,"lat":39.970568,"stopid":20999,"stopname":"Girard Av &amp; 8th St"},{"lng":-75.145342,"lat":39.984945,"stopid":21133,"stopname":"Susquehanna Av &amp; 7th St"},{"lng":-75.159283,"lat":39.925599,"stopid":21227,"stopname":"8th St &amp; Mifflin St"},{"lng":-75.161409,"lat":39.915706,"stopid":21253,"stopname":"8th St &amp; Oregon Av"},{"lng":-75.133286,"lat":40.023447,"stopid":22162,"stopname":"5th St &amp; Roosevelt Blvd"},{"lng":-75.152301,"lat":39.957472,"stopid":24119,"stopname":"8th St &amp; Vine St"},{"lng":-75.149457,"lat":39.963044,"stopid":24337,"stopname":"7th St &amp; Wallace St"},{"lng":-75.151938,"lat":39.959693,"stopid":24339,"stopname":"8th St &amp; Noble St"},{"lng":-75.157133,"lat":39.935215,"stopid":24345,"stopname":"8th St &amp; Passyunk Av"},{"lng":-75.156503,"lat":39.914803,"stopid":24347,"stopname":"Oregon Av &amp; 5th St - FS"},{"lng":-75.154857,"lat":39.912916,"stopid":24972,"stopname":"Whitman Plaza - 3"},{"lng":-75.155215,"lat":39.912033,"stopid":24973,"stopname":"Whitman Plaza - 2 layover"},{"lng":-75.132573,"lat":40.027345,"stopid":26043,"stopname":"5th St &amp; Ruscomb St"},{"lng":-75.137422,"lat":40.009382,"stopid":26044,"stopname":"Rising Sun Av &amp; Randolph St"},{"lng":-75.139737,"lat":40.003925,"stopid":26045,"stopname":"6th St &amp; Sedgley Av"},{"lng":-75.140928,"lat":39.998492,"stopid":26046,"stopname":"6th St &amp; Clearfield St"},{"lng":-75.141903,"lat":39.994014,"stopid":26047,"stopname":"6th St &amp; Somerset St"},{"lng":-75.142926,"lat":39.989349,"stopid":26048,"stopname":"6th St &amp; Cumberland St"},{"lng":-75.148634,"lat":39.976991,"stopid":26050,"stopname":"8th St &amp; Cecil B Moore Av - FS"},{"lng":-75.149705,"lat":39.972139,"stopid":26051,"stopname":"8th St &amp; Thompson St"},{"lng":-75.15134,"lat":39.96461,"stopid":26052,"stopname":"8th St &amp; Fairmount Av"},{"lng":-75.155727,"lat":39.941638,"stopid":26053,"stopname":"8th St &amp; Bainbridge St"},{"lng":-75.150084,"lat":39.959582,"stopid":26056,"stopname":"7th St &amp; Willow St - MBFS"},{"lng":-75.149107,"lat":39.964872,"stopid":26057,"stopname":"7th St &amp; Brown St"},{"lng":-75.138466,"lat":39.999665,"stopid":26058,"stopname":"5th St &amp; Allegheny Av"},{"lng":-75.13619,"lat":40.010012,"stopid":26059,"stopname":"5th St &amp; Rising Sun Av"},{"lng":-75.129719,"lat":40.039682,"stopid":26064,"stopname":"5th St &amp; Grange St - FS"},{"lng":-75.148564,"lat":39.967763,"stopid":26065,"stopname":"7th St &amp; Poplar St - FS"},{"lng":-75.147215,"lat":39.983548,"stopid":30192,"stopname":"8th St &amp; Diamond St"},{"lng":-75.159722,"lat":39.915559,"stopid":30864,"stopname":"7th St &amp; Oregon Av - FS"},{"lng":-75.154381,"lat":39.947864,"stopid":30992,"stopname":"8th St &amp; Walnut St - FS"},{"lng":-75.15482,"lat":39.913434,"stopid":31048,"stopname":"Whitman Plaza - 4"}]