[{"lng":-75.171854,"lat":40.00794,"stopid":268,"stopname":"Hunting Park Av &amp; Fox St - FS"},{"lng":-75.070522,"lat":40.013082,"stopid":486,"stopname":"Torresdale Av &amp; Bridge St"},{"lng":-75.07038,"lat":40.01326,"stopid":502,"stopname":"Torresdale Av &amp; Bridge St"},{"lng":-75.036178,"lat":40.030026,"stopid":523,"stopname":"Torresdale Av &amp; Cottman Av Loop"},{"lng":-75.093189,"lat":40.006013,"stopid":826,"stopname":"Torresdale Av &amp; Hunting Park Av"},{"lng":-75.0967,"lat":40.005898,"stopid":827,"stopname":"Erie Av &amp; Kensington Av - FS"},{"lng":-75.127182,"lat":40.007697,"stopid":828,"stopname":"Erie Av &amp; Front St"},{"lng":-75.144198,"lat":40.008389,"stopid":829,"stopname":"Erie Av &amp; 10th St"},{"lng":-75.127774,"lat":40.007493,"stopid":837,"stopname":"Erie Av &amp; Front St"},{"lng":-75.093403,"lat":40.005862,"stopid":839,"stopname":"Torresdale Av &amp; Hunting Park Av"},{"lng":-75.164651,"lat":40.009451,"stopid":2843,"stopname":"22nd St &amp; Venango St"},{"lng":-75.164504,"lat":40.010923,"stopid":8712,"stopname":"Hunting Park Av &amp; 22nd St"},{"lng":-75.166068,"lat":40.009811,"stopid":13905,"stopname":"23rd St &amp; Venango St Loop"},{"lng":-75.14578,"lat":40.008589,"stopid":16399,"stopname":"Erie Av &amp; 11th St"},{"lng":-75.147706,"lat":40.008727,"stopid":16489,"stopname":"Erie Av &amp; Old York Rd"},{"lng":-75.154794,"lat":40.009644,"stopid":17037,"stopname":"Erie Av &amp; 16th St"},{"lng":-75.152998,"lat":40.009408,"stopid":17038,"stopname":"Erie Av &amp; 15th St"},{"lng":-75.149844,"lat":40.009053,"stopid":17419,"stopname":"Erie Av &amp; Elder St - FS"},{"lng":-75.145994,"lat":40.008491,"stopid":17421,"stopname":"Erie Av &amp; 11th St"},{"lng":-75.14108,"lat":40.007873,"stopid":17425,"stopname":"Erie Av &amp; Rising Sun Av"},{"lng":-75.130151,"lat":40.00699,"stopid":17441,"stopname":"Erie Av &amp; Front St - MBNS"},{"lng":-75.121182,"lat":40.006897,"stopid":17442,"stopname":"Erie Av &amp; B St - MBFS"},{"lng":-75.097126,"lat":40.005765,"stopid":17462,"stopname":"Erie Av &amp; O St"},{"lng":-75.109489,"lat":40.005324,"stopid":17576,"stopname":"Erie Av &amp; I St"},{"lng":-75.09917,"lat":40.005699,"stopid":17600,"stopname":"Erie Av &amp; Castor Av"},{"lng":-75.092327,"lat":40.00594,"stopid":17610,"stopname":"Torresdale Av &amp; Frankford Av"},{"lng":-75.090033,"lat":40.006183,"stopid":17611,"stopname":"Torresdale Av &amp; Salem St"},{"lng":-75.087974,"lat":40.006651,"stopid":17612,"stopname":"Torresdale Av &amp; Adams Av - FS"},{"lng":-75.086885,"lat":40.007103,"stopid":17613,"stopname":"Torresdale Av &amp; Womrath St"},{"lng":-75.119185,"lat":40.006732,"stopid":17708,"stopname":"Erie Av &amp; D St"},{"lng":-75.085251,"lat":40.007804,"stopid":17820,"stopname":"Torresdale Av &amp; Ruan St"},{"lng":-75.082184,"lat":40.009098,"stopid":17825,"stopname":"Torresdale Av &amp; Kinsey St"},{"lng":-75.080537,"lat":40.00979,"stopid":17828,"stopname":"Torresdale Av &amp; Gillingham St"},{"lng":-75.079353,"lat":40.010277,"stopid":17832,"stopname":"Torresdale Av &amp; Orthodox St"},{"lng":-75.077127,"lat":40.011226,"stopid":17841,"stopname":"Torresdale Av &amp; Margaret St"},{"lng":-75.073398,"lat":40.012429,"stopid":17847,"stopname":"Torresdale Av &amp; Wakeling St"},{"lng":-75.071954,"lat":40.012756,"stopid":17849,"stopname":"Torresdale Av &amp; Pratt St"},{"lng":-75.066677,"lat":40.013936,"stopid":17858,"stopname":"Torresdale Av &amp; Simon St"},{"lng":-75.119434,"lat":40.006625,"stopid":17895,"stopname":"Erie Av &amp; D St"},{"lng":-75.115501,"lat":40.006098,"stopid":17896,"stopname":"Erie Av &amp; F St"},{"lng":-75.065066,"lat":40.014565,"stopid":17908,"stopname":"Torresdale Av &amp; Sanger St"},{"lng":-75.063431,"lat":40.015409,"stopid":17910,"stopname":"Torresdale Av &amp; Cheltenham Av"},{"lng":-75.059342,"lat":40.01753,"stopid":17914,"stopname":"Torresdale Av &amp; Comly St"},{"lng":-75.057683,"lat":40.018382,"stopid":17915,"stopname":"Torresdale Av &amp; Benner St"},{"lng":-75.055727,"lat":40.019402,"stopid":17916,"stopname":"Torresdale Av &amp; Deveraux Av"},{"lng":-75.053772,"lat":40.020405,"stopid":17917,"stopname":"Torresdale Av &amp; Robbins Av"},{"lng":-75.051816,"lat":40.021417,"stopid":17918,"stopname":"Torresdale Av &amp; Levick St"},{"lng":-75.050062,"lat":40.022331,"stopid":17919,"stopname":"Torresdale Av &amp; Hellerman St"},{"lng":-75.048414,"lat":40.023182,"stopid":17920,"stopname":"Torresdale Av &amp; Magee Av"},{"lng":-75.046589,"lat":40.024123,"stopid":17922,"stopname":"Torresdale Av &amp; Unruh Av"},{"lng":-75.044763,"lat":40.025063,"stopid":17924,"stopname":"Torresdale Av &amp; Knorr St"},{"lng":-75.043305,"lat":40.025835,"stopid":17927,"stopname":"Torresdale Av &amp; Longshore Av"},{"lng":-75.042178,"lat":40.026402,"stopid":17929,"stopname":"Torresdale Av &amp; Disston St"},{"lng":-75.041124,"lat":40.026953,"stopid":17933,"stopname":"Torresdale Av &amp; Tyson Av"},{"lng":-75.038931,"lat":40.02808,"stopid":17934,"stopname":"Torresdale Av &amp; Princeton Av"},{"lng":-75.036714,"lat":40.029233,"stopid":17935,"stopname":"Torresdale Av &amp; Wellington St"},{"lng":-75.038823,"lat":40.028294,"stopid":17945,"stopname":"Torresdale Av &amp; Princeton Av"},{"lng":-75.041005,"lat":40.027185,"stopid":17946,"stopname":"Torresdale Av &amp; Tyson Av"},{"lng":-75.042143,"lat":40.026599,"stopid":17947,"stopname":"Torresdale Av &amp; Disston St"},{"lng":-75.043245,"lat":40.026041,"stopid":17948,"stopname":"Torresdale Av &amp; Longshore Av"},{"lng":-75.044703,"lat":40.025269,"stopid":17951,"stopname":"Torresdale Av &amp; Knorr St"},{"lng":-75.046493,"lat":40.024328,"stopid":17953,"stopname":"Torresdale Av &amp; Unruh Av"},{"lng":-75.048354,"lat":40.023387,"stopid":17957,"stopname":"Torresdale Av &amp; Magee Av"},{"lng":-75.050002,"lat":40.022536,"stopid":17959,"stopname":"Torresdale Av &amp; Hellerman St"},{"lng":-75.051756,"lat":40.021622,"stopid":17971,"stopname":"Torresdale Av &amp; Levick St"},{"lng":-75.053712,"lat":40.02061,"stopid":17972,"stopname":"Torresdale Av &amp; Robbins Av"},{"lng":-75.055667,"lat":40.019607,"stopid":17973,"stopname":"Torresdale Av &amp; Deveraux Av"},{"lng":-75.057623,"lat":40.018587,"stopid":17974,"stopname":"Torresdale Av &amp; Benner St"},{"lng":-75.059282,"lat":40.017735,"stopid":17975,"stopname":"Torresdale Av &amp; Comly St"},{"lng":-75.060657,"lat":40.017016,"stopid":17976,"stopname":"Torresdale Av &amp; Howell St"},{"lng":-75.083699,"lat":40.008594,"stopid":17978,"stopname":"Torresdale Av &amp; Church St"},{"lng":-75.06183,"lat":40.016412,"stopid":17979,"stopname":"Torresdale Av &amp; Van Kirk St"},{"lng":-75.063371,"lat":40.015614,"stopid":17980,"stopname":"Torresdale Av &amp; Cheltenham Av"},{"lng":-75.065006,"lat":40.014771,"stopid":17981,"stopname":"Torresdale Av &amp; Sanger St"},{"lng":-75.071811,"lat":40.012934,"stopid":17982,"stopname":"Torresdale Av &amp; Pratt St"},{"lng":-75.073255,"lat":40.012608,"stopid":17984,"stopname":"Torresdale Av &amp; Wakeling St"},{"lng":-75.079258,"lat":40.010473,"stopid":17987,"stopname":"Torresdale Av &amp; Orthodox St"},{"lng":-75.080454,"lat":40.009977,"stopid":17989,"stopname":"Torresdale Av &amp; Gillingham St"},{"lng":-75.082112,"lat":40.009277,"stopid":17990,"stopname":"Torresdale Av &amp; Kinsey St"},{"lng":-75.08512,"lat":40.008,"stopid":17993,"stopname":"Torresdale Av &amp; Ruan St"},{"lng":-75.086789,"lat":40.007299,"stopid":17994,"stopname":"Torresdale Av &amp; Womrath St"},{"lng":-75.088139,"lat":40.006732,"stopid":17995,"stopname":"Torresdale Av &amp; Adams Av"},{"lng":-75.08989,"lat":40.006335,"stopid":17996,"stopname":"Torresdale Av &amp; Paul St - FS"},{"lng":-75.091699,"lat":40.006071,"stopid":17997,"stopname":"Torresdale Av &amp; Frankford Av"},{"lng":-75.09891,"lat":40.005832,"stopid":18006,"stopname":"Erie Av &amp; Castor Av"},{"lng":-75.100967,"lat":40.005748,"stopid":18012,"stopname":"Erie Av &amp; M St"},{"lng":-75.103176,"lat":40.005655,"stopid":18016,"stopname":"Erie Av &amp; L St"},{"lng":-75.105257,"lat":40.005599,"stopid":18018,"stopname":"Erie Av &amp; K St"},{"lng":-75.109276,"lat":40.005448,"stopid":18020,"stopname":"Erie Av &amp; I St"},{"lng":-75.123272,"lat":40.007277,"stopid":18036,"stopname":"Erie Av &amp; Whitaker Av"},{"lng":-75.131464,"lat":40.006851,"stopid":18055,"stopname":"Erie Av &amp; 2nd St"},{"lng":-75.07696,"lat":40.011449,"stopid":18096,"stopname":"Torresdale Av &amp; Margaret St"},{"lng":-75.066534,"lat":40.014115,"stopid":18106,"stopname":"Torresdale Av &amp; Simon St"},{"lng":-75.068238,"lat":40.013736,"stopid":18108,"stopname":"Torresdale Av &amp; Harbison Av"},{"lng":-75.107267,"lat":40.005515,"stopid":18134,"stopname":"Erie Av &amp; J St"},{"lng":-75.11341,"lat":40.005977,"stopid":18143,"stopname":"Erie Av &amp; G St"},{"lng":-75.117119,"lat":40.00645,"stopid":18144,"stopname":"Erie Av &amp; F St - MBFS"},{"lng":-75.125068,"lat":40.007505,"stopid":18146,"stopname":"Erie Av &amp; A St"},{"lng":-75.134193,"lat":40.00708,"stopid":18148,"stopname":"Erie Av &amp; 3rd St - FS"},{"lng":-75.136732,"lat":40.007434,"stopid":18149,"stopname":"Erie Av &amp; 5th St"},{"lng":-75.138717,"lat":40.007698,"stopid":18150,"stopname":"Erie Av &amp; 6th St"},{"lng":-75.140252,"lat":40.007889,"stopid":18151,"stopname":"Erie Av &amp; Rising Sun Av"},{"lng":-75.141646,"lat":40.00807,"stopid":18152,"stopname":"Erie Av &amp; 8th St"},{"lng":-75.14265,"lat":40.008207,"stopid":18153,"stopname":"Erie Av &amp; 9th St"},{"lng":-75.147481,"lat":40.008824,"stopid":18154,"stopname":"Erie Av &amp; Old York Rd"},{"lng":-75.162756,"lat":40.01067,"stopid":18161,"stopname":"Erie Av &amp; 21st St"},{"lng":-75.160913,"lat":40.010434,"stopid":18162,"stopname":"Erie Av &amp; 20th St"},{"lng":-75.159271,"lat":40.010216,"stopid":18163,"stopname":"Erie Av &amp; 19th St"},{"lng":-75.157712,"lat":40.010016,"stopid":18164,"stopname":"Erie Av &amp; 18th St"},{"lng":-75.156129,"lat":40.009816,"stopid":18165,"stopname":"Erie Av &amp; 17th St"},{"lng":-75.142863,"lat":40.008109,"stopid":18188,"stopname":"Erie Av &amp; 9th St"},{"lng":-75.141871,"lat":40.007973,"stopid":18193,"stopname":"Erie Av &amp; 8th St"},{"lng":-75.138942,"lat":40.0076,"stopid":18194,"stopname":"Erie Av &amp; 6th St"},{"lng":-75.136957,"lat":40.007337,"stopid":18195,"stopname":"Erie Av &amp; 5th St"},{"lng":-75.134146,"lat":40.006955,"stopid":18196,"stopname":"Erie Av &amp; 3rd St"},{"lng":-75.12619,"lat":40.007516,"stopid":18197,"stopname":"Erie Av &amp; Front St - MBFS"},{"lng":-75.123615,"lat":40.00718,"stopid":18198,"stopname":"Erie Av &amp; B St"},{"lng":-75.113635,"lat":40.005861,"stopid":18201,"stopname":"Erie Av &amp; G St"},{"lng":-75.111651,"lat":40.005606,"stopid":18202,"stopname":"Erie Av &amp; I St - MBNS"},{"lng":-75.10748,"lat":40.005372,"stopid":18203,"stopname":"Erie Av &amp; J St"},{"lng":-75.105459,"lat":40.005448,"stopid":18204,"stopname":"Erie Av &amp; K St"},{"lng":-75.103402,"lat":40.005523,"stopid":18205,"stopname":"Erie Av &amp; L St"},{"lng":-75.101192,"lat":40.005597,"stopid":18206,"stopname":"Erie Av &amp; M St"},{"lng":-75.068783,"lat":40.013452,"stopid":18207,"stopname":"Torresdale Av &amp; Harbison St"},{"lng":-75.15275,"lat":40.009497,"stopid":18208,"stopname":"Erie Av &amp; 15th St"},{"lng":-75.06189,"lat":40.016207,"stopid":18210,"stopname":"Torresdale Av &amp; Van Kirk St"},{"lng":-75.154321,"lat":40.009687,"stopid":18211,"stopname":"Erie Av &amp; 16th St"},{"lng":-75.155868,"lat":40.009905,"stopid":18212,"stopname":"Erie Av &amp; 17th St"},{"lng":-75.157451,"lat":40.010105,"stopid":18213,"stopname":"Erie Av &amp; 18th St"},{"lng":-75.15901,"lat":40.010314,"stopid":18214,"stopname":"Erie Av &amp; 19th St"},{"lng":-75.160605,"lat":40.010513,"stopid":18215,"stopname":"Erie Av &amp; 20th St"},{"lng":-75.16246,"lat":40.010767,"stopid":18216,"stopname":"Erie Av &amp; 21st St"},{"lng":-75.164126,"lat":40.010958,"stopid":18217,"stopname":"Erie Av &amp; 22nd St"},{"lng":-75.166717,"lat":40.010035,"stopid":18218,"stopname":"Hunting Park Av &amp; Wissahickon Av"},{"lng":-75.083841,"lat":40.008398,"stopid":18287,"stopname":"Torresdale Av &amp; Church St"},{"lng":-75.166292,"lat":40.010088,"stopid":21198,"stopname":"Hunting Park Av &amp; Pacific St"},{"lng":-75.151439,"lat":40.009208,"stopid":21260,"stopname":"Erie Av &amp; Broad St"},{"lng":-75.150671,"lat":40.009233,"stopid":21261,"stopname":"Erie Av &amp; Germantown Av"},{"lng":-75.144423,"lat":40.008291,"stopid":21964,"stopname":"Erie Av &amp; 10th St"},{"lng":-75.170482,"lat":40.008338,"stopid":22400,"stopname":"Hunting Park Av &amp; Stokely St"},{"lng":-75.16815,"lat":40.009235,"stopid":22401,"stopname":"Hunting Park Av &amp; 24th St"},{"lng":-75.037709,"lat":40.028879,"stopid":22707,"stopname":"Torresdale Av &amp; Friendship St"},{"lng":-75.175105,"lat":40.010981,"stopid":25825,"stopname":"Fox St &amp; Roberts Av - MBFS"},{"lng":-75.174034,"lat":40.009774,"stopid":25826,"stopname":"Fox St &amp; Bakers Centre - FS"},{"lng":-75.131795,"lat":40.006691,"stopid":26228,"stopname":"Erie Av &amp; 2nd St"},{"lng":-75.060717,"lat":40.016811,"stopid":26233,"stopname":"Torresdale Av &amp; Howell St"},{"lng":-75.115217,"lat":40.006204,"stopid":26247,"stopname":"Erie Av &amp; F St"},{"lng":-75.120768,"lat":40.006968,"stopid":26255,"stopname":"Erie Av &amp; D St - MBFS"},{"lng":-75.130021,"lat":40.00716,"stopid":26259,"stopname":"Erie Av &amp; Roberto Clemente Dr - NS"},{"lng":-75.095802,"lat":40.005788,"stopid":30289,"stopname":"Torresdale Av &amp; Kensington Av - FS"},{"lng":-75.117414,"lat":40.006361,"stopid":30927,"stopname":"Erie Av &amp; D St - MBFS"},{"lng":-75.111331,"lat":40.005704,"stopid":30928,"stopname":"Erie Av &amp; G St - MBNS"},{"lng":-75.166057,"lat":40.009588,"stopid":31776,"stopname":"Venango St &amp; 23rd St"},{"lng":-75.177276,"lat":40.008745,"stopid":31826,"stopname":"Bakers Centre - onsite 2"},{"lng":-75.178262,"lat":40.010684,"stopid":31827,"stopname":"Roberts Av &amp; Bakers Centre"}]