[{"lng":-75.206826,"lat":40.014986,"stopid":2,"stopname":"Ridge Av &amp; Lincoln Dr  - FS"},{"lng":-75.230958,"lat":40.067141,"stopid":121,"stopname":"Wissahickon Av &amp; Cathedral Rd - FS"},{"lng":-75.236237,"lat":40.056965,"stopid":122,"stopname":"Ridge Av &amp; Summit Av"},{"lng":-75.23638,"lat":40.060946,"stopid":513,"stopname":"Port Royal Av &amp; Henry Av"},{"lng":-75.153624,"lat":39.951343,"stopid":728,"stopname":"8th St &amp; Market St"},{"lng":-75.24,"lat":40.038424,"stopid":908,"stopname":"Umbria St &amp; Domino Ln - FS"},{"lng":-75.155028,"lat":39.951659,"stopid":915,"stopname":"9th St &amp; Market St - FS"},{"lng":-75.239669,"lat":40.038335,"stopid":922,"stopname":"Umbria St &amp; Domino Ln"},{"lng":-75.18319,"lat":39.955591,"stopid":1537,"stopname":"30th St &amp; Market St - MBNS"},{"lng":-75.173194,"lat":39.95392,"stopid":2821,"stopname":"20th St &amp; Market St"},{"lng":-75.168056,"lat":39.954061,"stopid":8936,"stopname":"JFK Blvd &amp; 17th St"},{"lng":-75.169567,"lat":39.954251,"stopid":8938,"stopname":"JFK Blvd &amp; 18th St"},{"lng":-75.171208,"lat":39.95446,"stopid":8939,"stopname":"JFK Blvd &amp; 19th St"},{"lng":-75.157213,"lat":39.951512,"stopid":10255,"stopname":"Market St &amp; 10th St"},{"lng":-75.159208,"lat":39.951748,"stopid":10259,"stopname":"Market St &amp; 11th St - MBNS"},{"lng":-75.15955,"lat":39.951954,"stopid":10262,"stopname":"Market St &amp; 12th St"},{"lng":-75.161604,"lat":39.95203,"stopid":10263,"stopname":"Market St &amp; 13th St"},{"lng":-75.165475,"lat":39.952547,"stopid":10266,"stopname":"Market St &amp; 15th St"},{"lng":-75.170173,"lat":39.953119,"stopid":10272,"stopname":"Market St &amp; 18th St"},{"lng":-75.17172,"lat":39.953319,"stopid":10275,"stopname":"Market St &amp; 19th St"},{"lng":-75.174918,"lat":39.95387,"stopid":10279,"stopname":"Market St &amp; 21st St"},{"lng":-75.1765,"lat":39.954069,"stopid":10281,"stopname":"Market St &amp; 22nd St"},{"lng":-75.177657,"lat":39.954214,"stopid":10282,"stopname":"Market St &amp; 23rd St"},{"lng":-75.177929,"lat":39.95409,"stopid":10283,"stopname":"Market St &amp; 23rd St"},{"lng":-75.179251,"lat":39.954253,"stopid":10285,"stopname":"Market St &amp; 24th St"},{"lng":-75.155714,"lat":39.95133,"stopid":10340,"stopname":"Market St &amp; 9th St"},{"lng":-75.239423,"lat":40.06403,"stopid":12253,"stopname":"Ridge Av &amp; Cathedral Rd"},{"lng":-75.234913,"lat":40.047984,"stopid":12329,"stopname":"Ridge Av &amp; Wigard - MBNS"},{"lng":-75.235313,"lat":40.048744,"stopid":12346,"stopname":"Ridge Av &amp; Wigard Av"},{"lng":-75.238935,"lat":40.060888,"stopid":12397,"stopname":"Ridge Av &amp; Ivins Rd"},{"lng":-75.155666,"lat":39.948322,"stopid":14883,"stopname":"Walnut St &amp; 9th St"},{"lng":-75.237861,"lat":40.059904,"stopid":14993,"stopname":"Port Royal  Av Ridge Av - FS"},{"lng":-75.212293,"lat":40.016763,"stopid":16028,"stopname":"Main St &amp; Sumac St - FS"},{"lng":-75.213494,"lat":40.018077,"stopid":16030,"stopname":"Main St &amp; Haines St"},{"lng":-75.218163,"lat":40.02219,"stopid":16033,"stopname":"Main St &amp; Shurs Ln"},{"lng":-75.219177,"lat":40.022969,"stopid":16034,"stopname":"Main St &amp; Jamestown St"},{"lng":-75.22005,"lat":40.023648,"stopid":16036,"stopname":"Main St &amp; Pensdale St"},{"lng":-75.221288,"lat":40.02457,"stopid":16037,"stopname":"Main St &amp; Rector St"},{"lng":-75.222587,"lat":40.025081,"stopid":16038,"stopname":"Main St &amp; Cotton St"},{"lng":-75.224606,"lat":40.025905,"stopid":16039,"stopname":"Main St &amp; Levering St"},{"lng":-75.226944,"lat":40.026855,"stopid":16040,"stopname":"Main St &amp;  Green Ln"},{"lng":-75.230326,"lat":40.030903,"stopid":16042,"stopname":"Umbria St &amp; Hermitage St"},{"lng":-75.232355,"lat":40.032379,"stopid":16046,"stopname":"Umbria St &amp;  Fountain St"},{"lng":-75.235948,"lat":40.050307,"stopid":16079,"stopname":"Ridge Av &amp; Flamingo St"},{"lng":-75.23619,"lat":40.052422,"stopid":16082,"stopname":"Ridge Av &amp; Shawmont Av"},{"lng":-75.236069,"lat":40.053556,"stopid":16084,"stopname":"Ridge Av &amp; Aurania St"},{"lng":-75.238641,"lat":40.064591,"stopid":16091,"stopname":"Cathedral Rd &amp; Ridge Av - FS"},{"lng":-75.237185,"lat":40.065062,"stopid":16092,"stopname":"Cathedral Rd &amp; Brierdale Rd"},{"lng":-75.23527,"lat":40.064818,"stopid":16093,"stopname":"Cathedral Rd &amp; Tiona St"},{"lng":-75.233234,"lat":40.065243,"stopid":16094,"stopname":"Cathedral Rd &amp; Old Line Rd"},{"lng":-75.232753,"lat":40.068286,"stopid":16141,"stopname":"Grakyn Ln &amp; Wissahickon Av - FS"},{"lng":-75.23395,"lat":40.067476,"stopid":16142,"stopname":"Grakyn Ln &amp; Sagamore Rd - FS"},{"lng":-75.234779,"lat":40.066879,"stopid":16143,"stopname":"Grakyn Ln &amp; Old Line Rd"},{"lng":-75.233423,"lat":40.065502,"stopid":16144,"stopname":"Old Line Rd &amp; Cathedral Rd"},{"lng":-75.234867,"lat":40.065023,"stopid":16145,"stopname":"Cathedral Rd &amp; Tiona St"},{"lng":-75.237114,"lat":40.065276,"stopid":16163,"stopname":"Cathedral Rd &amp; Brierdale Rd"},{"lng":-75.23896,"lat":40.064663,"stopid":16164,"stopname":"Cathedral Rd &amp; Ridge Av"},{"lng":-75.236006,"lat":40.055144,"stopid":16168,"stopname":"Ridge Av &amp; Evergreen Av"},{"lng":-75.236151,"lat":40.053868,"stopid":16169,"stopname":"Ridge Av &amp; Aurania St"},{"lng":-75.236331,"lat":40.052815,"stopid":16170,"stopname":"Ridge Av &amp; Shawmont Av"},{"lng":-75.236113,"lat":40.050414,"stopid":16172,"stopname":"Ridge Av &amp; Flamingo St"},{"lng":-75.235502,"lat":40.048842,"stopid":16173,"stopname":"Ridge Av &amp; Wigard Av"},{"lng":-75.222835,"lat":40.025081,"stopid":16200,"stopname":"Main St &amp; Cotton St"},{"lng":-75.221643,"lat":40.024615,"stopid":16201,"stopname":"Main St &amp; Rector St"},{"lng":-75.220274,"lat":40.023675,"stopid":16202,"stopname":"Main St &amp; Pensdale St"},{"lng":-75.219402,"lat":40.022996,"stopid":16203,"stopname":"Main St &amp; Jamestown St"},{"lng":-75.218376,"lat":40.022209,"stopid":16204,"stopname":"Main St &amp; Shurs Ln"},{"lng":-75.215687,"lat":40.020115,"stopid":16205,"stopname":"Main St &amp; Hermit St"},{"lng":-75.153984,"lat":39.949711,"stopid":16290,"stopname":"8th St &amp; Chestnut St"},{"lng":-75.154297,"lat":39.948221,"stopid":16291,"stopname":"8th St &amp; Walnut St"},{"lng":-75.235931,"lat":40.056617,"stopid":16347,"stopname":"Ridge Av &amp; Summit Av"},{"lng":-75.157885,"lat":39.951745,"stopid":17833,"stopname":"Market St &amp; 10th St - MBFS"},{"lng":-75.164763,"lat":39.953652,"stopid":17842,"stopname":"JFK Blvd &amp; 15th St"},{"lng":-75.234807,"lat":40.034882,"stopid":18024,"stopname":"Umbria St &amp; Parker St"},{"lng":-75.236529,"lat":40.036277,"stopid":18027,"stopname":"Umbria St &amp; Paoli Av"},{"lng":-75.237828,"lat":40.037109,"stopid":18028,"stopname":"Umbria St &amp; Paoli Av - MBFS"},{"lng":-75.238314,"lat":40.040957,"stopid":18030,"stopname":"Domino Ln &amp; Umbria St - MBFS"},{"lng":-75.236487,"lat":40.043355,"stopid":18031,"stopname":"Domino Ln &amp; Fowler St"},{"lng":-75.234403,"lat":40.04428,"stopid":18032,"stopname":"Domino Ln &amp; Fowler St - MBFS"},{"lng":-75.232296,"lat":40.045276,"stopid":18380,"stopname":"Domino Ln &amp; Ridge Av - FS"},{"lng":-75.234249,"lat":40.044458,"stopid":18381,"stopname":"Domino Ln &amp; Fowler St - MBNS"},{"lng":-75.236439,"lat":40.043497,"stopid":18382,"stopname":"Domino Ln &amp; Fowler St"},{"lng":-75.238456,"lat":40.040903,"stopid":18383,"stopname":"Domino Ln &amp; Fowler St - MBFS"},{"lng":-75.239315,"lat":40.037959,"stopid":18385,"stopname":"Umbria St &amp; Domino St - MBFS"},{"lng":-75.236707,"lat":40.036277,"stopid":18386,"stopname":"Umbria St &amp; Paoli Av"},{"lng":-75.23555,"lat":40.035499,"stopid":18387,"stopname":"Umbria St &amp; Parker Av"},{"lng":-75.234053,"lat":40.033872,"stopid":18388,"stopname":"Umbria St &amp; Lemonte St"},{"lng":-75.232568,"lat":40.032433,"stopid":18389,"stopname":"Umbria St &amp; Fountain St"},{"lng":-75.230515,"lat":40.030957,"stopid":18390,"stopname":"Umbria St &amp; Hermitage St"},{"lng":-75.229348,"lat":40.02967,"stopid":18391,"stopname":"Umbria St &amp; Leverington Av"},{"lng":-75.227051,"lat":40.026784,"stopid":18393,"stopname":"Main St &amp; Green Ln - FS"},{"lng":-75.174871,"lat":39.9537,"stopid":18447,"stopname":"Market St &amp; 21st St - FS"},{"lng":-75.173325,"lat":39.953509,"stopid":18448,"stopname":"Market St &amp; 20th St"},{"lng":-75.167045,"lat":39.952738,"stopid":18451,"stopname":"Market St &amp; 16th St"},{"lng":-75.154309,"lat":39.95114,"stopid":18457,"stopname":"Market St &amp; 8th St - MBNS"},{"lng":-75.239696,"lat":40.063763,"stopid":19281,"stopname":"Ridge Av &amp; Cathedral Rd - FS"},{"lng":-75.235852,"lat":40.054948,"stopid":20409,"stopname":"Ridge Av &amp; Evergreen Av"},{"lng":-75.238063,"lat":40.059735,"stopid":20410,"stopname":"Ridge Av &amp; Port Royal Av"},{"lng":-75.176453,"lat":39.953899,"stopid":20644,"stopname":"Market St &amp; 22nd St - FS"},{"lng":-75.181541,"lat":39.954552,"stopid":21529,"stopname":"Market St &amp; Schuylkill Av"},{"lng":-75.17938,"lat":39.954432,"stopid":21536,"stopname":"Market St &amp; 24th St - MBFS"},{"lng":-75.155448,"lat":39.949741,"stopid":24121,"stopname":"9th St &amp; Chestnut St"},{"lng":-75.156127,"lat":39.951501,"stopid":30081,"stopname":"Market St &amp; 9th St  - MBFS"},{"lng":-75.160529,"lat":39.952063,"stopid":30082,"stopname":"Market St &amp; 12th St - MBFS"},{"lng":-75.229277,"lat":40.029786,"stopid":30294,"stopname":"Umbria St &amp; Leverington Av - FS"},{"lng":-75.21051,"lat":40.016099,"stopid":30319,"stopname":"Main St &amp; Rochelle Av"},{"lng":-75.180795,"lat":39.955131,"stopid":30576,"stopname":"Schuylkill Av &amp; JFK Blvd"},{"lng":-75.206909,"lat":40.014924,"stopid":30596,"stopname":"Ridge Av &amp; Lincoln Dr"},{"lng":-75.21545,"lat":40.020106,"stopid":30907,"stopname":"Main St &amp; Hermit St"},{"lng":-75.233876,"lat":40.033836,"stopid":30910,"stopname":"Umbria St &amp; Lemonte St"},{"lng":-75.224772,"lat":40.025861,"stopid":30913,"stopname":"Main St &amp; Levering St"},{"lng":-75.213695,"lat":40.018184,"stopid":30914,"stopname":"Main St &amp; Dawson St"},{"lng":-75.212364,"lat":40.016691,"stopid":30915,"stopname":"Main St &amp; Kalos St"},{"lng":-75.230153,"lat":40.029288,"stopid":30918,"stopname":"Leverington Av &amp; Main St"},{"lng":-75.232497,"lat":40.045071,"stopid":30919,"stopname":"Domino La &amp; Ridge Av"},{"lng":-75.238275,"lat":40.059842,"stopid":30920,"stopname":"Ridge Av &amp; Port Royal Av"},{"lng":-75.21051,"lat":40.016206,"stopid":31059,"stopname":"Main St &amp; Ridge Av - MBFS"},{"lng":-75.230935,"lat":40.06698,"stopid":32265,"stopname":"Wissahickon Av &amp; Cathedral Rd"},{"lng":-75.234697,"lat":40.066745,"stopid":32266,"stopname":"Old Line Rd &amp; Grakyn Ln"},{"lng":-75.233689,"lat":40.06752,"stopid":32267,"stopname":"Grakyn Ln &amp; Sagamore Rd"},{"lng":-75.232575,"lat":40.068259,"stopid":32268,"stopname":"Grakyn Ln &amp; Wissahickon Av"}]