[{"lng":-75.036178,"lat":40.030026,"stopid":523,"stopname":"Torresdale Av &amp; Cottman Av Loop"},{"lng":-75.13697,"lat":40.04194,"stopid":841,"stopname":"Fern Rock Transportation Center"},{"lng":-75.125045,"lat":40.054567,"stopid":1003,"stopname":"Oak Lane &amp; Cheltenham Av"},{"lng":-75.083657,"lat":40.061288,"stopid":1008,"stopname":"Cottman Av &amp; Oxford Av"},{"lng":-75.071664,"lat":40.05432,"stopid":1009,"stopname":"Cottman Av &amp; Summerdale Av"},{"lng":-75.054791,"lat":40.044667,"stopid":1013,"stopname":"Cottman Av &amp; Roosevelt Blvd"},{"lng":-75.036183,"lat":40.031258,"stopid":1014,"stopname":"Cottman Av &amp; Ditman St"},{"lng":-75.022543,"lat":40.030759,"stopid":1016,"stopname":"State Rd &amp; Rhawn St"},{"lng":-75.021712,"lat":40.031363,"stopid":1019,"stopname":"State Rd &amp; Rhawn St"},{"lng":-75.035629,"lat":40.030819,"stopid":1021,"stopname":"Cottman Av &amp; Ditman St"},{"lng":-75.053907,"lat":40.044289,"stopid":1023,"stopname":"Cottman Av &amp; Roosevelt Blvd"},{"lng":-75.060131,"lat":40.047896,"stopid":1024,"stopname":"Cottman Av &amp; Bustleton Av - FS"},{"lng":-75.067618,"lat":40.052166,"stopid":1025,"stopname":"Cottman Av &amp; Loretto Av"},{"lng":-75.076887,"lat":40.057512,"stopid":1027,"stopname":"Cottman Av &amp; Whitaker Av - FS"},{"lng":-75.083397,"lat":40.061287,"stopid":1028,"stopname":"Cottman Av &amp; Oxford Av"},{"lng":-75.124558,"lat":40.054932,"stopid":1030,"stopname":"Oak Lane Rd &amp; Valley Rd"},{"lng":-75.060179,"lat":40.04778,"stopid":1056,"stopname":"Cottman Av &amp; Bustleton Av"},{"lng":-75.005394,"lat":40.053917,"stopid":1227,"stopname":"Frankford Av &amp; Gregg St Loop"},{"lng":-75.04918,"lat":40.041419,"stopid":1242,"stopname":"Cottman Av &amp; Hawthorne St"},{"lng":-75.073421,"lat":40.055333,"stopid":6423,"stopname":"Cottman Av &amp; Algon Av"},{"lng":-75.0821,"lat":40.060391,"stopid":6426,"stopname":"Cottman Av &amp; Bingham St - FS"},{"lng":-75.069612,"lat":40.053162,"stopid":6446,"stopname":"Cottman Av &amp; Frontenac St - FS"},{"lng":-75.057762,"lat":40.046514,"stopid":6447,"stopname":"Cottman Av &amp; Hanford St - FS"},{"lng":-75.088622,"lat":40.064193,"stopid":6451,"stopname":"Cottman Av &amp; Hasbrook Av - FS"},{"lng":-75.062301,"lat":40.049134,"stopid":6454,"stopname":"Cottman Av &amp; Horrocks St"},{"lng":-75.067879,"lat":40.052149,"stopid":6461,"stopname":"Cottman Av &amp; Loretto Av"},{"lng":-75.078503,"lat":40.058302,"stopid":6463,"stopname":"Cottman Av &amp; Montour St - FS"},{"lng":-75.075178,"lat":40.056373,"stopid":6467,"stopname":"Cottman Av &amp; Pennway St"},{"lng":-75.056264,"lat":40.045653,"stopid":6478,"stopname":"Cottman Av &amp; Rupert St"},{"lng":-75.07138,"lat":40.054319,"stopid":6484,"stopname":"Cottman Av &amp; Glendale Av"},{"lng":-75.128523,"lat":40.045882,"stopid":16236,"stopname":"5th St &amp; Godfrey Av"},{"lng":-75.084931,"lat":40.062059,"stopid":17498,"stopname":"Cottman Av &amp; Oakley St"},{"lng":-75.080673,"lat":40.059548,"stopid":17501,"stopname":"Cottman Av &amp; Tabor Av"},{"lng":-75.079801,"lat":40.059037,"stopid":17503,"stopname":"Cottman Av &amp; Claridge St"},{"lng":-75.066275,"lat":40.051243,"stopid":17506,"stopname":"Cottman Av &amp; Castor Av"},{"lng":-75.064329,"lat":40.05013,"stopid":17507,"stopname":"Cottman Av &amp; Large St"},{"lng":-75.062561,"lat":40.049117,"stopid":17508,"stopname":"Cottman Av &amp; Horrocks St"},{"lng":-75.05788,"lat":40.046416,"stopid":17510,"stopname":"Cottman Av &amp; Hanford St"},{"lng":-75.053483,"lat":40.043877,"stopid":17513,"stopname":"Cottman Av &amp; Revere St"},{"lng":-75.052999,"lat":40.043778,"stopid":17679,"stopname":"Cottman Av &amp; Revere St"},{"lng":-75.055321,"lat":40.045124,"stopid":17681,"stopname":"Cottman Av &amp; Roosevelt Blvd - FS"},{"lng":-75.064069,"lat":40.050147,"stopid":17683,"stopname":"Cottman Av &amp; Large St"},{"lng":-75.065873,"lat":40.05117,"stopid":17686,"stopname":"Cottman Av &amp; Castor Av"},{"lng":-75.069611,"lat":40.053305,"stopid":17689,"stopname":"Cottman Av &amp; Frontenac St"},{"lng":-75.073137,"lat":40.055341,"stopid":17690,"stopname":"Cottman Av &amp; Algon St"},{"lng":-75.074918,"lat":40.056391,"stopid":17691,"stopname":"Cottman Av &amp; Pennway St"},{"lng":-75.079517,"lat":40.059036,"stopid":17694,"stopname":"Cottman Av &amp; Claridge St"},{"lng":-75.080637,"lat":40.059682,"stopid":17695,"stopname":"Cottman Av &amp; Tabor Av - FS"},{"lng":-75.08217,"lat":40.06057,"stopid":17696,"stopname":"Cottman Av &amp; Bingham St"},{"lng":-75.084246,"lat":40.061798,"stopid":17697,"stopname":"Cottman Av &amp; Rising Sun Av - FS"},{"lng":-75.0894,"lat":40.064794,"stopid":17700,"stopname":"Cottman Av &amp; Ryers Av"},{"lng":-75.130343,"lat":40.04594,"stopid":17709,"stopname":"Godfrey Av &amp; 6th St"},{"lng":-75.132022,"lat":40.046078,"stopid":17710,"stopname":"Godfrey Av &amp; 7th St"},{"lng":-75.135675,"lat":40.046265,"stopid":17711,"stopname":"Godfrey Av &amp; 10th St"},{"lng":-75.137672,"lat":40.046636,"stopid":17713,"stopname":"11th St &amp; Godfrey Av - FS"},{"lng":-75.137925,"lat":40.04536,"stopid":17714,"stopname":"11th St &amp; Spencer St"},{"lng":-75.138286,"lat":40.043808,"stopid":17716,"stopname":"11th St &amp; Champlost Av"},{"lng":-75.1386,"lat":40.042309,"stopid":17718,"stopname":"11th St &amp; Nedro Av"},{"lng":-75.136596,"lat":40.043383,"stopid":17921,"stopname":"10th St &amp; Champlost St"},{"lng":-75.136224,"lat":40.044946,"stopid":17923,"stopname":"10th St &amp; Spencer St"},{"lng":-75.135995,"lat":40.046132,"stopid":17925,"stopname":"10th St &amp; Godfrey Av"},{"lng":-75.132223,"lat":40.045963,"stopid":17926,"stopname":"Godfrey Av &amp; 7th St"},{"lng":-75.130568,"lat":40.045843,"stopid":17928,"stopname":"Godfrey Av &amp; 6th St"},{"lng":-75.089743,"lat":40.064866,"stopid":20620,"stopname":"Cottman Av &amp; Ryers Av"},{"lng":-75.076923,"lat":40.057369,"stopid":21268,"stopname":"Cottman Av &amp; Whitaker Av"},{"lng":-75.004834,"lat":40.054638,"stopid":21858,"stopname":"Frankford Av &amp; Linden Av"},{"lng":-75.047565,"lat":40.040513,"stopid":22352,"stopname":"Cottman Av &amp; Sackett St"},{"lng":-75.045985,"lat":40.039767,"stopid":22453,"stopname":"Cottman Av &amp; Rowland Av - FS"},{"lng":-75.047246,"lat":40.040485,"stopid":22454,"stopname":"Cottman Av &amp; Sackett St"},{"lng":-75.034543,"lat":40.024255,"stopid":22528,"stopname":"State Rd &amp; Friendship St"},{"lng":-75.033073,"lat":40.024938,"stopid":22529,"stopname":"State Rd &amp; Wellington St"},{"lng":-75.031698,"lat":40.025585,"stopid":22530,"stopname":"State Rd &amp; Cottman Av"},{"lng":-75.032988,"lat":40.027463,"stopid":22531,"stopname":"Cottman Av &amp; Keystone St"},{"lng":-75.033845,"lat":40.028555,"stopid":22532,"stopname":"Cottman Av &amp; Edmund St"},{"lng":-75.019353,"lat":40.032516,"stopid":22548,"stopname":"State Rd &amp; Rhawn Corrections - 1 MB"},{"lng":-75.017052,"lat":40.033803,"stopid":22551,"stopname":"State Rd &amp; Rhawn Corrections - 2 MB"},{"lng":-75.013932,"lat":40.035542,"stopid":22554,"stopname":"State Rd &amp; Ashburner St - MBNS"},{"lng":-75.013879,"lat":40.035723,"stopid":22698,"stopname":"State Rd &amp; Ashburner St - MBFS"},{"lng":-75.015758,"lat":40.034691,"stopid":22699,"stopname":"State Rd &amp; Rhawn Corrections - MBNS"},{"lng":-75.019589,"lat":40.032552,"stopid":22700,"stopname":"State Rd &amp; Rhawn Corrections - MBNS"},{"lng":-75.035883,"lat":40.029811,"stopid":22706,"stopname":"Torresdale Av &amp; Cottman Av - FS"},{"lng":-75.037709,"lat":40.028879,"stopid":22707,"stopname":"Torresdale Av &amp; Friendship St"},{"lng":-75.038825,"lat":40.027973,"stopid":22708,"stopname":"Princeton Av &amp; Torresdale Av - FS"},{"lng":-75.037733,"lat":40.02672,"stopid":22709,"stopname":"Princeton Av &amp; Edmund St"},{"lng":-75.037286,"lat":40.02621,"stopid":22710,"stopname":"Princeton Av &amp; Tulip St"},{"lng":-75.128032,"lat":40.047372,"stopid":22723,"stopname":"5th St &amp; Chelten Av - FS"},{"lng":-75.127694,"lat":40.048915,"stopid":22724,"stopname":"5th St &amp; 64th Av"},{"lng":-75.127417,"lat":40.050119,"stopid":22725,"stopname":"5th St &amp; 65th Av"},{"lng":-75.127079,"lat":40.051645,"stopid":22726,"stopname":"5th St &amp; 66th Av"},{"lng":-75.126597,"lat":40.053857,"stopid":22727,"stopname":"5th St &amp; Oak Ln"},{"lng":-75.122544,"lat":40.055748,"stopid":22728,"stopname":"Oak Ln &amp; Asbury Av - FS"},{"lng":-75.119333,"lat":40.057311,"stopid":22729,"stopname":"Oak Ln &amp; Barclay Rd"},{"lng":-75.117413,"lat":40.058235,"stopid":22730,"stopname":"Oak Ln &amp; Parkview Rd"},{"lng":-75.115552,"lat":40.059149,"stopid":22731,"stopname":"Oak Ln &amp; Bell Rd"},{"lng":-75.11234,"lat":40.060837,"stopid":22732,"stopname":"Oak Ln &amp; Brookfield Rd"},{"lng":-75.110833,"lat":40.061762,"stopid":22733,"stopname":"Oak Ln &amp; Ashbourne Rd"},{"lng":-75.106915,"lat":40.059868,"stopid":22735,"stopname":"Ashbourne Rd &amp; Front St"},{"lng":-75.105741,"lat":40.060686,"stopid":22736,"stopname":"Ashbourne Rd &amp; Boyer Rd"},{"lng":-75.105123,"lat":40.061319,"stopid":22737,"stopname":"Ashbourne Rd &amp; Croyden Rd"},{"lng":-75.104304,"lat":40.061986,"stopid":22738,"stopname":"Ashbourne Rd &amp; Jenkintown Rd"},{"lng":-75.103038,"lat":40.062081,"stopid":22739,"stopname":"Ashbourne Rd &amp; Rolling Green Rd"},{"lng":-75.101146,"lat":40.061951,"stopid":22740,"stopname":"Ashbourne Rd &amp; Waltham Rd"},{"lng":-75.100035,"lat":40.061903,"stopid":22741,"stopname":"Ashbourne Rd &amp; Oak Hill Dr"},{"lng":-75.09869,"lat":40.061123,"stopid":22742,"stopname":"Ashbourne Rd &amp; Foster Rd"},{"lng":-75.097217,"lat":40.060048,"stopid":22743,"stopname":"Ashbourne Rd &amp; Rowland Av"},{"lng":-75.095787,"lat":40.059804,"stopid":22744,"stopname":"Central Av &amp; Ashbourne Rd - FS"},{"lng":-75.094385,"lat":40.061174,"stopid":22745,"stopname":"Central Av &amp; Laurel Av"},{"lng":-75.09347,"lat":40.0621,"stopid":22746,"stopname":"Central Av &amp; Myrtle Av"},{"lng":-75.09265,"lat":40.062892,"stopid":22747,"stopname":"Central Av &amp; Franklin Av"},{"lng":-75.091889,"lat":40.06364,"stopid":22748,"stopname":"Central Av &amp; Beecher Av"},{"lng":-75.091117,"lat":40.064406,"stopid":22749,"stopname":"Central Av &amp; Jefferson Av"},{"lng":-75.090487,"lat":40.065082,"stopid":22750,"stopname":"Central Av &amp; Cottman Av"},{"lng":-75.056525,"lat":40.045636,"stopid":22751,"stopname":"Cottman Av &amp; Rupert St"},{"lng":-75.052127,"lat":40.043124,"stopid":22752,"stopname":"Cottman Av &amp; Brous Av - FS"},{"lng":-75.050772,"lat":40.042352,"stopid":22753,"stopname":"Cottman Av &amp; Battersby St"},{"lng":-75.045962,"lat":40.039597,"stopid":22754,"stopname":"Cottman Av &amp; Rowland Av"},{"lng":-75.044359,"lat":40.038691,"stopid":22755,"stopname":"Cottman Av &amp; Crispin St"},{"lng":-75.041153,"lat":40.036878,"stopid":22756,"stopname":"Cottman Av &amp; Frankford Av"},{"lng":-75.039599,"lat":40.035426,"stopid":22757,"stopname":"Cottman Av &amp; Erdrick St"},{"lng":-75.038755,"lat":40.034416,"stopid":22758,"stopname":"Cottman Av &amp; Walker St"},{"lng":-75.037897,"lat":40.033361,"stopid":22774,"stopname":"Cottman Av &amp; Cottage St"},{"lng":-75.037027,"lat":40.032277,"stopid":22775,"stopname":"Cottman Av &amp; Jackson St"},{"lng":-75.014182,"lat":40.039425,"stopid":22776,"stopname":"Ashburner St &amp; Hegerman St"},{"lng":-75.015288,"lat":40.040312,"stopid":22777,"stopname":"Ashburner St &amp; Torresdale Av"},{"lng":-75.011432,"lat":40.042629,"stopid":22778,"stopname":"Torresdale Av &amp; Strahle St"},{"lng":-75.009628,"lat":40.043819,"stopid":22779,"stopname":"Torresdale Av &amp; Pennypack St"},{"lng":-75.007871,"lat":40.044991,"stopid":22780,"stopname":"Torresdale Av &amp; Megargee St"},{"lng":-75.004796,"lat":40.047043,"stopid":22781,"stopname":"Torresdale Av &amp; Tolbut St"},{"lng":-75,"lat":40.050248,"stopid":22782,"stopname":"Torresdale Av &amp; Linden Av"},{"lng":-75.000797,"lat":40.051313,"stopid":22783,"stopname":"Linden Av &amp; Ditman St - MBNS"},{"lng":-75.002232,"lat":40.052585,"stopid":22784,"stopname":"Linden Av &amp; Jackson St"},{"lng":-75.003456,"lat":40.053661,"stopid":22785,"stopname":"Linden Av &amp; Cottage St"},{"lng":-75.001257,"lat":40.051538,"stopid":22786,"stopname":"Linden Av &amp; Ditman St"},{"lng":-75.003492,"lat":40.053518,"stopid":22787,"stopname":"Linden Av &amp; Cottage St - FS"},{"lng":-75.002469,"lat":40.052622,"stopid":22788,"stopname":"Linden Av &amp; Jackson St"},{"lng":-75.000022,"lat":40.050436,"stopid":22789,"stopname":"Linden Av &amp; Torresdale Av"},{"lng":-75.004997,"lat":40.047079,"stopid":22790,"stopname":"Torresdale Av &amp; Tolbut St - FS"},{"lng":-75.009603,"lat":40.044015,"stopid":22791,"stopname":"Torresdale Av &amp; Pennypack St"},{"lng":-75.011395,"lat":40.042816,"stopid":22792,"stopname":"Torresdale Av &amp; Strahle St"},{"lng":-75.013259,"lat":40.041582,"stopid":22793,"stopname":"Torresdale Av &amp; Blakiston St"},{"lng":-75.015324,"lat":40.040178,"stopid":22794,"stopname":"Ashburner St &amp; Torresdale Av - FS"},{"lng":-75.012128,"lat":40.036705,"stopid":22795,"stopname":"State Rd &amp; Ashburner St - FS"},{"lng":-75.02878,"lat":40.027432,"stopid":22796,"stopname":"State Rd &amp; Bleigh Av"},{"lng":-75.031508,"lat":40.025816,"stopid":22797,"stopname":"State Rd &amp; Cottman Av"},{"lng":-75.036792,"lat":40.032241,"stopid":22799,"stopname":"Cottman Av &amp; Jackson St"},{"lng":-75.037649,"lat":40.033297,"stopid":22800,"stopname":"Cottman Av &amp; Cottage St"},{"lng":-75.038518,"lat":40.034353,"stopid":22801,"stopname":"Cottman Av &amp; Walker St"},{"lng":-75.039352,"lat":40.035391,"stopid":22802,"stopname":"Cottman Av &amp; Erdrick St"},{"lng":-75.044075,"lat":40.038663,"stopid":22803,"stopname":"Cottman Av &amp; Crispin St"},{"lng":-75.048908,"lat":40.041445,"stopid":22804,"stopname":"Cottman Av &amp; Hawthorne St"},{"lng":-75.050511,"lat":40.042369,"stopid":22805,"stopname":"Cottman Av &amp; Battersby St"},{"lng":-75.077889,"lat":40.058068,"stopid":22807,"stopname":"Cottman Av &amp; Dungan Rd"},{"lng":-75.086475,"lat":40.063099,"stopid":22808,"stopname":"Cottman Av &amp; Rockwell Av"},{"lng":-75.087808,"lat":40.063852,"stopid":22809,"stopname":"Cottman Av &amp; Shelbourne St"},{"lng":-75.088657,"lat":40.064354,"stopid":22810,"stopname":"Cottman Av &amp; Hasbrook Av"},{"lng":-75.09114,"lat":40.064602,"stopid":22811,"stopname":"Central Av &amp; Jefferson Av"},{"lng":-75.091912,"lat":40.063836,"stopid":22812,"stopname":"Central Av &amp; Beecher Av"},{"lng":-75.092673,"lat":40.063089,"stopid":22813,"stopname":"Central Av &amp; Franklin Av"},{"lng":-75.093433,"lat":40.062314,"stopid":22814,"stopname":"Central Av &amp; Myrtle Av"},{"lng":-75.094407,"lat":40.061371,"stopid":22815,"stopname":"Central Av &amp; Laurel Av"},{"lng":-75.095572,"lat":40.060214,"stopid":22816,"stopname":"Central Av &amp; Tookany Creek Pkwy"},{"lng":-75.096956,"lat":40.060066,"stopid":22817,"stopname":"Ashbourne Rd &amp; Rowland Av"},{"lng":-75.098446,"lat":40.061109,"stopid":22818,"stopname":"Ashbourne Rd &amp; Foster Rd"},{"lng":-75.099467,"lat":40.061857,"stopid":22819,"stopname":"Ashbourne Rd &amp; Oak Hill Dr"},{"lng":-75.100968,"lat":40.062066,"stopid":22820,"stopname":"Ashbourne Rd &amp; Waltham Rd"},{"lng":-75.102884,"lat":40.062187,"stopid":22821,"stopname":"Ashbourne Rd &amp; Rolling Green Rd"},{"lng":-75.105227,"lat":40.061388,"stopid":22822,"stopname":"Ashbourne Rd &amp; Croyden Rd - FS"},{"lng":-75.105908,"lat":40.060706,"stopid":22823,"stopname":"Ashbourne Rd &amp; Boyer Rd - FS"},{"lng":-75.106679,"lat":40.05993,"stopid":22824,"stopname":"Ashbourne Rd &amp; Arbor Rd"},{"lng":-75.113145,"lat":40.060527,"stopid":22825,"stopname":"Oak Ln Rd &amp; Coventry Av"},{"lng":-75.117306,"lat":40.05844,"stopid":22827,"stopname":"Oak Ln Rd &amp; Parkview Rd"},{"lng":-75.119225,"lat":40.057516,"stopid":22828,"stopname":"Oak Ln Rd &amp; Barclay Rd"},{"lng":-75.121335,"lat":40.056468,"stopid":22829,"stopname":"Oak Ln Rd &amp; New 2nd St"},{"lng":-75.122532,"lat":40.055954,"stopid":22830,"stopname":"Oak Ln Rd &amp; Asbury Av"},{"lng":-75.126442,"lat":40.054132,"stopid":22831,"stopname":"Oak Ln Rd &amp; 5th St"},{"lng":-75.126859,"lat":40.053385,"stopid":22832,"stopname":"5th St &amp; 67th Av"},{"lng":-75.127209,"lat":40.051815,"stopid":22833,"stopname":"5th St &amp; 66th Av"},{"lng":-75.127546,"lat":40.050289,"stopid":22834,"stopname":"5th St &amp; 65th Av"},{"lng":-75.127835,"lat":40.049005,"stopid":22835,"stopname":"5th St &amp; 64th Av"},{"lng":-75.128221,"lat":40.047265,"stopid":22836,"stopname":"5th St &amp; Chelten Av"},{"lng":-75.08762,"lat":40.063602,"stopid":23755,"stopname":"Cottman Av &amp; Hasbrook Av"},{"lng":-75.134588,"lat":40.046093,"stopid":24123,"stopname":"Godfrey Av &amp; Franklin St - MBNS"},{"lng":-75.0867,"lat":40.06309,"stopid":25540,"stopname":"Cottman Av &amp; Rockwell Av"},{"lng":-75.121608,"lat":40.056183,"stopid":26381,"stopname":"Oak Ln &amp; New 2nd St"},{"lng":-75.113146,"lat":40.060375,"stopid":26382,"stopname":"Oak Ln &amp; Coventry Rd"},{"lng":-75.042686,"lat":40.037704,"stopid":26383,"stopname":"Cottman Av &amp; Leon St"},{"lng":-75.025911,"lat":40.028878,"stopid":26386,"stopname":"State Rd &amp; Bleigh Av - MBFS"},{"lng":-75.013343,"lat":40.041359,"stopid":26390,"stopname":"Torresdale Av &amp; Blakiston St"},{"lng":-75.007822,"lat":40.045178,"stopid":26501,"stopname":"Torresdale Av &amp; Megargee St"},{"lng":-75.024131,"lat":40.030023,"stopid":26502,"stopname":"State Rd &amp; Rhawn St - MBFS"},{"lng":-75.026633,"lat":40.028639,"stopid":26503,"stopname":"State Rd &amp; Bleigh Av - MBNS"},{"lng":-75.042402,"lat":40.037739,"stopid":26504,"stopname":"Cottman Av &amp; Leon St"},{"lng":-75.10422,"lat":40.062146,"stopid":26505,"stopname":"Ashbourne Rd &amp; Jenkintown Rd"},{"lng":-75.111106,"lat":40.061744,"stopid":26506,"stopname":"Oak Ln Rd &amp; Ashbourne Rd - FS"},{"lng":-75.112125,"lat":40.061122,"stopid":26507,"stopname":"Oak Ln Rd &amp; Brookfield Rd"},{"lng":-75.114959,"lat":40.059576,"stopid":26508,"stopname":"Oak Ln Rd &amp; Barclay Cir"},{"lng":-75.015557,"lat":40.034637,"stopid":30985,"stopname":"State Rd &amp; Ashburner St - MBNS"},{"lng":-75.052126,"lat":40.043284,"stopid":30986,"stopname":"Cottman Av &amp; Brous Av"},{"lng":-75.041235,"lat":40.037048,"stopid":31379,"stopname":"Cottman Av &amp; Frankford Av - FS"},{"lng":-75.128261,"lat":40.046248,"stopid":31433,"stopname":"5th St &amp; Medary Av"},{"lng":-75.12673,"lat":40.053215,"stopid":32102,"stopname":"5th St &amp; 67th St"}]