[{"lng":-75.099458,"lat":39.984253,"stopid":341,"stopname":"Richmond St &amp; Westmoreland St Loop"},{"lng":-75.073651,"lat":39.997159,"stopid":485,"stopname":"Richmond St &amp; Orthodox St"},{"lng":-75.070592,"lat":40.013341,"stopid":487,"stopname":"Bridge St &amp; Torresdale Av"},{"lng":-75.073614,"lat":39.997338,"stopid":488,"stopname":"Orthodox St &amp; Richmond St"},{"lng":-75.067151,"lat":40.004308,"stopid":1032,"stopname":"Bridge St &amp; Thompson St"},{"lng":-75.067376,"lat":40.004237,"stopid":1036,"stopname":"Thompson St &amp; Bridge St - FS"},{"lng":-75.099116,"lat":39.984243,"stopid":1037,"stopname":"Richmond St &amp; Westmoreland St - FS"},{"lng":-75.070368,"lat":40.013144,"stopid":1246,"stopname":"Bridge St &amp; Torresdale Av"},{"lng":-75.092069,"lat":39.987883,"stopid":1250,"stopname":"Richmond St &amp; Venango St"},{"lng":-75.092129,"lat":39.987732,"stopid":1266,"stopname":"Richmond St &amp; Venango St"},{"lng":-75.070776,"lat":40.014305,"stopid":15774,"stopname":"Bridge St &amp; Ditman St"},{"lng":-75.071371,"lat":40.015869,"stopid":15776,"stopname":"Bridge St &amp; Jackson St"},{"lng":-75.071756,"lat":40.016905,"stopid":15777,"stopname":"Bridge St &amp; Cottage St"},{"lng":-75.072083,"lat":40.017772,"stopid":15780,"stopname":"Bridge St &amp; Walker St"},{"lng":-75.072351,"lat":40.01846,"stopid":15781,"stopname":"Bridge St &amp; Erdrick St - FS"},{"lng":-75.073267,"lat":40.019623,"stopid":15783,"stopname":"Bridge St &amp; Charles St"},{"lng":-75.074325,"lat":40.020875,"stopid":15785,"stopname":"Bridge St &amp; Hawthorne St"},{"lng":-75.074889,"lat":40.021511,"stopid":15787,"stopname":"Bridge St &amp; Duffield St"},{"lng":-75.07596,"lat":40.022513,"stopid":15788,"stopname":"Bridge St &amp; Darrah St"},{"lng":-75.076161,"lat":40.022541,"stopid":15803,"stopname":"Bridge St &amp; Darrah St"},{"lng":-75.075102,"lat":40.021547,"stopid":15804,"stopname":"Bridge St &amp; Duffield St"},{"lng":-75.074432,"lat":40.020786,"stopid":15805,"stopname":"Bridge St &amp; Hawthorne St - FS"},{"lng":-75.073492,"lat":40.019668,"stopid":15806,"stopname":"Bridge St &amp; Charles St"},{"lng":-75.072377,"lat":40.018094,"stopid":15807,"stopname":"Bridge St &amp; Edrick St - FS"},{"lng":-75.071945,"lat":40.016995,"stopid":15808,"stopname":"Bridge St &amp; Cottage St"},{"lng":-75.071548,"lat":40.015967,"stopid":15809,"stopname":"Bridge St &amp; Jackson St"},{"lng":-75.070965,"lat":40.014395,"stopid":15810,"stopname":"Bridge St &amp; Dittman St"},{"lng":-75.077018,"lat":40.023659,"stopid":21968,"stopname":"Frankford Transportation Center - R"},{"lng":-75.06995,"lat":40.011706,"stopid":22472,"stopname":"Bridge St &amp; Harbison Av"},{"lng":-75.069404,"lat":40.009785,"stopid":22473,"stopname":"Bridge St &amp; Eadom St - FS"},{"lng":-75.069295,"lat":40.010365,"stopid":22721,"stopname":"Bridge St &amp; Eadom St - FS"},{"lng":-75.069937,"lat":40.011991,"stopid":22722,"stopname":"Bridge St &amp; Tulip St - FS"},{"lng":-75.069134,"lat":40.002519,"stopid":23778,"stopname":"Thompson St &amp; Ash St"},{"lng":-75.070603,"lat":40.001711,"stopid":23779,"stopname":"Thompson St &amp; Buckius St"},{"lng":-75.072511,"lat":40.000708,"stopid":23780,"stopname":"Thompson St &amp; Lefevre St"},{"lng":-75.0752,"lat":39.999315,"stopid":23781,"stopname":"Thompson St &amp; Orthodox St"},{"lng":-75.074776,"lat":39.996725,"stopid":23782,"stopname":"Richmond St &amp; Sellers St"},{"lng":-75.076375,"lat":39.995891,"stopid":23783,"stopname":"Richmond St &amp; Hedley St"},{"lng":-75.077536,"lat":39.995296,"stopid":23784,"stopname":"Richmond St &amp; Alresford St"},{"lng":-75.078756,"lat":39.994719,"stopid":23785,"stopname":"Richmond St &amp; Berkshire St"},{"lng":-75.081883,"lat":39.993095,"stopid":23786,"stopname":"Richmond St &amp; Lewis St - FS"},{"lng":-75.083115,"lat":39.992455,"stopid":23787,"stopname":"Richmond St &amp; Luzerne St"},{"lng":-75.08514,"lat":39.991417,"stopid":23788,"stopname":"Richmond St &amp; Wheatsheaf Ln"},{"lng":-75.087355,"lat":39.990298,"stopid":23789,"stopname":"Richmond St &amp; Butler St - FS"},{"lng":-75.089606,"lat":39.989135,"stopid":23790,"stopname":"Richmond St &amp; Castor Av"},{"lng":-75.09439,"lat":39.986703,"stopid":23791,"stopname":"Richmond St &amp; Tioga St"},{"lng":-75.096688,"lat":39.985522,"stopid":23792,"stopname":"Richmond St &amp; Ontario St"},{"lng":-75.096558,"lat":39.985459,"stopid":23793,"stopname":"Richmond St &amp; Ontario St - FS"},{"lng":-75.094438,"lat":39.98656,"stopid":23794,"stopname":"Richmond St &amp; Tioga St"},{"lng":-75.089665,"lat":39.988984,"stopid":23795,"stopname":"Richmond St &amp; Castor Av"},{"lng":-75.0852,"lat":39.991265,"stopid":23796,"stopname":"Richmond St &amp; Wheatsheaf Ln"},{"lng":-75.083175,"lat":39.992304,"stopid":23797,"stopname":"Richmond St &amp; Luzerne St"},{"lng":-75.081753,"lat":39.993032,"stopid":23798,"stopname":"Richmond St &amp; Lewis St"},{"lng":-75.078555,"lat":39.994629,"stopid":23799,"stopname":"Richmond St &amp; Berkshire St - FS"},{"lng":-75.077596,"lat":39.995144,"stopid":23800,"stopname":"Richmond St &amp; Alresford St"},{"lng":-75.076506,"lat":39.995677,"stopid":23801,"stopname":"Richmond St &amp; Hedley St"},{"lng":-75.074835,"lat":39.996574,"stopid":23802,"stopname":"Richmond St &amp; Sellers St"},{"lng":-75.071044,"lat":39.998517,"stopid":23804,"stopname":"Richmond St &amp; Lefevre St"},{"lng":-75.069101,"lat":39.999503,"stopid":23805,"stopname":"Richmond St &amp; Buckius St"},{"lng":-75.067407,"lat":40.000381,"stopid":23806,"stopname":"Richmond St &amp; Ash St"},{"lng":-75.06608,"lat":40.001047,"stopid":23807,"stopname":"Richmond St &amp; Kirkbride St"},{"lng":-75.064348,"lat":40.002452,"stopid":23808,"stopname":"Richmond St &amp; Bridge St"},{"lng":-75.065691,"lat":40.003348,"stopid":23809,"stopname":"Bridge St &amp; Salmon St"},{"lng":-75.074284,"lat":39.998089,"stopid":24018,"stopname":"Orthodox St &amp; Salmon St"},{"lng":-75.087202,"lat":39.990253,"stopid":24108,"stopname":"Richmond St &amp; Butler St"},{"lng":-75.068494,"lat":40.007435,"stopid":27410,"stopname":"Bridge St &amp; Almond St - FS"},{"lng":-75.076475,"lat":40.023434,"stopid":30388,"stopname":"Frankford Av &amp; Bridge St - FS"},{"lng":-75.075405,"lat":40.027072,"stopid":30389,"stopname":"Cheltenham Av &amp; Bustleton Av"},{"lng":-75.068427,"lat":40.006775,"stopid":31746,"stopname":"Bridge St &amp; Ramsay Rd - FS south of"},{"lng":-75.068772,"lat":40.00857,"stopid":31747,"stopname":"Bridge St &amp; Tacony St"}]