[{"lng":-75.20797,"lat":40.076831,"stopid":250,"stopname":"Germantown Av &amp; Bethlehem Pk - FS"},{"lng":-75.183017,"lat":40.088379,"stopid":367,"stopname":"Willow Grove Av &amp; Cheltenham Av"},{"lng":-75.172709,"lat":40.082565,"stopid":368,"stopname":"Cheltenham Av &amp; Gowen Av"},{"lng":-75.171196,"lat":40.082232,"stopid":385,"stopname":"Easton Rd &amp; Cheltenham Av - FS"},{"lng":-75.083657,"lat":40.061288,"stopid":1008,"stopname":"Cottman Av &amp; Oxford Av"},{"lng":-75.071664,"lat":40.05432,"stopid":1009,"stopname":"Cottman Av &amp; Summerdale Av"},{"lng":-75.054791,"lat":40.044667,"stopid":1013,"stopname":"Cottman Av &amp; Roosevelt Blvd"},{"lng":-75.060131,"lat":40.047896,"stopid":1024,"stopname":"Cottman Av &amp; Bustleton Av - FS"},{"lng":-75.067618,"lat":40.052166,"stopid":1025,"stopname":"Cottman Av &amp; Loretto Av"},{"lng":-75.076887,"lat":40.057512,"stopid":1027,"stopname":"Cottman Av &amp; Whitaker Av - FS"},{"lng":-75.083397,"lat":40.061287,"stopid":1028,"stopname":"Cottman Av &amp; Oxford Av"},{"lng":-75.197522,"lat":40.073858,"stopid":1051,"stopname":"Willow Grove Av &amp; Wyndmoor St - FS"},{"lng":-75.153486,"lat":40.100483,"stopid":1052,"stopname":"Easton Rd &amp; Glenside Av"},{"lng":-75.136646,"lat":40.092099,"stopid":1053,"stopname":"Township Line Rd &amp; Greenwood Av - F"},{"lng":-75.116874,"lat":40.081404,"stopid":1055,"stopname":"Cadwalader Av &amp; Township Line Rd"},{"lng":-75.060179,"lat":40.04778,"stopid":1056,"stopname":"Cottman Av &amp; Bustleton Av"},{"lng":-75.055653,"lat":40.042634,"stopid":1058,"stopname":"St Vincent St &amp; Roosevelt Blvd"},{"lng":-75.11678,"lat":40.081234,"stopid":1060,"stopname":"Township Line Rd &amp; Cadwalader Av"},{"lng":-75.138325,"lat":40.092353,"stopid":1063,"stopname":"Greenwood Av &amp; Gelenside Av"},{"lng":-75.153309,"lat":40.100581,"stopid":1064,"stopname":"Glenside Av &amp; Easton Rd"},{"lng":-75.19751,"lat":40.07409,"stopid":1066,"stopname":"Willow Grove Av &amp; Wyndmoor Station"},{"lng":-75.073421,"lat":40.055333,"stopid":6423,"stopname":"Cottman Av &amp; Algon Av"},{"lng":-75.0821,"lat":40.060391,"stopid":6426,"stopname":"Cottman Av &amp; Bingham St - FS"},{"lng":-75.069612,"lat":40.053162,"stopid":6446,"stopname":"Cottman Av &amp; Frontenac St - FS"},{"lng":-75.057762,"lat":40.046514,"stopid":6447,"stopname":"Cottman Av &amp; Hanford St - FS"},{"lng":-75.088622,"lat":40.064193,"stopid":6451,"stopname":"Cottman Av &amp; Hasbrook Av - FS"},{"lng":-75.062301,"lat":40.049134,"stopid":6454,"stopname":"Cottman Av &amp; Horrocks St"},{"lng":-75.067879,"lat":40.052149,"stopid":6461,"stopname":"Cottman Av &amp; Loretto Av"},{"lng":-75.078503,"lat":40.058302,"stopid":6463,"stopname":"Cottman Av &amp; Montour St - FS"},{"lng":-75.075178,"lat":40.056373,"stopid":6467,"stopname":"Cottman Av &amp; Pennway St"},{"lng":-75.056264,"lat":40.045653,"stopid":6478,"stopname":"Cottman Av &amp; Rupert St"},{"lng":-75.07138,"lat":40.054319,"stopid":6484,"stopname":"Cottman Av &amp; Glendale Av"},{"lng":-75.168726,"lat":40.084762,"stopid":6936,"stopname":"Easton Rd &amp; 309 - MBNS"},{"lng":-75.138586,"lat":40.092238,"stopid":8159,"stopname":"Greenwood Av &amp; Glenside Av - FS"},{"lng":-75.150236,"lat":40.099422,"stopid":8164,"stopname":"Glenside Av &amp; Keswick Av"},{"lng":-75.141863,"lat":40.095217,"stopid":8165,"stopname":"Glenside Av &amp; Hewett Rd"},{"lng":-75.146291,"lat":40.097762,"stopid":8168,"stopname":"Glenside Av &amp; Rices Mill Rd"},{"lng":-75.116457,"lat":40.087525,"stopid":8928,"stopname":"Jenkintown Rd &amp; Hillcrest"},{"lng":-75.126504,"lat":40.089897,"stopid":11334,"stopname":"Old York Rd &amp; Pavilion Dr"},{"lng":-75.112227,"lat":40.078134,"stopid":13795,"stopname":"Township Line Rd &amp; Cedar Rd"},{"lng":-75.098435,"lat":40.070182,"stopid":13798,"stopname":"Township Line Rd &amp; Church Rd"},{"lng":-75.100216,"lat":40.071266,"stopid":13806,"stopname":"Township Line Rd &amp; Perry St - MBNS"},{"lng":-75.114823,"lat":40.079667,"stopid":13811,"stopname":"Township Line Rd &amp; High School Rd"},{"lng":-75.110293,"lat":40.07688,"stopid":13821,"stopname":"Township Line Rd &amp; New 2nd St"},{"lng":-75.106894,"lat":40.075149,"stopid":13830,"stopname":"Township Line &amp; Valley Glen Rd - FS"},{"lng":-75.16631,"lat":40.082258,"stopid":15420,"stopname":"Cedarbrook Plaza Stop - 3"},{"lng":-75.170294,"lat":40.082926,"stopid":15421,"stopname":"Cedarbrook Plaza Stop - 6"},{"lng":-75.206529,"lat":40.076016,"stopid":15427,"stopname":"Germantown Av &amp; Highland Av"},{"lng":-75.20503,"lat":40.075121,"stopid":15429,"stopname":"Germantown Av &amp; Gravers Ln"},{"lng":-75.203719,"lat":40.074333,"stopid":15430,"stopname":"Germantown Av &amp; Southampton Av"},{"lng":-75.202764,"lat":40.073252,"stopid":15433,"stopname":"Germantown Av &amp; Hartwell Ln"},{"lng":-75.201881,"lat":40.072009,"stopid":15434,"stopname":"Germantown Av &amp; Abington Av"},{"lng":-75.201092,"lat":40.070982,"stopid":15435,"stopname":"Germantown Av &amp; Willow Grove Av"},{"lng":-75.156741,"lat":40.097214,"stopid":15538,"stopname":"Easton Rd &amp; Toxony Av"},{"lng":-75.155423,"lat":40.09855,"stopid":15539,"stopname":"Easton Rd &amp; Waverly Rd"},{"lng":-75.154484,"lat":40.099476,"stopid":15540,"stopname":"Easton Rd &amp; Wesley Av"},{"lng":-75.127161,"lat":40.088391,"stopid":16632,"stopname":"Old York Rd &amp; Lenox Rd"},{"lng":-75.125595,"lat":40.094938,"stopid":16635,"stopname":"Old York Rd &amp; Greenwood Av"},{"lng":-75.15446,"lat":40.099717,"stopid":16745,"stopname":"Easton Rd &amp; Wesley Av"},{"lng":-75.155268,"lat":40.098898,"stopid":16746,"stopname":"Easton Rd &amp; Wavlerly Rd"},{"lng":-75.159152,"lat":40.095051,"stopid":16903,"stopname":"Easton Rd &amp; Royal Av - FS"},{"lng":-75.158689,"lat":40.095308,"stopid":16938,"stopname":"Easton Rd &amp; Royal Av - FS"},{"lng":-75.157014,"lat":40.097161,"stopid":16956,"stopname":"Easton Rd &amp; Toxony Av - FS"},{"lng":-75.158023,"lat":40.096173,"stopid":16957,"stopname":"Easton Rd &amp; Springhouse Ln"},{"lng":-75.199255,"lat":40.07213,"stopid":17145,"stopname":"Willow Grove Av &amp; Winston Rd"},{"lng":-75.196419,"lat":40.074963,"stopid":17146,"stopname":"Willow Grove Av &amp; Crittenden St"},{"lng":-75.195066,"lat":40.076317,"stopid":17147,"stopname":"Willow Grove Av &amp; Stenton Av"},{"lng":-75.19357,"lat":40.077804,"stopid":17148,"stopname":"Willow Grove Av &amp; Pine Rd"},{"lng":-75.192253,"lat":40.079114,"stopid":17149,"stopname":"Willow Grove Av &amp; Ardmore Av"},{"lng":-75.190069,"lat":40.081082,"stopid":17150,"stopname":"Willow Grove Av &amp; Flourtown Av"},{"lng":-75.189179,"lat":40.081955,"stopid":17151,"stopname":"Willow Grove Av &amp; Traymore Av"},{"lng":-75.187209,"lat":40.083897,"stopid":17152,"stopname":"Willow Grove Av &amp; Queen St"},{"lng":-75.185452,"lat":40.085634,"stopid":17153,"stopname":"Willow Grove Av &amp; Douglas Rd"},{"lng":-75.181222,"lat":40.087536,"stopid":17154,"stopname":"Cheltenham Av &amp; Pleasant St"},{"lng":-75.180691,"lat":40.087053,"stopid":17155,"stopname":"Cheltenham Av &amp; Firethorn Ln"},{"lng":-75.175992,"lat":40.084304,"stopid":17156,"stopname":"Cheltenham Av &amp; Woodbrook Ln"},{"lng":-75.161991,"lat":40.09187,"stopid":17446,"stopname":"Easton Rd &amp; Limeklin Pk"},{"lng":-75.148288,"lat":40.098463,"stopid":17449,"stopname":"Glenside Av &amp; Stanley Av"},{"lng":-75.131889,"lat":40.089348,"stopid":17451,"stopname":"Township Line Rd &amp; Washington Ln"},{"lng":-75.125452,"lat":40.092448,"stopid":17456,"stopname":"Old York Rd &amp; Washington Ln"},{"lng":-75.119412,"lat":40.090871,"stopid":17458,"stopname":"Jenkintown Rd &amp; Meetinghouse Rd - F"},{"lng":-75.116705,"lat":40.08758,"stopid":17488,"stopname":"Jenkintown Rd &amp; Holmcrest Rd"},{"lng":-75.114787,"lat":40.085281,"stopid":17490,"stopname":"Jenkintown Rd &amp; Forrest Av - FS"},{"lng":-75.114058,"lat":40.084128,"stopid":17492,"stopname":"Jenkintown Rd &amp; Tulpehocken Av"},{"lng":-75.113695,"lat":40.083306,"stopid":17493,"stopname":"Jenkintown Rd &amp; Cadwalader Av"},{"lng":-75.116399,"lat":40.081858,"stopid":17494,"stopname":"Cadwalader Av &amp; Cypress Av"},{"lng":-75.112476,"lat":40.078126,"stopid":17496,"stopname":"Township Line Rd &amp; Cedar Rd"},{"lng":-75.098695,"lat":40.070183,"stopid":17497,"stopname":"Township Line Rd &amp; Church Rd"},{"lng":-75.084931,"lat":40.062059,"stopid":17498,"stopname":"Cottman Av &amp; Oakley St"},{"lng":-75.080673,"lat":40.059548,"stopid":17501,"stopname":"Cottman Av &amp; Tabor Av"},{"lng":-75.079801,"lat":40.059037,"stopid":17503,"stopname":"Cottman Av &amp; Claridge St"},{"lng":-75.066275,"lat":40.051243,"stopid":17506,"stopname":"Cottman Av &amp; Castor Av"},{"lng":-75.064329,"lat":40.05013,"stopid":17507,"stopname":"Cottman Av &amp; Large St"},{"lng":-75.062561,"lat":40.049117,"stopid":17508,"stopname":"Cottman Av &amp; Horrocks St"},{"lng":-75.05788,"lat":40.046416,"stopid":17510,"stopname":"Cottman Av &amp; Hanford St"},{"lng":-75.053483,"lat":40.043877,"stopid":17513,"stopname":"Cottman Av &amp; Revere St"},{"lng":-75.054781,"lat":40.042132,"stopid":17515,"stopname":"Revere St &amp; Saint Vincent St"},{"lng":-75.173666,"lat":40.08296,"stopid":17597,"stopname":"Cheltenham Av &amp; Elaine St"},{"lng":-75.173028,"lat":40.082584,"stopid":17598,"stopname":"Cheltenham Av &amp; Gowan Av"},{"lng":-75.064069,"lat":40.050147,"stopid":17683,"stopname":"Cottman Av &amp; Large St"},{"lng":-75.065873,"lat":40.05117,"stopid":17686,"stopname":"Cottman Av &amp; Castor Av"},{"lng":-75.069611,"lat":40.053305,"stopid":17689,"stopname":"Cottman Av &amp; Frontenac St"},{"lng":-75.073137,"lat":40.055341,"stopid":17690,"stopname":"Cottman Av &amp; Algon St"},{"lng":-75.074918,"lat":40.056391,"stopid":17691,"stopname":"Cottman Av &amp; Pennway St"},{"lng":-75.079517,"lat":40.059036,"stopid":17694,"stopname":"Cottman Av &amp; Claridge St"},{"lng":-75.080637,"lat":40.059682,"stopid":17695,"stopname":"Cottman Av &amp; Tabor Av - FS"},{"lng":-75.08217,"lat":40.06057,"stopid":17696,"stopname":"Cottman Av &amp; Bingham St"},{"lng":-75.084246,"lat":40.061798,"stopid":17697,"stopname":"Cottman Av &amp; Rising Sun Av - FS"},{"lng":-75.0894,"lat":40.064794,"stopid":17700,"stopname":"Cottman Av &amp; Ryers Av"},{"lng":-75.09426,"lat":40.067636,"stopid":17719,"stopname":"Township Line Rd &amp; Grove Av - MBFS"},{"lng":-75.110103,"lat":40.076942,"stopid":17721,"stopname":"Township Line Rd &amp; New 2nd St"},{"lng":-75.116435,"lat":40.081644,"stopid":17723,"stopname":"Cadwalader Av &amp; Cypress Av"},{"lng":-75.12797,"lat":40.087268,"stopid":17727,"stopname":"Old York Rd &amp; Township Line Rd"},{"lng":-75.130555,"lat":40.088711,"stopid":17729,"stopname":"Township Line Rd &amp; Washington - MBN"},{"lng":-75.143433,"lat":40.096372,"stopid":17732,"stopname":"Glenside Av &amp; North Av"},{"lng":-75.145652,"lat":40.097645,"stopid":17733,"stopname":"Glenside Av &amp; Rices Mill Rd"},{"lng":-75.148051,"lat":40.098498,"stopid":17735,"stopname":"Glenside Av &amp; Stanley Av"},{"lng":-75.149882,"lat":40.099341,"stopid":17736,"stopname":"Glenside Av &amp; Keswick Av"},{"lng":-75.161836,"lat":40.092405,"stopid":17737,"stopname":"Easton Rd &amp; Limekiln Pk"},{"lng":-75.175743,"lat":40.084312,"stopid":17751,"stopname":"Cheltenham Av &amp; Woodbrook Ln"},{"lng":-75.180431,"lat":40.08707,"stopid":17753,"stopname":"Cheltenham Av &amp; Firethorn Ln"},{"lng":-75.189167,"lat":40.082179,"stopid":17759,"stopname":"Willow Grove Av &amp; Traymore Av"},{"lng":-75.190045,"lat":40.081305,"stopid":17760,"stopname":"Willow Grove Av &amp; Flourtown Av"},{"lng":-75.192216,"lat":40.079337,"stopid":17761,"stopname":"Willow Grove Av &amp; Ardmore Av"},{"lng":-75.193581,"lat":40.078001,"stopid":17762,"stopname":"Willow Grove Av &amp; Pine Rd"},{"lng":-75.194958,"lat":40.076674,"stopid":17763,"stopname":"Willow Grove Av &amp; Stenton Av"},{"lng":-75.196133,"lat":40.075462,"stopid":17765,"stopname":"Willow Grove Av &amp; Crittenden St"},{"lng":-75.199219,"lat":40.072379,"stopid":17766,"stopname":"Willow Grove Av &amp; Winston Rd"},{"lng":-75.201645,"lat":40.071929,"stopid":17770,"stopname":"Germantown Av &amp; Abington Av"},{"lng":-75.202528,"lat":40.073171,"stopid":17771,"stopname":"Germantown Av &amp; Hartwell Ln"},{"lng":-75.203318,"lat":40.074154,"stopid":17774,"stopname":"Germantown Av &amp; Southampton Av"},{"lng":-75.204746,"lat":40.075112,"stopid":17776,"stopname":"Germantown Av &amp; Gravers Ln"},{"lng":-75.206269,"lat":40.076025,"stopid":17777,"stopname":"Germantown Av &amp; Highland Av"},{"lng":-75.207178,"lat":40.076553,"stopid":17778,"stopname":"Germantown Av &amp; Evergreen Av"},{"lng":-75.113672,"lat":40.083136,"stopid":17779,"stopname":"Cadwalader Av &amp; Jenkintown Rd"},{"lng":-75.113834,"lat":40.08402,"stopid":17780,"stopname":"Jenkintown Rd &amp; Tulpehocken Av"},{"lng":-75.114703,"lat":40.085406,"stopid":17781,"stopname":"Jenkintown Rd &amp; Forrest Av"},{"lng":-75.200737,"lat":40.070883,"stopid":18548,"stopname":"Willow Grove Av &amp; Germantown Av"},{"lng":-75.089743,"lat":40.064866,"stopid":20620,"stopname":"Cottman Av &amp; Ryers Av"},{"lng":-75.169104,"lat":40.081683,"stopid":20850,"stopname":"Cedarbrook Plaza Stop - 1"},{"lng":-75.208298,"lat":40.077715,"stopid":21222,"stopname":"Chestnut Hill Loop"},{"lng":-75.076923,"lat":40.057369,"stopid":21268,"stopname":"Cottman Av &amp; Whitaker Av"},{"lng":-75.183302,"lat":40.088219,"stopid":21487,"stopname":"Willow Grove Av &amp; Cheltenham Av - F"},{"lng":-75.129883,"lat":40.088174,"stopid":21952,"stopname":"Township Line Rd &amp; Breyer Dr"},{"lng":-75.174894,"lat":40.08365,"stopid":21955,"stopname":"Cheltenham Av &amp; Roumfort Rd"},{"lng":-75.056525,"lat":40.045636,"stopid":22751,"stopname":"Cottman Av &amp; Rupert St"},{"lng":-75.077889,"lat":40.058068,"stopid":22807,"stopname":"Cottman Av &amp; Dungan Rd"},{"lng":-75.086475,"lat":40.063099,"stopid":22808,"stopname":"Cottman Av &amp; Rockwell Av"},{"lng":-75.087808,"lat":40.063852,"stopid":22809,"stopname":"Cottman Av &amp; Shelbourne St"},{"lng":-75.088657,"lat":40.064354,"stopid":22810,"stopname":"Cottman Av &amp; Hasbrook Av"},{"lng":-75.08762,"lat":40.063602,"stopid":23755,"stopname":"Cottman Av &amp; Hasbrook Av"},{"lng":-75.0867,"lat":40.06309,"stopid":25540,"stopname":"Cottman Av &amp; Rockwell Av"},{"lng":-75.105065,"lat":40.074126,"stopid":25950,"stopname":"Township Line Rd &amp; Holme Av"},{"lng":-75.1028,"lat":40.072799,"stopid":25962,"stopname":"Township Line Rd &amp; Susan Dr"},{"lng":-75.123574,"lat":40.094282,"stopid":25965,"stopname":"Greenwood Av &amp; Washington Ln"},{"lng":-75.125094,"lat":40.093116,"stopid":25966,"stopname":"Washington Ln &amp; York Rd"},{"lng":-75.129339,"lat":40.088057,"stopid":25967,"stopname":"Township Line Rd &amp; Breyer Dr"},{"lng":-75.133364,"lat":40.09036,"stopid":25968,"stopname":"Township Line Rd &amp; Mather Rd"},{"lng":-75.141556,"lat":40.095181,"stopid":25969,"stopname":"Glenside Av &amp; Hewett Rd"},{"lng":-75.1635,"lat":40.090142,"stopid":25971,"stopname":"Easton Rd &amp; HWY 309 - MBNS"},{"lng":-75.167782,"lat":40.080752,"stopid":25972,"stopname":"Cedarbrook Plaza Stop - 2"},{"lng":-75.165988,"lat":40.082926,"stopid":25973,"stopname":"Cedarbrook Plaza Stop - 4"},{"lng":-75.168398,"lat":40.083753,"stopid":25974,"stopname":"Cedarbrook Plaza Stop - 5"},{"lng":-75.178459,"lat":40.085924,"stopid":25975,"stopname":"Cheltenham Av &amp; Waverly Rd"},{"lng":-75.179403,"lat":40.086479,"stopid":25976,"stopname":"Cheltenham Av &amp; Hillcrest Rd"},{"lng":-75.186852,"lat":40.084477,"stopid":25977,"stopname":"Willow Grove Av &amp; Southampton Av"},{"lng":-75.181482,"lat":40.087519,"stopid":25999,"stopname":"Cheltenham Av &amp; Pleasant St"},{"lng":-75.178719,"lat":40.085907,"stopid":26000,"stopname":"Cheltenham Av &amp; Waverly Rd"},{"lng":-75.133624,"lat":40.090343,"stopid":26003,"stopname":"Township Line Rd &amp; Mather Rd"},{"lng":-75.124614,"lat":40.094677,"stopid":26004,"stopname":"Greenwood Av &amp; Nice Av"},{"lng":-75.122595,"lat":40.093583,"stopid":26005,"stopname":"Greenwood Av &amp; Washington Ln - MBFS"},{"lng":-75.11506,"lat":40.079694,"stopid":26006,"stopname":"Township Line Rd &amp; High School Rd"},{"lng":-75.105856,"lat":40.074369,"stopid":26007,"stopname":"Township Line Rd &amp; Holme Av - MBNS"},{"lng":-75.102812,"lat":40.072639,"stopid":26008,"stopname":"Township Line Rd &amp; Susan Dr - FS"},{"lng":-75.096985,"lat":40.069071,"stopid":26015,"stopname":"Township Line Rd &amp; Laurel Av"},{"lng":-75.100453,"lat":40.071249,"stopid":26041,"stopname":"Township Line Rd &amp; Perry St - MBFS"},{"lng":-75.093341,"lat":40.066937,"stopid":26042,"stopname":"Cottman Av &amp; Grove Av"},{"lng":-75.126668,"lat":40.090192,"stopid":30720,"stopname":"Old York Rd &amp; Wyncote Rd"},{"lng":-75.13975,"lat":40.094088,"stopid":30904,"stopname":"Glenside Av &amp; Glenview Av"},{"lng":-75.168855,"lat":40.085066,"stopid":30926,"stopname":"Easton Rd &amp; 309 Hwy - MBFS"},{"lng":-75.122016,"lat":40.093439,"stopid":31492,"stopname":"Greenwood Av &amp; Jenkintown Av - MBFS"},{"lng":-75.185416,"lat":40.085884,"stopid":31514,"stopname":"Willow Grove Av &amp; Douglas Rd"},{"lng":-75.20758,"lat":40.076643,"stopid":31612,"stopname":"Germantown Av &amp; Evergreen Av"}]