[{"lng":-75.113084,"lat":39.996774,"stopid":51,"stopname":"Kensington Av &amp; Allegheny Av"},{"lng":-75.084202,"lat":40.016869,"stopid":220,"stopname":"Arrott Transportation Center"},{"lng":-75.09472,"lat":39.994522,"stopid":483,"stopname":"Aramingo Av &amp; Castor Av"},{"lng":-75.094885,"lat":39.994594,"stopid":489,"stopname":"Aramingo Av &amp; Castor Av - FS"},{"lng":-75.132979,"lat":39.983319,"stopid":651,"stopname":"Susquehanna Av &amp; Hope St"},{"lng":-75.12206,"lat":39.975849,"stopid":685,"stopname":"York St &amp; Thompson St"},{"lng":-75.083895,"lat":40.016939,"stopid":892,"stopname":"Oxford Av &amp; Frankford Av"},{"lng":-75.112453,"lat":40.011213,"stopid":1131,"stopname":"G St &amp; Hunting Park Av - FS"},{"lng":-75.120832,"lat":39.975552,"stopid":1133,"stopname":"Aramingo Av &amp; Moyer St"},{"lng":-75.112131,"lat":40.011926,"stopid":1135,"stopname":"G St &amp; Hunting Park Av"},{"lng":-75.115353,"lat":39.996815,"stopid":3742,"stopname":"Allegheny Av &amp; G St"},{"lng":-75.135937,"lat":39.985236,"stopid":16321,"stopname":"Dauphin St &amp; Palethorp St"},{"lng":-75.135181,"lat":39.985136,"stopid":16322,"stopname":"Dauphin St &amp; Hancock St"},{"lng":-75.134272,"lat":39.985018,"stopid":16323,"stopname":"Dauphin St &amp; Mascher St"},{"lng":-75.134396,"lat":39.983528,"stopid":16358,"stopname":"Susquehanna Av &amp; Mascher St"},{"lng":-75.135306,"lat":39.983637,"stopid":16359,"stopname":"Susquehanna Av &amp; Hancock St"},{"lng":-75.136415,"lat":39.983773,"stopid":16360,"stopname":"Susquehanna Av &amp; 2nd St"},{"lng":-75.137655,"lat":39.983946,"stopid":16361,"stopname":"Susquehanna Av &amp; American St"},{"lng":-75.121182,"lat":40.006897,"stopid":17442,"stopname":"Erie Av &amp; B St - MBFS"},{"lng":-75.086195,"lat":40.017927,"stopid":17615,"stopname":"Arrott St &amp; Leiper St"},{"lng":-75.088446,"lat":40.01921,"stopid":17616,"stopname":"Arrott St &amp; Oakland St"},{"lng":-75.089602,"lat":40.019873,"stopid":17621,"stopname":"Arrott St &amp; Horrocks St"},{"lng":-75.091393,"lat":40.021029,"stopid":17622,"stopname":"Arrott St &amp; Large St"},{"lng":-75.093667,"lat":40.022517,"stopid":17623,"stopname":"Arrott St &amp; Castor Av"},{"lng":-75.094189,"lat":40.022233,"stopid":17624,"stopname":"Castor Av &amp;  Adams Av"},{"lng":-75.095903,"lat":40.019712,"stopid":17627,"stopname":"Castor Av &amp; Orthodox St"},{"lng":-75.137389,"lat":39.985391,"stopid":17630,"stopname":"American St &amp; Dauphin St"},{"lng":-75.097268,"lat":40.018332,"stopid":17631,"stopname":"Castor Av &amp; Wyoming Av"},{"lng":-75.097419,"lat":40.013825,"stopid":17634,"stopname":"Castor Av &amp; Wingohocking St"},{"lng":-75.09949,"lat":40.01334,"stopid":17636,"stopname":"M St &amp; Cayuga St - FS"},{"lng":-75.099743,"lat":40.012171,"stopid":17637,"stopname":"M St &amp; Bristol St"},{"lng":-75.100093,"lat":40.010646,"stopid":17638,"stopname":"M St &amp; Hunting Park Av"},{"lng":-75.102137,"lat":40.01083,"stopid":17639,"stopname":"Hunting Park Av &amp; L St"},{"lng":-75.104086,"lat":40.011085,"stopid":17640,"stopname":"Hunting Park Av &amp; K St"},{"lng":-75.105999,"lat":40.011331,"stopid":17641,"stopname":"Hunting Park Av &amp; J St"},{"lng":-75.10796,"lat":40.011594,"stopid":17642,"stopname":"Hunting Park Av &amp; I St"},{"lng":-75.109909,"lat":40.01184,"stopid":17643,"stopname":"Hunting Park Av &amp; H St"},{"lng":-75.112911,"lat":40.009108,"stopid":17645,"stopname":"G St &amp; Luzerne St"},{"lng":-75.113551,"lat":40.006111,"stopid":17646,"stopname":"G St &amp; Erie Av"},{"lng":-75.119185,"lat":40.006732,"stopid":17708,"stopname":"Erie Av &amp; D St"},{"lng":-75.123593,"lat":40.006885,"stopid":17712,"stopname":"B St &amp; Erie Av - FS"},{"lng":-75.124232,"lat":40.003897,"stopid":17715,"stopname":"B St &amp; Venango St"},{"lng":-75.123966,"lat":40.002549,"stopid":17717,"stopname":"Tioga St &amp; Ormes St"},{"lng":-75.12236,"lat":40.002348,"stopid":17722,"stopname":"Tioga St &amp; C St"},{"lng":-75.120446,"lat":40.002076,"stopid":17725,"stopname":"Tioga St &amp; D St"},{"lng":-75.118509,"lat":40.001821,"stopid":17728,"stopname":"Tioga St &amp; E St"},{"lng":-75.116549,"lat":40.001575,"stopid":17734,"stopname":"Tioga St &amp; F St"},{"lng":-75.116803,"lat":40.000175,"stopid":17738,"stopname":"F St &amp; Ontario St"},{"lng":-75.117152,"lat":39.998676,"stopid":17739,"stopname":"F St &amp; Westmoreland St"},{"lng":-75.117466,"lat":39.997133,"stopid":17740,"stopname":"F St &amp; Allegheny Av"},{"lng":-75.117804,"lat":39.995527,"stopid":17741,"stopname":"F St &amp; Clearfield St"},{"lng":-75.11813,"lat":39.994082,"stopid":17742,"stopname":"F St &amp; Kensington Av"},{"lng":-75.115845,"lat":39.995085,"stopid":17743,"stopname":"Kensington Av &amp; Clearfield St"},{"lng":-75.111024,"lat":39.997742,"stopid":17744,"stopname":"Kensington Av &amp; Westmoreland St"},{"lng":-75.108797,"lat":39.998968,"stopid":17745,"stopname":"Kensington Av &amp; Ontario St"},{"lng":-75.104366,"lat":40.001411,"stopid":17747,"stopname":"Kensington Av &amp; Venango St"},{"lng":-75.103049,"lat":40.000086,"stopid":17748,"stopname":"Venango St &amp; Jasper St"},{"lng":-75.10219,"lat":39.99912,"stopid":17749,"stopname":"Venango St &amp; Emerald St"},{"lng":-75.101403,"lat":39.998234,"stopid":17752,"stopname":"Venango St &amp; Frankford Av"},{"lng":-75.099102,"lat":39.992383,"stopid":17768,"stopname":"Aramingo Av &amp; Tioga St"},{"lng":-75.101554,"lat":39.991104,"stopid":17769,"stopname":"Aramingo Av &amp; Ontario St"},{"lng":-75.103828,"lat":39.989914,"stopid":17772,"stopname":"Aramingo Av &amp; Westmoreland St"},{"lng":-75.106267,"lat":39.988635,"stopid":17773,"stopname":"Aramingo Av &amp; Allegheny Av"},{"lng":-75.108742,"lat":39.987365,"stopid":17775,"stopname":"Aramingo Av &amp; Clearfield St"},{"lng":-75.111525,"lat":39.985908,"stopid":17782,"stopname":"Aramingo Av &amp; Ann St"},{"lng":-75.113337,"lat":39.984958,"stopid":17783,"stopname":"Aramingo Av &amp; Cambria St"},{"lng":-75.115564,"lat":39.983705,"stopid":17784,"stopname":"Aramingo Av &amp; Somerset St"},{"lng":-75.117582,"lat":39.981416,"stopid":17785,"stopname":"Aramingo Av &amp; Lehigh St - FS"},{"lng":-75.118608,"lat":39.979125,"stopid":17786,"stopname":"Aramingo Av &amp; Huntingdon St"},{"lng":-75.119765,"lat":39.976611,"stopid":17787,"stopname":"Aramingo Av &amp; Cumberland St"},{"lng":-75.122682,"lat":39.974093,"stopid":17788,"stopname":"Aramingo Av &amp; Norris St"},{"lng":-75.124213,"lat":39.975016,"stopid":17789,"stopname":"Norris St &amp; Almond St"},{"lng":-75.125132,"lat":39.97558,"stopid":17790,"stopname":"Norris St &amp; Belgrade St"},{"lng":-75.126004,"lat":39.976091,"stopid":17791,"stopname":"Norris St &amp; Gaul St"},{"lng":-75.127206,"lat":39.976799,"stopid":17792,"stopname":"Norris St &amp; Cedar St"},{"lng":-75.12784,"lat":39.977845,"stopid":17793,"stopname":"Susquehanna Av &amp; Memphis St"},{"lng":-75.128439,"lat":39.978533,"stopid":17794,"stopname":"Susquehanna Av &amp; Tulip St"},{"lng":-75.129274,"lat":39.979508,"stopid":17795,"stopname":"Susquehanna Av &amp; Frankford Av"},{"lng":-75.13005,"lat":39.980367,"stopid":17796,"stopname":"Susquehanna Av &amp; Trenton Av"},{"lng":-75.130791,"lat":39.981234,"stopid":17797,"stopname":"Susquehanna Av &amp; Amber St"},{"lng":-75.13159,"lat":39.982138,"stopid":17798,"stopname":"Susquehanna Av &amp; Coral St"},{"lng":-75.131501,"lat":39.983797,"stopid":17799,"stopname":"Dauphin St &amp; Emerald St"},{"lng":-75.13069,"lat":39.982823,"stopid":17800,"stopname":"Dauphin St &amp; Coral St"},{"lng":-75.129878,"lat":39.981901,"stopid":17801,"stopname":"Dauphin St &amp; Amber St"},{"lng":-75.128643,"lat":39.98056,"stopid":17802,"stopname":"Dauphin St &amp; Frankford Av"},{"lng":-75.129599,"lat":39.978045,"stopid":17803,"stopname":"Norris St &amp; Tulip St"},{"lng":-75.128715,"lat":39.977525,"stopid":17804,"stopname":"Norris St &amp; Memphis St"},{"lng":-75.12756,"lat":39.976853,"stopid":17805,"stopname":"Norris St &amp; Cedar St"},{"lng":-75.12601,"lat":39.977483,"stopid":17806,"stopname":"Cedar St &amp; Dauphin St"},{"lng":-75.124062,"lat":39.977255,"stopid":17809,"stopname":"York St &amp; Gaul St"},{"lng":-75.119599,"lat":39.976584,"stopid":17811,"stopname":"Aramingo Av &amp; Cumberland St - FS"},{"lng":-75.118622,"lat":39.978706,"stopid":17812,"stopname":"Aramingo Av &amp; Huntingdon St"},{"lng":-75.117405,"lat":39.981398,"stopid":17813,"stopname":"Aramingo Av &amp; Lehigh Av"},{"lng":-75.115671,"lat":39.983455,"stopid":17814,"stopname":"Aramingo Av &amp; Somerset St"},{"lng":-75.113492,"lat":39.984735,"stopid":17815,"stopname":"Aramingo Av &amp; Cambria St"},{"lng":-75.111668,"lat":39.985685,"stopid":17816,"stopname":"Aramingo Av &amp; Ann St"},{"lng":-75.108885,"lat":39.987133,"stopid":17817,"stopname":"Aramingo Av &amp; Clearfield St"},{"lng":-75.106434,"lat":39.988394,"stopid":17818,"stopname":"Aramingo Av &amp; Allegheny Av"},{"lng":-75.103402,"lat":39.989984,"stopid":17819,"stopname":"Aramingo Av &amp; Westmoreland St - FS"},{"lng":-75.101708,"lat":39.990881,"stopid":17821,"stopname":"Aramingo Av &amp; Ontario St"},{"lng":-75.099387,"lat":39.99208,"stopid":17822,"stopname":"Aramingo Av &amp; Tioga St"},{"lng":-75.101954,"lat":39.999057,"stopid":17830,"stopname":"Venango St &amp; Emerald Av"},{"lng":-75.102801,"lat":40.000014,"stopid":17834,"stopname":"Venango St &amp; Jasper St"},{"lng":-75.10863,"lat":39.999217,"stopid":17848,"stopname":"Kensington Av &amp; J St"},{"lng":-75.110869,"lat":39.997991,"stopid":17853,"stopname":"Kensington Av &amp; I St"},{"lng":-75.115074,"lat":39.998261,"stopid":17857,"stopname":"G St &amp; Westmoreland St"},{"lng":-75.114737,"lat":39.99975,"stopid":17859,"stopname":"G St &amp; Ontario St"},{"lng":-75.114423,"lat":40.001267,"stopid":17866,"stopname":"G St &amp; Tioga St"},{"lng":-75.116324,"lat":40.001673,"stopid":17870,"stopname":"Tioga St &amp; F St"},{"lng":-75.118285,"lat":40.001919,"stopid":17877,"stopname":"Tioga St &amp; E St"},{"lng":-75.120221,"lat":40.002174,"stopid":17881,"stopname":"Tioga St &amp; D St"},{"lng":-75.122217,"lat":40.002455,"stopid":17884,"stopname":"Tioga St  &amp; C St - FS"},{"lng":-75.124249,"lat":40.00271,"stopid":17889,"stopname":"Tioga St &amp; B St"},{"lng":-75.124091,"lat":40.003736,"stopid":17893,"stopname":"B St &amp; Venango St"},{"lng":-75.12332,"lat":40.007063,"stopid":17894,"stopname":"B St &amp; Erie Av"},{"lng":-75.119434,"lat":40.006625,"stopid":17895,"stopname":"Erie Av &amp; D St"},{"lng":-75.115501,"lat":40.006098,"stopid":17896,"stopname":"Erie Av &amp; F St"},{"lng":-75.113374,"lat":40.006128,"stopid":17897,"stopname":"G St &amp; Erie Av - FS"},{"lng":-75.112782,"lat":40.008911,"stopid":17898,"stopname":"G St &amp; Luzerne St"},{"lng":-75.112457,"lat":40.010383,"stopid":17899,"stopname":"G St &amp; Lycoming St"},{"lng":-75.110134,"lat":40.011743,"stopid":17900,"stopname":"Hunting Park Av &amp; H St"},{"lng":-75.108173,"lat":40.011488,"stopid":17901,"stopname":"Hunting Park Av &amp; I St"},{"lng":-75.106224,"lat":40.011233,"stopid":17902,"stopname":"Hunting Park Av &amp; J St"},{"lng":-75.104311,"lat":40.010987,"stopid":17903,"stopname":"Hunting Park Av &amp; K St"},{"lng":-75.102362,"lat":40.010732,"stopid":17904,"stopname":"Hunting Park Av &amp; L St"},{"lng":-75.099928,"lat":40.010645,"stopid":17905,"stopname":"M St &amp; Hunting Park Av - FS"},{"lng":-75.099614,"lat":40.01201,"stopid":17906,"stopname":"M St &amp; Bristol St"},{"lng":-75.099288,"lat":40.013473,"stopid":17907,"stopname":"M St &amp; Cayuga St"},{"lng":-75.093506,"lat":40.018991,"stopid":17911,"stopname":"Orthodox St &amp; Large St"},{"lng":-75.091455,"lat":40.017906,"stopid":17912,"stopname":"Orthodox St &amp; Horrocks St"},{"lng":-75.090476,"lat":40.017368,"stopid":18067,"stopname":"Orthodox St &amp; Oakland St"},{"lng":-75.088201,"lat":40.016148,"stopid":18068,"stopname":"Orthodox St &amp; Leiper St"},{"lng":-75.087352,"lat":40.015699,"stopid":18069,"stopname":"Orthodox St &amp; Penn St"},{"lng":-75.086367,"lat":40.016518,"stopid":18070,"stopname":"Penn St &amp; Overington St"},{"lng":-75.085547,"lat":40.017381,"stopid":18071,"stopname":"Penn St &amp; Arrott St"},{"lng":-75.084324,"lat":40.018708,"stopid":18072,"stopname":"Penn St &amp; Foulkrod St"},{"lng":-75.117119,"lat":40.00645,"stopid":18144,"stopname":"Erie Av &amp; F St - MBFS"},{"lng":-75.106522,"lat":40.000202,"stopid":19007,"stopname":"Kensington Av &amp; Tioga St"},{"lng":-75.106308,"lat":40.000487,"stopid":19014,"stopname":"Kensington Av &amp; K St"},{"lng":-75.132347,"lat":39.984745,"stopid":21150,"stopname":"Dauphin St &amp; Front St"},{"lng":-75.113606,"lat":39.996338,"stopid":21175,"stopname":"Kensington Av &amp; Allegheny Av"},{"lng":-75.122991,"lat":39.976405,"stopid":21950,"stopname":"York St &amp; Almond St"},{"lng":-75.120762,"lat":39.975462,"stopid":22033,"stopname":"Aramingo Av &amp; York St - FS"},{"lng":-75.096367,"lat":40.019017,"stopid":22096,"stopname":"Castor Av &amp; Orthodox Av - MBNS"},{"lng":-75.094533,"lat":40.019458,"stopid":22097,"stopname":"Orthodox St &amp; Adams Av"},{"lng":-75.094988,"lat":40.020655,"stopid":22130,"stopname":"Castor Av &amp; Orthodox St - MBNS"},{"lng":-75.099033,"lat":39.999594,"stopid":23954,"stopname":"Frankford Av &amp; Castor Av"},{"lng":-75.097764,"lat":40.000581,"stopid":23955,"stopname":"Frankford Av &amp; Glenwood Av"},{"lng":-75.124838,"lat":39.978087,"stopid":23993,"stopname":"Cedar St &amp; York St"},{"lng":-75.097101,"lat":39.993279,"stopid":23999,"stopname":"Aramingo Av &amp; Venango St"},{"lng":-75.096958,"lat":39.99351,"stopid":24019,"stopname":"Aramingo Av &amp; Venango St"},{"lng":-75.098949,"lat":39.999799,"stopid":24138,"stopname":"Frankford Av &amp; Castor Av"},{"lng":-75.10119,"lat":39.998296,"stopid":24139,"stopname":"Frankford Av &amp; Venango St"},{"lng":-75.129391,"lat":39.979749,"stopid":24155,"stopname":"Frankford Av &amp; Susquehanna Av"},{"lng":-75.115217,"lat":40.006204,"stopid":26247,"stopname":"Erie Av &amp; F St"},{"lng":-75.120768,"lat":40.006968,"stopid":26255,"stopname":"Erie Av &amp; D St - MBFS"},{"lng":-75.089469,"lat":40.016839,"stopid":27817,"stopname":"Orthodox St &amp; Pilling St"},{"lng":-75.113141,"lat":40.007975,"stopid":28495,"stopname":"G St &amp; Luzerne St - MBFS"},{"lng":-75.123294,"lat":39.97446,"stopid":28500,"stopname":"Norris St &amp; Thompson St"},{"lng":-75.09229,"lat":39.996238,"stopid":28501,"stopname":"Butler St &amp; Aramingo Av - FS"},{"lng":-75.094394,"lat":39.998618,"stopid":28502,"stopname":"Butler St &amp; Sepviva St"},{"lng":-75.094747,"lat":39.99877,"stopid":30054,"stopname":"Butler St &amp; Sepviva St"},{"lng":-75.093525,"lat":39.997419,"stopid":30055,"stopname":"Butler St &amp; Aramingo Av - MBNS"},{"lng":-75.092432,"lat":39.996185,"stopid":30056,"stopname":"Butler St &amp; Aramingo Av"},{"lng":-75.130353,"lat":39.978449,"stopid":30894,"stopname":"Norris St &amp; Frankford Av - FS"},{"lng":-75.117414,"lat":40.006361,"stopid":30927,"stopname":"Erie Av &amp; D St - MBFS"},{"lng":-75.103976,"lat":40.001374,"stopid":31122,"stopname":"Venango St &amp; Kensington Av"},{"lng":-75.097504,"lat":40.000714,"stopid":31489,"stopname":"Glenwood Av &amp; Frankford Av"},{"lng":-75.097181,"lat":40.014155,"stopid":31490,"stopname":"Castor Av &amp; Wingohocking St - FS"},{"lng":-75.096951,"lat":40.017885,"stopid":31491,"stopname":"Castor Av &amp; Wyoming Av Circle"}]