{"type": "FeatureCollection", "features": [{"geometry": {"type": "Point", "coordinates": [-75.284034, 40.117196]}, "type": "Feature", "properties": {"route": "90", "id": 246, "name": "Plymouth Meeting Mall"}}, {"geometry": {"type": "Point", "coordinates": [-75.313747, 40.144361]}, "type": "Feature", "properties": {"route": "90", "id": 1633, "name": "East Norriton Crossing Shp Cntr"}}, {"geometry": {"type": "Point", "coordinates": [-75.313829, 40.14453]}, "type": "Feature", "properties": {"route": "90", "id": 1648, "name": "East Norriton Crossing Shop Ctr"}}, {"geometry": {"type": "Point", "coordinates": [-75.344475, 40.11336]}, "type": "Feature", "properties": {"route": "90", "id": 1649, "name": "Norristown Transportation Center"}}, {"geometry": {"type": "Point", "coordinates": [-75.332681, 40.134568]}, "type": "Feature", "properties": {"route": "90", "id": 1671, "name": "Swede St &amp; Johnson Hwy"}}, {"geometry": {"type": "Point", "coordinates": [-75.343774, 40.124936]}, "type": "Feature", "properties": {"route": "90", "id": 1672, "name": "Harding Blvd &amp; James St"}}, {"geometry": {"type": "Point", "coordinates": [-75.352963, 40.122532]}, "type": "Feature", "properties": {"route": "90", "id": 1674, "name": "Stanbridge St &amp; Marshall St"}}, {"geometry": {"type": "Point", "coordinates": [-75.352797, 40.12238]}, "type": "Feature", "properties": {"route": "90", "id": 1679, "name": "Marshall St &amp; Stanbridge St"}}, {"geometry": {"type": "Point", "coordinates": [-75.347282, 40.131641]}, "type": "Feature", "properties": {"route": "90", "id": 1680, "name": "Willow Dr &amp; The Oval"}}, {"geometry": {"type": "Point", "coordinates": [-75.344118, 40.124838]}, "type": "Feature", "properties": {"route": "90", "id": 1681, "name": "Harding Blvd &amp; James St"}}, {"geometry": {"type": "Point", "coordinates": [-75.33267, 40.134309]}, "type": "Feature", "properties": {"route": "90", "id": 1682, "name": "Markley S &amp; Johnson Hwy"}}, {"geometry": {"type": "Point", "coordinates": [-75.347171, 40.115638]}, "type": "Feature", "properties": {"route": "90", "id": 18304, "name": "Main St &amp; Barbadoes St"}}, {"geometry": {"type": "Point", "coordinates": [-75.348685, 40.11646]}, "type": "Feature", "properties": {"route": "90", "id": 18307, "name": "Main St &amp; Markley St"}}, {"geometry": {"type": "Point", "coordinates": [-75.348006, 40.119646]}, "type": "Feature", "properties": {"route": "90", "id": 18308, "name": "Marshall St &amp; Astor St"}}, {"geometry": {"type": "Point", "coordinates": [-75.351768, 40.121594]}, "type": "Feature", "properties": {"route": "90", "id": 18348, "name": "Marshall St &amp; Haws Av"}}, {"geometry": {"type": "Point", "coordinates": [-75.34997, 40.120584]}, "type": "Feature", "properties": {"route": "90", "id": 18349, "name": "Marshall St &amp; George St"}}, {"geometry": {"type": "Point", "coordinates": [-75.348361, 40.119664]}, "type": "Feature", "properties": {"route": "90", "id": 18350, "name": "Marshall St &amp; Astor St"}}, {"geometry": {"type": "Point", "coordinates": [-75.347119, 40.118967]}, "type": "Feature", "properties": {"route": "90", "id": 18351, "name": "Marshall St &amp; Markley St"}}, {"geometry": {"type": "Point", "coordinates": [-75.345676, 40.118404]}, "type": "Feature", "properties": {"route": "90", "id": 18352, "name": "Marshall St &amp; Barbadoes St"}}, {"geometry": {"type": "Point", "coordinates": [-75.343984, 40.117778]}, "type": "Feature", "properties": {"route": "90", "id": 18353, "name": "Marshall St &amp; Cherry St"}}, {"geometry": {"type": "Point", "coordinates": [-75.349674, 40.120584]}, "type": "Feature", "properties": {"route": "90", "id": 18358, "name": "Marshall St &amp; George St"}}, {"geometry": {"type": "Point", "coordinates": [-75.351437, 40.121603]}, "type": "Feature", "properties": {"route": "90", "id": 18359, "name": "Marshall St &amp; Haws Av"}}, {"geometry": {"type": "Point", "coordinates": [-75.351541, 40.123709]}, "type": "Feature", "properties": {"route": "90", "id": 26531, "name": "Stanbridge St &amp; Oak St"}}, {"geometry": {"type": "Point", "coordinates": [-75.350083, 40.125181]}, "type": "Feature", "properties": {"route": "90", "id": 26532, "name": "Stanbridge St &amp; Elm St"}}, {"geometry": {"type": "Point", "coordinates": [-75.347986, 40.127313]}, "type": "Feature", "properties": {"route": "90", "id": 26533, "name": "Stanbridge St &amp; James St"}}, {"geometry": {"type": "Point", "coordinates": [-75.347038, 40.128294]}, "type": "Feature", "properties": {"route": "90", "id": 26534, "name": "Stanbridge St &amp; Sterigere St"}}, {"geometry": {"type": "Point", "coordinates": [-75.353982, 40.132413]}, "type": "Feature", "properties": {"route": "90", "id": 26536, "name": "Sterigere St &amp; Forrest Av"}}, {"geometry": {"type": "Point", "coordinates": [-75.349593, 40.129867]}, "type": "Feature", "properties": {"route": "90", "id": 26537, "name": "Sterigere St &amp; Buttonwood St"}}, {"geometry": {"type": "Point", "coordinates": [-75.347168, 40.128464]}, "type": "Feature", "properties": {"route": "90", "id": 26538, "name": "Sterigere St &amp; Stanbridge St"}}, {"geometry": {"type": "Point", "coordinates": [-75.354606, 40.13602]}, "type": "Feature", "properties": {"route": "90", "id": 26539, "name": "Beech Dr &amp; Spruce St - FS"}}, {"geometry": {"type": "Point", "coordinates": [-75.341657, 40.123765]}, "type": "Feature", "properties": {"route": "90", "id": 26541, "name": "Markley St &amp; James St"}}, {"geometry": {"type": "Point", "coordinates": [-75.339689, 40.125772]}, "type": "Feature", "properties": {"route": "90", "id": 26542, "name": "Markley St &amp; Swede St"}}, {"geometry": {"type": "Point", "coordinates": [-75.338457, 40.127021]}, "type": "Feature", "properties": {"route": "90", "id": 26543, "name": "Markley St &amp; Fornance St"}}, {"geometry": {"type": "Point", "coordinates": [-75.337105, 40.128394]}, "type": "Feature", "properties": {"route": "90", "id": 26544, "name": "Markley St &amp; Freedley St"}}, {"geometry": {"type": "Point", "coordinates": [-75.336169, 40.129358]}, "type": "Feature", "properties": {"route": "90", "id": 26545, "name": "Markley St &amp; Coolidge Blvd"}}, {"geometry": {"type": "Point", "coordinates": [-75.334426, 40.131115]}, "type": "Feature", "properties": {"route": "90", "id": 26546, "name": "Markley St &amp; Roberts St"}}, {"geometry": {"type": "Point", "coordinates": [-75.333465, 40.132783]}, "type": "Feature", "properties": {"route": "90", "id": 26547, "name": "Markley St &amp; Logan St"}}, {"geometry": {"type": "Point", "coordinates": [-75.331212, 40.135816]}, "type": "Feature", "properties": {"route": "90", "id": 26550, "name": "Swede Rd &amp; Hancock Av"}}, {"geometry": {"type": "Point", "coordinates": [-75.327192, 40.139892]}, "type": "Feature", "properties": {"route": "90", "id": 26552, "name": "Swede Rd &amp; Overhill Rd"}}, {"geometry": {"type": "Point", "coordinates": [-75.323032, 40.142736]}, "type": "Feature", "properties": {"route": "90", "id": 26554, "name": "Swede Rd &amp; Mill Rd"}}, {"geometry": {"type": "Point", "coordinates": [-75.318825, 40.144883]}, "type": "Feature", "properties": {"route": "90", "id": 26555, "name": "Swede Rd &amp; Germantown Pk"}}, {"geometry": {"type": "Point", "coordinates": [-75.317367, 40.146337]}, "type": "Feature", "properties": {"route": "90", "id": 26556, "name": "Swede Rd &amp; Germantown Pk - MBFS"}}, {"geometry": {"type": "Point", "coordinates": [-75.3122, 40.141325]}, "type": "Feature", "properties": {"route": "90", "id": 26559, "name": "Germantown Pk &amp; DeKalb Pk - FS"}}, {"geometry": {"type": "Point", "coordinates": [-75.308641, 40.138902]}, "type": "Feature", "properties": {"route": "90", "id": 26560, "name": "Germantown Pk &amp; Arch Rd - MBNS"}}, {"geometry": {"type": "Point", "coordinates": [-75.304111, 40.135917]}, "type": "Feature", "properties": {"route": "90", "id": 26561, "name": "Germantown Pk &amp; Hilltop Rd"}}, {"geometry": {"type": "Point", "coordinates": [-75.301229, 40.132183]}, "type": "Feature", "properties": {"route": "90", "id": 26563, "name": "Germantown Pk &amp; Mill Creek Rd"}}, {"geometry": {"type": "Point", "coordinates": [-75.299555, 40.128665]}, "type": "Feature", "properties": {"route": "90", "id": 26564, "name": "Germantown Pk &amp; Virginia Rd"}}, {"geometry": {"type": "Point", "coordinates": [-75.297367, 40.127261]}, "type": "Feature", "properties": {"route": "90", "id": 26565, "name": "Germantown Pk &amp; Pleasant Rd"}}, {"geometry": {"type": "Point", "coordinates": [-75.288807, 40.121896]}, "type": "Feature", "properties": {"route": "90", "id": 26567, "name": "Germantown Pk &amp; Walton Rd"}}, {"geometry": {"type": "Point", "coordinates": [-75.287378, 40.120047]}, "type": "Feature", "properties": {"route": "90", "id": 26568, "name": "Germantown Pk &amp; Red Rowan Ln - MBFS"}}, {"geometry": {"type": "Point", "coordinates": [-75.292626, 40.124293]}, "type": "Feature", "properties": {"route": "90", "id": 26569, "name": "Germantown Pk &amp; Jolly Rd"}}, {"geometry": {"type": "Point", "coordinates": [-75.345066, 40.133836]}, "type": "Feature", "properties": {"route": "90", "id": 26571, "name": "Laurel Dr &amp; Locust St"}}, {"geometry": {"type": "Point", "coordinates": [-75.347029, 40.13531]}, "type": "Feature", "properties": {"route": "90", "id": 26572, "name": "Locust St &amp; Lower Farm Rd"}}, {"geometry": {"type": "Point", "coordinates": [-75.347764, 40.134989]}, "type": "Feature", "properties": {"route": "90", "id": 26573, "name": "Lower Farm Rd &amp; Circle  Dr"}}, {"geometry": {"type": "Point", "coordinates": [-75.350239, 40.133866]}, "type": "Feature", "properties": {"route": "90", "id": 26574, "name": "Circle Dr &amp; Market St"}}, {"geometry": {"type": "Point", "coordinates": [-75.350949, 40.134348]}, "type": "Feature", "properties": {"route": "90", "id": 26575, "name": "Market St &amp; Oak Dr"}}, {"geometry": {"type": "Point", "coordinates": [-75.356371, 40.134575]}, "type": "Feature", "properties": {"route": "90", "id": 26576, "name": "Beech Dr &amp; Maple St"}}, {"geometry": {"type": "Point", "coordinates": [-75.284577, 40.117937]}, "type": "Feature", "properties": {"route": "90", "id": 26578, "name": "Hickory Rd &amp; Germantown Pk - MBNS"}}, {"geometry": {"type": "Point", "coordinates": [-75.287177, 40.120127]}, "type": "Feature", "properties": {"route": "90", "id": 26580, "name": "Germantown Pk &amp; Plymouth Hill Condo"}}, {"geometry": {"type": "Point", "coordinates": [-75.292554, 40.124462]}, "type": "Feature", "properties": {"route": "90", "id": 26581, "name": "Germantown Pk &amp; Jolly Rd - FS"}}, {"geometry": {"type": "Point", "coordinates": [-75.299412, 40.128789]}, "type": "Feature", "properties": {"route": "90", "id": 26584, "name": "Germantown Pk &amp; Virginia Rd - FS"}}, {"geometry": {"type": "Point", "coordinates": [-75.300969, 40.131951]}, "type": "Feature", "properties": {"route": "90", "id": 26585, "name": "Germantown Pk &amp; Valley Creek Rd"}}, {"geometry": {"type": "Point", "coordinates": [-75.302373, 40.134496]}, "type": "Feature", "properties": {"route": "90", "id": 26586, "name": "Germantown Pk &amp; Mulberry Ln - FS"}}, {"geometry": {"type": "Point", "coordinates": [-75.304821, 40.136533]}, "type": "Feature", "properties": {"route": "90", "id": 26588, "name": "Germantown Pk &amp; Arch Rd"}}, {"geometry": {"type": "Point", "coordinates": [-75.30987, 40.139984]}, "type": "Feature", "properties": {"route": "90", "id": 26589, "name": "Germantown Pk &amp; Hannah Av- MBNS"}}, {"geometry": {"type": "Point", "coordinates": [-75.312377, 40.141807]}, "type": "Feature", "properties": {"route": "90", "id": 26590, "name": "Germantown Pk &amp; DeKalb Pk"}}, {"geometry": {"type": "Point", "coordinates": [-75.317888, 40.146132]}, "type": "Feature", "properties": {"route": "90", "id": 26591, "name": "Swede Rd &amp; Germantown Pk - MBNS"}}, {"geometry": {"type": "Point", "coordinates": [-75.322925, 40.142977]}, "type": "Feature", "properties": {"route": "90", "id": 26593, "name": "Swede Rd &amp; Mill Rd"}}, {"geometry": {"type": "Point", "coordinates": [-75.327275, 40.140079]}, "type": "Feature", "properties": {"route": "90", "id": 26595, "name": "Swede Rd &amp; Overhill Rd"}}, {"geometry": {"type": "Point", "coordinates": [-75.331365, 40.135896]}, "type": "Feature", "properties": {"route": "90", "id": 26598, "name": "Swede Rd &amp; Hancock Av - FS"}}, {"geometry": {"type": "Point", "coordinates": [-75.333548, 40.133024]}, "type": "Feature", "properties": {"route": "90", "id": 26599, "name": "Markley St &amp; Logan St"}}, {"geometry": {"type": "Point", "coordinates": [-75.334521, 40.13124]}, "type": "Feature", "properties": {"route": "90", "id": 26600, "name": "Markley St &amp; Roberts St - FS"}}, {"geometry": {"type": "Point", "coordinates": [-75.335943, 40.129786]}, "type": "Feature", "properties": {"route": "90", "id": 26601, "name": "Markley St &amp; Brown St"}}, {"geometry": {"type": "Point", "coordinates": [-75.337117, 40.128635]}, "type": "Feature", "properties": {"route": "90", "id": 26602, "name": "Markley St &amp; Freedley St"}}, {"geometry": {"type": "Point", "coordinates": [-75.339819, 40.12587]}, "type": "Feature", "properties": {"route": "90", "id": 26604, "name": "Markley St &amp; Wood St"}}, {"geometry": {"type": "Point", "coordinates": [-75.34168, 40.123988]}, "type": "Feature", "properties": {"route": "90", "id": 26605, "name": "Markley St &amp; James St"}}, {"geometry": {"type": "Point", "coordinates": [-75.346848, 40.128482]}, "type": "Feature", "properties": {"route": "90", "id": 26607, "name": "Sterigere St &amp; Stanbridge St"}}, {"geometry": {"type": "Point", "coordinates": [-75.34795, 40.127616]}, "type": "Feature", "properties": {"route": "90", "id": 26608, "name": "Stanbridge St &amp; James St"}}, {"geometry": {"type": "Point", "coordinates": [-75.350095, 40.12544]}, "type": "Feature", "properties": {"route": "90", "id": 26609, "name": "Stanbridge St &amp; Elm St"}}, {"geometry": {"type": "Point", "coordinates": [-75.351529, 40.123995]}, "type": "Feature", "properties": {"route": "90", "id": 26610, "name": "Stanbridge St &amp; Oak St"}}, {"geometry": {"type": "Point", "coordinates": [-75.348993, 40.126296]}, "type": "Feature", "properties": {"route": "90", "id": 29470, "name": "Stanbridge St &amp; Beech St"}}, {"geometry": {"type": "Point", "coordinates": [-75.316016, 40.14713]}, "type": "Feature", "properties": {"route": "90", "id": 29471, "name": "Swede Rd &amp; Hilltop Av"}}, {"geometry": {"type": "Point", "coordinates": [-75.296988, 40.127243]}, "type": "Feature", "properties": {"route": "90", "id": 29473, "name": "Germantown Pk &amp; Pleasant Rd"}}, {"geometry": {"type": "Point", "coordinates": [-75.307694, 40.138464]}, "type": "Feature", "properties": {"route": "90", "id": 29474, "name": "Germantown Pk &amp; Arch Rd - MBFS"}}, {"geometry": {"type": "Point", "coordinates": [-75.348957, 40.126582]}, "type": "Feature", "properties": {"route": "90", "id": 29475, "name": "Stanbridge St &amp; Beech St"}}, {"geometry": {"type": "Point", "coordinates": [-75.342628, 40.123016]}, "type": "Feature", "properties": {"route": "90", "id": 30446, "name": "Markley St &amp; Harding Blvd"}}, {"geometry": {"type": "Point", "coordinates": [-75.348971, 40.135124]}, "type": "Feature", "properties": {"route": "90", "id": 30447, "name": "Circle Dr &amp; Tower Farm Rd - MBFS"}}, {"geometry": {"type": "Point", "coordinates": [-75.294198, 40.125285]}, "type": "Feature", "properties": {"route": "90", "id": 30448, "name": "Germantown Pk &amp; Plymouth Valley Dr "}}, {"geometry": {"type": "Point", "coordinates": [-75.293678, 40.125177]}, "type": "Feature", "properties": {"route": "90", "id": 30449, "name": "Germantown Pk &amp; Hallowell Rd - FS"}}, {"geometry": {"type": "Point", "coordinates": [-75.343038, 40.11742]}, "type": "Feature", "properties": {"route": "90", "id": 30750, "name": "Marshall St &amp; Swede St"}}, {"geometry": {"type": "Point", "coordinates": [-75.344558, 40.152374]}, "type": "Feature", "properties": {"route": "90", "id": 31384, "name": "Einstein Medical Ctr - south entran"}}, {"geometry": {"type": "Point", "coordinates": [-75.318943, 40.145508]}, "type": "Feature", "properties": {"route": "90", "id": 31464, "name": "Germantown Pk &amp; Swede Rd - FS"}}, {"geometry": {"type": "Point", "coordinates": [-75.321346, 40.145947]}, "type": "Feature", "properties": {"route": "90", "id": 31465, "name": "Germantown Pk &amp; Penn Square Rd"}}, {"geometry": {"type": "Point", "coordinates": [-75.32846, 40.147774]}, "type": "Feature", "properties": {"route": "90", "id": 31466, "name": "Germantown Pk &amp; Stony Creek Rd - FS"}}, {"geometry": {"type": "Point", "coordinates": [-75.331999, 40.148607]}, "type": "Feature", "properties": {"route": "90", "id": 31467, "name": "Germantown Pk &amp; Scenic Rd"}}, {"geometry": {"type": "Point", "coordinates": [-75.334639, 40.149073]}, "type": "Feature", "properties": {"route": "90", "id": 31468, "name": "Germantown Pk &amp; North Wales Rd"}}, {"geometry": {"type": "Point", "coordinates": [-75.328152, 40.147453]}, "type": "Feature", "properties": {"route": "90", "id": 31469, "name": "Germantown Pk &amp; Stanbridge St"}}, {"geometry": {"type": "Point", "coordinates": [-75.334923, 40.148993]}, "type": "Feature", "properties": {"route": "90", "id": 31470, "name": "Germantown Pk &amp; Barley Sheaf Dr"}}, {"geometry": {"type": "Point", "coordinates": [-75.331928, 40.148464]}, "type": "Feature", "properties": {"route": "90", "id": 31471, "name": "Germantown Pk &amp; Scenic Rd - FS"}}, {"geometry": {"type": "Point", "coordinates": [-75.321311, 40.145814]}, "type": "Feature", "properties": {"route": "90", "id": 31472, "name": "Germantown Pk &amp; Hillcrest Av - FS"}}, {"geometry": {"type": "Point", "coordinates": [-75.343383, 40.154497]}, "type": "Feature", "properties": {"route": "90", "id": 31473, "name": "Einstein Medical Ctr - north entran"}}, {"geometry": {"type": "Point", "coordinates": [-75.315595, 40.143586]}, "type": "Feature", "properties": {"route": "90", "id": 31664, "name": "Germantown Av &amp; Mill St"}}, {"geometry": {"type": "Point", "coordinates": [-75.338456, 40.127235]}, "type": "Feature", "properties": {"route": "90", "id": 32303, "name": "Markley St &amp; Fornance St"}}]}