[{"lng":-75.284034,"lat":40.117196,"stopid":246,"stopname":"Plymouth Meeting Mall"},{"lng":-75.122493,"lat":40.142263,"stopid":809,"stopname":"Willow Grove Park Mall"},{"lng":-75.164636,"lat":40.125445,"stopid":1076,"stopname":"Fitzwatertown Rd &amp; Jenkintown - FS"},{"lng":-75.164433,"lat":40.125917,"stopid":1086,"stopname":"Fitzwatertown Rd &amp; Jenkintown Rd - "},{"lng":-75.224441,"lat":40.153574,"stopid":1607,"stopname":"Butler Av &amp; Main St - MBFS"},{"lng":-75.293587,"lat":40.104175,"stopid":1636,"stopname":"Metroplex Shopping Center"},{"lng":-75.325518,"lat":40.086435,"stopid":1638,"stopname":"River Rd &amp; Inquirer - onsite"},{"lng":-75.340931,"lat":40.088786,"stopid":1639,"stopname":"Horizon Dr &amp; Church Rd - MBNS"},{"lng":-75.341156,"lat":40.088786,"stopid":1642,"stopname":"Horizon Dr &amp; Church Rd - MBFS"},{"lng":-75.302376,"lat":40.099758,"stopid":1675,"stopname":"Ridge Pk &amp; Alan Wood Rd"},{"lng":-75.223873,"lat":40.153671,"stopid":1687,"stopname":"Butler Av &amp; Main St"},{"lng":-75.211914,"lat":40.137451,"stopid":1688,"stopname":"Pennsylvania Av &amp; Fort Wash Av"},{"lng":-75.293026,"lat":40.100899,"stopid":5909,"stopname":"Chemical Rd &amp; Gallagher Rd - FS"},{"lng":-75.291425,"lat":40.102691,"stopid":5910,"stopname":"Chemical Rd &amp; Metroplex Dr"},{"lng":-75.288293,"lat":40.094387,"stopid":12374,"stopname":"Ridge Pk &amp; Butler Pk - 2 MBNS"},{"lng":-75.291854,"lat":40.094962,"stopid":14989,"stopname":"Ridge Pk &amp; Lynda Dr"},{"lng":-75.308233,"lat":40.072166,"stopid":15178,"stopname":"Stoddard Av &amp; Fayette St - FS"},{"lng":-75.285779,"lat":40.114895,"stopid":16747,"stopname":"Germantown Pk &amp; Launfall Rd"},{"lng":-75.287122,"lat":40.094359,"stopid":19045,"stopname":"Ridge Pk &amp; Butler Pk - FS"},{"lng":-75.291463,"lat":40.095042,"stopid":19046,"stopname":"Ridge Pk &amp; Lynda Rd"},{"lng":-75.28957,"lat":40.094746,"stopid":24009,"stopname":"Ridge Pk &amp; Little Av - MBNS"},{"lng":-75.284577,"lat":40.117937,"stopid":26578,"stopname":"Hickory Rd &amp; Germantown Pk - MBNS"},{"lng":-75.212324,"lat":40.138925,"stopid":27017,"stopname":"Bethlehem Pk &amp; Washington Ln"},{"lng":-75.21268,"lat":40.15043,"stopid":27023,"stopname":"Bethlehem Pk &amp; Highland Av"},{"lng":-75.214369,"lat":40.155566,"stopid":27026,"stopname":"Lindenwold Av &amp; Bethlehem Pk - FS"},{"lng":-75.219201,"lat":40.15577,"stopid":27028,"stopname":"Lindenwold Av &amp; Butler Av"},{"lng":-75.222936,"lat":40.15417,"stopid":27029,"stopname":"Butler Av &amp; Spring Garden Av"},{"lng":-75.221501,"lat":40.154756,"stopid":27030,"stopname":"Butler Av &amp; Ridge Av"},{"lng":-75.223019,"lat":40.154,"stopid":27122,"stopname":"Butler Av &amp; Spring Garden St"},{"lng":-75.221573,"lat":40.154587,"stopid":27123,"stopname":"Butler Av &amp; Ridge Av"},{"lng":-75.219474,"lat":40.155601,"stopid":27124,"stopname":"Butler Av &amp; Lindenwold Av"},{"lng":-75.214252,"lat":40.155396,"stopid":27126,"stopname":"Lindenwold Av &amp; Bethlehem Pk"},{"lng":-75.213161,"lat":40.151958,"stopid":27128,"stopname":"Bethlehem Pk &amp; Church St - FS"},{"lng":-75.212615,"lat":40.148279,"stopid":27130,"stopname":"Bethlehem Pk &amp; Bannockburn Av"},{"lng":-75.283006,"lat":40.105163,"stopid":27223,"stopname":"Chemical Rd &amp; Germantown Pk - MBFS"},{"lng":-75.288297,"lat":40.092531,"stopid":27226,"stopname":"Butler Pk &amp; Keys St"},{"lng":-75.290977,"lat":40.089687,"stopid":27227,"stopname":"Butler Pk &amp; North Ln - MBNS"},{"lng":-75.293111,"lat":40.087449,"stopid":27228,"stopname":"Butler Pk &amp; North Ln"},{"lng":-75.295256,"lat":40.085211,"stopid":27229,"stopname":"Butler Pk &amp; Antioch Av"},{"lng":-75.29637,"lat":40.084052,"stopid":27230,"stopname":"Fayette St &amp; 13th Av"},{"lng":-75.298113,"lat":40.082313,"stopid":27231,"stopname":"Fayette St &amp; 11th Av"},{"lng":-75.298931,"lat":40.081484,"stopid":27232,"stopname":"Fayette St &amp; 10th Av"},{"lng":-75.299737,"lat":40.080646,"stopid":27233,"stopname":"Fayette St &amp; 9th Av"},{"lng":-75.300578,"lat":40.079807,"stopid":27234,"stopname":"Fayette St &amp; 8th Av"},{"lng":-75.302202,"lat":40.078149,"stopid":27236,"stopname":"Fayette St &amp; 6th Av"},{"lng":-75.303031,"lat":40.077302,"stopid":27237,"stopname":"Fayette St &amp; 5th Av"},{"lng":-75.304856,"lat":40.075447,"stopid":27239,"stopname":"Fayette St &amp; 3rd Av - FS"},{"lng":-75.306302,"lat":40.073976,"stopid":27241,"stopname":"Fayette St &amp; 1st Av"},{"lng":-75.31181,"lat":40.069563,"stopid":27245,"stopname":"Front St &amp; George St"},{"lng":-75.312317,"lat":40.070126,"stopid":27246,"stopname":"Front St &amp; William St"},{"lng":-75.324352,"lat":40.082427,"stopid":27250,"stopname":"River Rd &amp; Swedeland Rd - MBNS"},{"lng":-75.326474,"lat":40.087927,"stopid":27252,"stopname":"River Rd &amp; 3rd St"},{"lng":-75.334315,"lat":40.090628,"stopid":27258,"stopname":"Hertzog Blvd &amp; Flint Hill Rd"},{"lng":-75.339282,"lat":40.092373,"stopid":27260,"stopname":"Feheley Dr &amp; Church Rd"},{"lng":-75.338842,"lat":40.084982,"stopid":27262,"stopname":"Horizon Blvd &amp; Renaissance Blvd - F"},{"lng":-75.331833,"lat":40.079443,"stopid":27263,"stopname":"Renaissance Blvd &amp; Swedeland Rd"},{"lng":-75.335517,"lat":40.076429,"stopid":27264,"stopname":"Swedeland Rd &amp; Smith Kline"},{"lng":-75.335327,"lat":40.076304,"stopid":27269,"stopname":"Swedeland Rd &amp; Smith Kline - FS"},{"lng":-75.334621,"lat":40.082676,"stopid":27271,"stopname":"Renaissance Blvd &amp; Swedeland Rd - M"},{"lng":-75.339388,"lat":40.092257,"stopid":27273,"stopname":"Feheley Dr &amp; Church Rd - FS"},{"lng":-75.337534,"lat":40.089613,"stopid":27274,"stopname":"Feheley Dr &amp; Hertzog Blvd"},{"lng":-75.334362,"lat":40.090745,"stopid":27275,"stopname":"Hertzog Blvd &amp; Flint Hill Rd - FS"},{"lng":-75.331029,"lat":40.087877,"stopid":27278,"stopname":"B St &amp; Flint Hill Rd - FS"},{"lng":-75.326639,"lat":40.088204,"stopid":27281,"stopname":"River Rd &amp; 3rd St - FS"},{"lng":-75.324636,"lat":40.082481,"stopid":27283,"stopname":"River Rd &amp; Swedeland Rd - MBFS"},{"lng":-75.31266,"lat":40.070207,"stopid":27287,"stopname":"Front St &amp; William St"},{"lng":-75.306089,"lat":40.073922,"stopid":27289,"stopname":"Fayette St &amp; 1st Av - FS"},{"lng":-75.304478,"lat":40.075563,"stopid":27291,"stopname":"Fayette St &amp; 3rd Av - FS"},{"lng":-75.30302,"lat":40.077043,"stopid":27293,"stopname":"Fayette St &amp; 5th Av"},{"lng":-75.30219,"lat":40.077899,"stopid":27294,"stopname":"Fayette St &amp; 6th Av"},{"lng":-75.301361,"lat":40.078737,"stopid":27295,"stopname":"Fayette St &amp; 7th Av"},{"lng":-75.300555,"lat":40.079584,"stopid":27296,"stopname":"Fayette St &amp; 8th Av"},{"lng":-75.299725,"lat":40.080422,"stopid":27297,"stopname":"Fayette St &amp; 9th Av"},{"lng":-75.298078,"lat":40.08209,"stopid":27299,"stopname":"Fayette St &amp; 11th Av"},{"lng":-75.2963,"lat":40.083909,"stopid":27300,"stopname":"Fayette St &amp; 13th Av"},{"lng":-75.29547,"lat":40.084738,"stopid":27301,"stopname":"Butler Pk &amp; 14th Av"},{"lng":-75.292909,"lat":40.08744,"stopid":27302,"stopname":"Butler Pk &amp; North Ln - FS"},{"lng":-75.291001,"lat":40.089365,"stopid":27303,"stopname":"Butler Pk &amp; North Ln - MBFS"},{"lng":-75.288333,"lat":40.092201,"stopid":27304,"stopname":"Butler Pk &amp; Cedar Grove Rd"},{"lng":-75.296879,"lat":40.096682,"stopid":27305,"stopname":"Ridge Pk &amp; Chemical Rd - FS"},{"lng":-75.278962,"lat":40.131507,"stopid":27607,"stopname":"Walton Rd &amp; Township Line Rd - FS"},{"lng":-75.280279,"lat":40.130214,"stopid":27608,"stopname":"Walton Rd &amp; Apache Ln"},{"lng":-75.282212,"lat":40.128324,"stopid":27609,"stopname":"Walton Rd &amp; Apollo Rd - FS"},{"lng":-75.283236,"lat":40.119766,"stopid":27613,"stopname":"Fountain Dr &amp;  Atrium Way - FS"},{"lng":-75.280291,"lat":40.129982,"stopid":27621,"stopname":"Walton Rd &amp; Apache Ln"},{"lng":-75.278381,"lat":40.131818,"stopid":27622,"stopname":"Walton Rd &amp; Township Line Rd"},{"lng":-75.27689,"lat":40.131593,"stopid":27623,"stopname":"Norristown Rd &amp; Walton Rd - MBFS"},{"lng":-75.269682,"lat":40.130835,"stopid":27624,"stopname":"Norristown Rd &amp; Sentry Pkwy - FS"},{"lng":-75.258253,"lat":40.132783,"stopid":27626,"stopname":"Norristown Rd &amp; Copper Beech Dr"},{"lng":-75.244232,"lat":40.13886,"stopid":27630,"stopname":"Butler Pk &amp; Skippack Pk"},{"lng":-75.226516,"lat":40.152614,"stopid":27638,"stopname":"Butler Av &amp; Chestnut St"},{"lng":-75.206053,"lat":40.133924,"stopid":27641,"stopname":"Pennsylvania Av &amp; Commerce Dr - FS"},{"lng":-75.179768,"lat":40.117452,"stopid":27647,"stopname":"Pennsylvania Av &amp; Apel Av - FS"},{"lng":-75.178788,"lat":40.116816,"stopid":27648,"stopname":"Pennsylvania Av &amp; Twining Rd"},{"lng":-75.168619,"lat":40.114055,"stopid":27652,"stopname":"North Hills Av &amp; Chestnut Av - FS"},{"lng":-75.160044,"lat":40.128389,"stopid":27660,"stopname":"Fitzwatertown Rd &amp; North Hills Av"},{"lng":-75.152712,"lat":40.132417,"stopid":27662,"stopname":"Fitzwatertown Rd &amp; Susquehanna Rd"},{"lng":-75.144967,"lat":40.138888,"stopid":27666,"stopname":"Fitzwatertown Rd &amp; Woodland Rd"},{"lng":-75.134042,"lat":40.144022,"stopid":27671,"stopname":"Fitzwatertown Rd &amp; Old Welsh Rd"},{"lng":-75.122637,"lat":40.144602,"stopid":27679,"stopname":"Moreland Rd &amp; Coolidge Av - MBFS"},{"lng":-75.120923,"lat":40.143803,"stopid":27684,"stopname":"Moreland Rd &amp; Center Av - MBFS"},{"lng":-75.144765,"lat":40.139209,"stopid":27699,"stopname":"Fitzwatertown Rd &amp; Woodland Rd"},{"lng":-75.147403,"lat":40.136859,"stopid":27700,"stopname":"Fitzwatertown Rd &amp; Burn Brae Dr"},{"lng":-75.153993,"lat":40.131813,"stopid":27703,"stopname":"Fitzwatertown Rd &amp; Woodside Cir"},{"lng":-75.160315,"lat":40.128515,"stopid":27705,"stopname":"Fitzwatertown &amp; North Hills - FS"},{"lng":-75.163245,"lat":40.127111,"stopid":27706,"stopname":"Fitzwatertown Rd &amp; Eastview Dr - FS"},{"lng":-75.167157,"lat":40.115775,"stopid":27712,"stopname":"North Hills Av &amp; Walnut Av"},{"lng":-75.168832,"lat":40.114109,"stopid":27713,"stopname":"North Hills Av &amp; Chestnut Av"},{"lng":-75.174251,"lat":40.114522,"stopid":27717,"stopname":"Pennsylvania Av &amp; Girard Av"},{"lng":-75.17874,"lat":40.116968,"stopid":27719,"stopname":"Pennsylvania Av &amp; Twining Rd - FS"},{"lng":-75.179685,"lat":40.117576,"stopid":27723,"stopname":"Pennsylvania Av &amp; Apel Av"},{"lng":-75.185343,"lat":40.121051,"stopid":27725,"stopname":"Pennsylvania Av &amp; Heritage Av"},{"lng":-75.207021,"lat":40.134765,"stopid":27729,"stopname":"Pennsylvania Av &amp; Commerce Dr - FS"},{"lng":-75.210342,"lat":40.136725,"stopid":27730,"stopname":"Pennsylvania Av &amp; Summit Av"},{"lng":-75.227168,"lat":40.152543,"stopid":27764,"stopname":"Butler Av &amp; Locust St"},{"lng":-75.238533,"lat":40.145063,"stopid":27769,"stopname":"Butler Pk &amp; Ridings Way - FS"},{"lng":-75.244244,"lat":40.139127,"stopid":27772,"stopname":"Butler Pk &amp; Skippack Pk"},{"lng":-75.247864,"lat":40.135313,"stopid":27774,"stopname":"Butler Pk &amp; Farm Dr"},{"lng":-75.258111,"lat":40.132988,"stopid":27777,"stopname":"Norristown Rd &amp; Copper Beech Dr"},{"lng":-75.260207,"lat":40.132527,"stopid":27778,"stopname":"Norristown Rd &amp; Huntsman Ln"},{"lng":-75.27083,"lat":40.130925,"stopid":27779,"stopname":"Norristown Rd &amp; Sentry Pkwy - FS"},{"lng":-75.208274,"lat":40.135303,"stopid":29065,"stopname":"Pennsylvania Av &amp; Commerce Dr - MBN"},{"lng":-75.297743,"lat":40.096843,"stopid":29492,"stopname":"Ridge Pk &amp; Chemical Rd - MBNS"},{"lng":-75.289453,"lat":40.094567,"stopid":29494,"stopname":"Ridge Pk &amp; Butler Pk - 1 MBNS"},{"lng":-75.338479,"lat":40.090962,"stopid":29495,"stopname":"Feheley Dr &amp; Church Rd - MBFS"},{"lng":-75.294462,"lat":40.085799,"stopid":29496,"stopname":"Butler Pk &amp; 15th Av"},{"lng":-75.338349,"lat":40.091024,"stopid":29500,"stopname":"Feheley Dr  &amp; Hertzog Blvd - MBFS"},{"lng":-75.336205,"lat":40.083775,"stopid":29501,"stopname":"Renaisance Blvd &amp; Horizon Dr - MBNS"},{"lng":-75.334171,"lat":40.082667,"stopid":29502,"stopname":"Renaissance Blvd &amp; Swedeland Rd - M"},{"lng":-75.281299,"lat":40.129251,"stopid":29532,"stopname":"Walton Rd &amp; Treaty Rd - FS"},{"lng":-75.281098,"lat":40.129215,"stopid":29593,"stopname":"Walton Rd &amp; Treaty Rd"},{"lng":-75.182899,"lat":40.119323,"stopid":29594,"stopname":"Pennsylvania Av &amp; Park Av"},{"lng":-75.166445,"lat":40.116211,"stopid":29595,"stopname":"Noth Hills Av &amp; Limeklin Pk"},{"lng":-75.147986,"lat":40.136021,"stopid":29596,"stopname":"Fitzwatertown Rd &amp; Grisdale Av"},{"lng":-75.138601,"lat":40.141061,"stopid":29597,"stopname":"Fitzwatertown Rd &amp; Galloway Av"},{"lng":-75.139003,"lat":40.141169,"stopid":29598,"stopname":"Fitzwatertown Rd &amp; Banner Rd"},{"lng":-75.130451,"lat":40.147539,"stopid":29599,"stopname":"Fitzwatertown Rd &amp; Oklahoma Rd"},{"lng":-75.183217,"lat":40.119717,"stopid":29600,"stopname":"Pennsylvania Av &amp; Layfayette Av"},{"lng":-75.210673,"lat":40.136744,"stopid":29774,"stopname":"Pennsylvania Av &amp; Summit Av"},{"lng":-75.28182,"lat":40.106144,"stopid":29823,"stopname":"Germantown Pk &amp; Corson Ln - MBNS"},{"lng":-75.284414,"lat":40.104968,"stopid":29824,"stopname":"Chemical Rd &amp; Germantown Pk - MBNS"},{"lng":-75.342219,"lat":40.071025,"stopid":30332,"stopname":"Gulph Mills Station"},{"lng":-75.283097,"lat":40.118248,"stopid":30443,"stopname":"Hickory Rd &amp; Fountain Rd - MBFS"},{"lng":-75.275375,"lat":40.131413,"stopid":30450,"stopname":"Norristown Rd &amp; Office Ct - FS"},{"lng":-75.212513,"lat":40.138916,"stopid":30451,"stopname":"Bethlehem Pk &amp; Washington Ln - FS"},{"lng":-75.193886,"lat":40.125601,"stopid":30452,"stopname":"Pennsylvania Av &amp; Camp Hill Rd"},{"lng":-75.287384,"lat":40.093521,"stopid":30459,"stopname":"Butler Pk &amp; Ridge Av - MBFS"},{"lng":-75.339184,"lat":40.085143,"stopid":30537,"stopname":"Horizon Dr &amp; Renaissance Blvd"},{"lng":-75.301783,"lat":40.10056,"stopid":30540,"stopname":"Alan Wood Rd &amp; Ridge Pk - MBNS"},{"lng":-75.287218,"lat":40.093413,"stopid":30716,"stopname":"Butler Pk &amp; Ridge Pk - MBNS"},{"lng":-75.212928,"lat":40.150645,"stopid":31341,"stopname":"Bethlehem Pk &amp; Highland Av"},{"lng":-75.22475,"lat":40.153334,"stopid":31557,"stopname":"Butler Av &amp; Maple St - MBFS"},{"lng":-75.20838,"lat":40.135517,"stopid":31558,"stopname":"Pennsylvania Av &amp; Commerce Dr - MBF"},{"lng":-75.195767,"lat":40.125846,"stopid":31563,"stopname":"Pennsylvania Av &amp; Camp Hill Rd"},{"lng":-75.119755,"lat":40.142837,"stopid":31567,"stopname":"Moreland Rd &amp; Park Av"},{"lng":-75.211606,"lat":40.137433,"stopid":31783,"stopname":"Pennsylvania Av &amp; Fort Washington A"},{"lng":-75.289068,"lat":40.091675,"stopid":31897,"stopname":"Butler Pk &amp; Kirk St - FS"},{"lng":-75.129677,"lat":40.148591,"stopid":31960,"stopname":"Fitzwatertown Rd &amp; W Moreland Rd"},{"lng":-75.133934,"lat":40.144406,"stopid":31961,"stopname":"Fitzwatertown Rd &amp; Old Welsh Rd"},{"lng":-75.174512,"lat":40.114469,"stopid":31962,"stopname":"Pennsylvania Av &amp; Girard Av"},{"lng":-75.283259,"lat":40.119953,"stopid":31963,"stopname":"Fountain Rd &amp; Atrium Way"},{"lng":-75.331278,"lat":40.087895,"stopid":31964,"stopname":"B St &amp; Flint Hill Rd"},{"lng":-75.33725,"lat":40.089479,"stopid":31965,"stopname":"Hertzog Blvd &amp; Feheley Dr"},{"lng":-75.301384,"lat":40.078951,"stopid":31977,"stopname":"Fayette St &amp; 7th Av"},{"lng":-75.298907,"lat":40.081243,"stopid":31978,"stopname":"Fayette St &amp; 10th Av"}]