[{"lng":-75.262254,"lat":40.229027,"stopid":1614,"stopname":"North Wales &amp; Welsh Rd - FS"},{"lng":-75.245488,"lat":40.235047,"stopid":1617,"stopname":"Montgomery Mall"},{"lng":-75.262468,"lat":40.22901,"stopid":1621,"stopname":"North Wales Rd &amp; Main St"},{"lng":-75.344475,"lat":40.11336,"stopid":1649,"stopname":"Norristown Transportation Center"},{"lng":-75.330663,"lat":40.130451,"stopid":1650,"stopname":"Pine St &amp; Logan St"},{"lng":-75.314026,"lat":40.140041,"stopid":1651,"stopname":"Dekalb Pk &amp; Germantown Av - MBNS"},{"lng":-75.275134,"lat":40.177362,"stopid":1653,"stopname":"Montgomery County Community College"},{"lng":-75.276964,"lat":40.213238,"stopid":1654,"stopname":"Walnut St &amp; 5th St - MBNS"},{"lng":-75.285925,"lat":40.242517,"stopid":1663,"stopname":"Green St &amp; Main St"},{"lng":-75.276987,"lat":40.213791,"stopid":1665,"stopname":"North Wales Railroad Station"},{"lng":-75.314298,"lat":40.140184,"stopid":1668,"stopname":"Dekalb Pk &amp; Germantown Av - MBFS"},{"lng":-75.330591,"lat":40.130692,"stopid":1669,"stopname":"Pine St &amp; Logan St"},{"lng":-75.269761,"lat":40.233072,"stopid":27067,"stopname":"Main St &amp; Greenwood Av - FS"},{"lng":-75.268269,"lat":40.232249,"stopid":27068,"stopname":"Main St &amp; Oakland Av"},{"lng":-75.269595,"lat":40.233259,"stopid":27085,"stopname":"Main St &amp; Greenwood Rd"},{"lng":-75.341525,"lat":40.115375,"stopid":27390,"stopname":"Airy St &amp; DeKalb St - FS"},{"lng":-75.343513,"lat":40.116153,"stopid":27391,"stopname":"Airy St &amp; Swede St"},{"lng":-75.342742,"lat":40.117527,"stopid":27392,"stopname":"Swede St &amp; Marshall St - FS"},{"lng":-75.341734,"lat":40.119062,"stopid":27394,"stopname":"Swede St &amp; Oak St - FS"},{"lng":-75.340524,"lat":40.121203,"stopid":27395,"stopname":"Swede St &amp; Elm St - FS"},{"lng":-75.338744,"lat":40.124736,"stopid":27398,"stopname":"Pine St &amp; Wood St"},{"lng":-75.335485,"lat":40.127028,"stopid":27400,"stopname":"Pine St &amp; Freedley St"},{"lng":-75.33385,"lat":40.12816,"stopid":27401,"stopname":"Pine St &amp; Brown St"},{"lng":-75.332274,"lat":40.129301,"stopid":27402,"stopname":"Pine St St &amp; Roberts St"},{"lng":-75.328613,"lat":40.131842,"stopid":27403,"stopname":"Pine St &amp; Johnson Hwy"},{"lng":-75.324283,"lat":40.129777,"stopid":27405,"stopname":"Johnson Hwy &amp; DeKalb Pk - FS"},{"lng":-75.315662,"lat":40.138454,"stopid":27419,"stopname":"DeKalb Pk &amp; Northtowne Shop Ctr"},{"lng":-75.307618,"lat":40.148497,"stopid":27423,"stopname":"DeKalb Pk &amp; Township Line Rd"},{"lng":-75.306324,"lat":40.150343,"stopid":27424,"stopname":"DeKalb Pk &amp; Swede Rd - MBNS"},{"lng":-75.301958,"lat":40.155203,"stopid":27425,"stopname":"DeKalb Pk &amp; Yost Rd"},{"lng":-75.29898,"lat":40.158119,"stopid":27426,"stopname":"DeKalb Pk &amp; Jolly Rd - FS"},{"lng":-75.297152,"lat":40.159991,"stopid":27427,"stopname":"DeKalb Pk &amp; Michaels Ln - FS"},{"lng":-75.289024,"lat":40.16806,"stopid":27429,"stopname":"DeKalb Pk &amp; Skippack Pk - MBFS"},{"lng":-75.28665,"lat":40.170343,"stopid":27430,"stopname":"DeKalb Pk &amp; Village Square - FS"},{"lng":-75.281273,"lat":40.175844,"stopid":27431,"stopname":"DeKalb Pk &amp; Tournament Dr - FS"},{"lng":-75.274529,"lat":40.182923,"stopid":27434,"stopname":"DeKalb Pk &amp; Township Line Rd"},{"lng":-75.270827,"lat":40.185854,"stopid":27435,"stopname":"DeKalb Pk &amp; Grasshopper Ln"},{"lng":-75.256178,"lat":40.202553,"stopid":27438,"stopname":"Sumneytown Pk &amp; DeKalb Pk - FS"},{"lng":-75.270718,"lat":40.208071,"stopid":27442,"stopname":"Main St &amp; Prospect Av"},{"lng":-75.275738,"lat":40.210121,"stopid":27445,"stopname":"Main St &amp; Montgomery Av"},{"lng":-75.273551,"lat":40.218518,"stopid":27450,"stopname":"Walnut St &amp; 10th St"},{"lng":-75.271971,"lat":40.220132,"stopid":27451,"stopname":"North Wales Rd &amp; Mill Rd"},{"lng":-75.268005,"lat":40.223206,"stopid":27453,"stopname":"North Wales Rd &amp; Hancock Rd"},{"lng":-75.279257,"lat":40.238957,"stopid":27459,"stopname":"Main St &amp; Line St"},{"lng":-75.283579,"lat":40.241524,"stopid":27461,"stopname":"Main St &amp; Broad St"},{"lng":-75.277067,"lat":40.237463,"stopid":27503,"stopname":"Main St &amp; Park Dr - MBFS"},{"lng":-75.267981,"lat":40.223438,"stopid":27511,"stopname":"North Wales Rd &amp; Hancock Rd"},{"lng":-75.272042,"lat":40.220283,"stopid":27512,"stopname":"North Wales Rd &amp; Mill Rd"},{"lng":-75.275428,"lat":40.216744,"stopid":27514,"stopname":"Walnut St &amp; Beaver St"},{"lng":-75.276272,"lat":40.210158,"stopid":27519,"stopname":"Main St &amp; Montgomery Av"},{"lng":-75.271014,"lat":40.208054,"stopid":27522,"stopname":"Main St &amp; Prospect Av"},{"lng":-75.289641,"lat":40.167695,"stopid":27536,"stopname":"DeKalb Pk &amp; Skippack Pk"},{"lng":-75.297555,"lat":40.159867,"stopid":27538,"stopname":"DeKalb Pk &amp; Michaels Ln"},{"lng":-75.299347,"lat":40.158092,"stopid":27539,"stopname":"DeKalb Pk &amp; Jolly Rd"},{"lng":-75.302527,"lat":40.154882,"stopid":27540,"stopname":"DeKalb Pk &amp; Yost Rd - FS"},{"lng":-75.282008,"lat":40.175505,"stopid":27541,"stopname":"DeKalb Pk &amp; Tournament Dr - FS"},{"lng":-75.306585,"lat":40.150272,"stopid":27542,"stopname":"DeKalb Pk &amp; Swede Rd - MBFS"},{"lng":-75.307582,"lat":40.148871,"stopid":27543,"stopname":"DeKalb Pk &amp; Township Line Rd"},{"lng":-75.311724,"lat":40.143163,"stopid":27546,"stopname":"DeKalb Pk &amp; Germantown Pk - MBNS"},{"lng":-75.315792,"lat":40.138561,"stopid":27547,"stopname":"DeKalb Pk &amp; Dekalb Apts"},{"lng":-75.328861,"lat":40.131869,"stopid":27554,"stopname":"Pine St &amp; Johnson Hwy - FS"},{"lng":-75.332215,"lat":40.129542,"stopid":27555,"stopname":"Pine St &amp; Roberts St"},{"lng":-75.333814,"lat":40.12841,"stopid":27556,"stopname":"Pine St &amp; Brown St"},{"lng":-75.335426,"lat":40.12726,"stopid":27557,"stopname":"Pine St &amp; Freedley St"},{"lng":-75.337073,"lat":40.126109,"stopid":27558,"stopname":"Pine St &amp; Fornance St"},{"lng":-75.338708,"lat":40.124968,"stopid":27559,"stopname":"Pine St &amp; Wood St"},{"lng":-75.339904,"lat":40.124121,"stopid":27560,"stopname":"Pine St &amp; Swede St"},{"lng":-75.340773,"lat":40.120926,"stopid":27562,"stopname":"Swede St &amp; Elm St"},{"lng":-75.34203,"lat":40.118856,"stopid":27563,"stopname":"Swede St &amp; Oak St - FS"},{"lng":-75.272461,"lat":40.234744,"stopid":29449,"stopname":"Main St &amp; Highland Av - MBFS"},{"lng":-75.274272,"lat":40.2358,"stopid":29450,"stopname":"Main St &amp; Lansdale Av"},{"lng":-75.268056,"lat":40.23232,"stopid":29462,"stopname":"Main St &amp; Oakland Av"},{"lng":-75.272413,"lat":40.234923,"stopid":29463,"stopname":"Main St &amp; Highland Av - MBNS"},{"lng":-75.340012,"lat":40.123568,"stopid":29511,"stopname":"Swede St &amp; Basin St"},{"lng":-75.311452,"lat":40.143002,"stopid":29512,"stopname":"DeKalb Pk &amp; Germantown Pk - MBFS"},{"lng":-75.277857,"lat":40.211382,"stopid":29513,"stopname":"Walnut St &amp; 2nd St"},{"lng":-75.275524,"lat":40.216334,"stopid":29514,"stopname":"Walnut St &amp; Beaver St"},{"lng":-75.266267,"lat":40.190097,"stopid":29515,"stopname":"DeKalb Pk &amp; Greycliffe Ln - MBFS"},{"lng":-75.29237,"lat":40.165011,"stopid":29516,"stopname":"DeKalb Pk &amp; Skippack Pk - MBFS"},{"lng":-75.278094,"lat":40.211383,"stopid":29517,"stopname":"Walnut St &amp; 2nd St - FS"},{"lng":-75.274116,"lat":40.209405,"stopid":29526,"stopname":"Main St &amp; Washington Av - FS"},{"lng":-75.266446,"lat":40.189598,"stopid":29529,"stopname":"DeKalb Pk &amp; Greycliffe Ln - MBNS"},{"lng":-75.25614,"lat":40.202335,"stopid":30455,"stopname":"Sumneytown Pk &amp; Dekalb Pk - MBNS"},{"lng":-75.271004,"lat":40.185881,"stopid":30456,"stopname":"Dekalb Pk &amp; Grasshopper Ln - FS"},{"lng":-75.283911,"lat":40.241578,"stopid":30457,"stopname":"Main St &amp; Broad St"},{"lng":-75.33712,"lat":40.125851,"stopid":30662,"stopname":"Pine St &amp; Fornance St"},{"lng":-75.343038,"lat":40.117295,"stopid":30751,"stopname":"Swede St &amp; Marshall St - FS"},{"lng":-75.324128,"lat":40.130151,"stopid":31426,"stopname":"DeKalb Pk &amp; Johnson Hwy"},{"lng":-75.27953,"lat":40.238948,"stopid":31427,"stopname":"Main St &amp; Line St"},{"lng":-75.276604,"lat":40.2374,"stopid":31428,"stopname":"Main St &amp; Woodland Dr - FS"},{"lng":-75.340356,"lat":40.122925,"stopid":31429,"stopname":"Swede St &amp; Spruce St"},{"lng":-75.34019,"lat":40.122711,"stopid":31430,"stopname":"Swede St &amp; Spruce St"},{"lng":-75.292228,"lat":40.16494,"stopid":31782,"stopname":"Dekalb Pk &amp; Skippack Pk - MBNS"},{"lng":-75.343702,"lat":40.116278,"stopid":31933,"stopname":"Swede St &amp; Airy St"},{"lng":-75.286958,"lat":40.170352,"stopid":31967,"stopname":"DeKalb Pk &amp; Village Square"},{"lng":-75.273986,"lat":40.209494,"stopid":31968,"stopname":"Main St &amp; Washington Av"},{"lng":-75.274473,"lat":40.236112,"stopid":31969,"stopname":"Main St &amp; Lansdale Av - FS"},{"lng":-75.281696,"lat":40.240424,"stopid":31970,"stopname":"Main St &amp; Chesnut St"},{"lng":-75.281981,"lat":40.240433,"stopid":31971,"stopname":"Main St &amp; Chesnut St"},{"lng":-75.257066,"lat":40.232127,"stopid":32060,"stopname":"North Wales Rd &amp; Jamestown Rd - FS"},{"lng":-75.257671,"lat":40.232038,"stopid":32061,"stopname":"North Wales Rd &amp; Jamestown Rd"}]