[{"lng":-75.182611,"lat":39.918159,"stopid":95,"stopname":"Oregon Av &amp; 21st St - FS"},{"lng":-75.180605,"lat":39.917887,"stopid":96,"stopname":"Oregon Av &amp; 20th St - FS"},{"lng":-75.171002,"lat":39.91669,"stopid":98,"stopname":"Oregon Av &amp; Broad St - FS"},{"lng":-75.171131,"lat":39.916913,"stopid":103,"stopname":"Oregon Av &amp; Broad St"},{"lng":-75.188106,"lat":39.919705,"stopid":105,"stopname":"Oregon Av &amp; 24th St"},{"lng":-75.155301,"lat":39.907946,"stopid":175,"stopname":"Packer Av &amp; Galloway St"},{"lng":-75.237427,"lat":39.948617,"stopid":180,"stopname":"57th St &amp; Christian St"},{"lng":-75.232812,"lat":39.960801,"stopid":182,"stopname":"56th St &amp; Market St"},{"lng":-75.239348,"lat":39.981249,"stopid":185,"stopname":"59th St &amp; Columbia Av"},{"lng":-75.249118,"lat":39.990385,"stopid":187,"stopname":"Drexel Rd &amp; City Line Av"},{"lng":-75.2622,"lat":39.989386,"stopid":188,"stopname":"Lankenau Medical Center"},{"lng":-75.239537,"lat":39.981214,"stopid":194,"stopname":"59th St &amp; Columbia Av - FS"},{"lng":-75.232989,"lat":39.960766,"stopid":197,"stopname":"56th St &amp; Market St - FS"},{"lng":-75.235561,"lat":39.948561,"stopid":198,"stopname":"56th St &amp; Christian St"},{"lng":-75.224767,"lat":39.932514,"stopid":199,"stopname":"58th St &amp; Woodland Av"},{"lng":-75.224363,"lat":39.921117,"stopid":201,"stopname":"63rd St &amp; Lindbergh Blvd"},{"lng":-75.159687,"lat":39.915434,"stopid":732,"stopname":"Oregon Av &amp; 7th St"},{"lng":-75.164406,"lat":39.916069,"stopid":999,"stopname":"Oregon Av &amp; 10th St"},{"lng":-75.166353,"lat":39.916073,"stopid":1182,"stopname":"Oregon Av &amp; 11th St"},{"lng":-75.233288,"lat":39.959311,"stopid":1417,"stopname":"56th St &amp; Chestnut St - FS"},{"lng":-75.227158,"lat":39.934687,"stopid":1423,"stopname":"58th St &amp; Kingsessing Av"},{"lng":-75.243889,"lat":39.993001,"stopid":6248,"stopname":"Clity Av &amp; Berwick Rd - FS"},{"lng":-75.248467,"lat":39.990821,"stopid":6249,"stopname":"City Av &amp; Overbrook Av - MBNS"},{"lng":-75.179473,"lat":39.917733,"stopid":11422,"stopname":"Oregon Av &amp; 19th St"},{"lng":-75.154839,"lat":39.914594,"stopid":11468,"stopname":"Oregon Av &amp; 4th St - FS"},{"lng":-75.156573,"lat":39.915035,"stopid":16496,"stopname":"Oregon Av &amp; 5th St"},{"lng":-75.158083,"lat":39.915243,"stopid":16497,"stopname":"Oregon Av &amp; 6th St"},{"lng":-75.164678,"lat":39.915873,"stopid":16591,"stopname":"Oregon Av &amp; 10th St"},{"lng":-75.13896,"lat":39.912711,"stopid":17359,"stopname":"Oregon Av &amp; Columbus Blvd - FS"},{"lng":-75.140494,"lat":39.912911,"stopid":17360,"stopname":"Oregon Av &amp; Weccacoe St"},{"lng":-75.146262,"lat":39.913647,"stopid":17361,"stopname":"Oregon Av &amp; Vandalia St"},{"lng":-75.147571,"lat":39.913882,"stopid":17362,"stopname":"Oregon Av &amp; Swanson St"},{"lng":-75.149872,"lat":39.914181,"stopid":17364,"stopname":"Oregon Av &amp; Front St"},{"lng":-75.152775,"lat":39.914313,"stopid":18136,"stopname":"Oregon Av &amp; 3rd St"},{"lng":-75.15163,"lat":39.914167,"stopid":18137,"stopname":"Oregon Av &amp; 2nd St"},{"lng":-75.150132,"lat":39.913977,"stopid":18138,"stopname":"Oregon Av &amp; Front St"},{"lng":-75.147395,"lat":39.913622,"stopid":18139,"stopname":"Oregon Av &amp; Swanson St - FS"},{"lng":-75.145154,"lat":39.913394,"stopid":18140,"stopname":"Oregon Av &amp; Vandalia St - MBFS"},{"lng":-75.143243,"lat":39.913158,"stopid":18141,"stopname":"Oregon Av &amp; Weccacoe Av - MBNS"},{"lng":-75.159983,"lat":39.915256,"stopid":18577,"stopname":"Oregon Av &amp; 7th St"},{"lng":-75.158355,"lat":39.915066,"stopid":18578,"stopname":"Oregon Av &amp; 6th St"},{"lng":-75.247009,"lat":39.983697,"stopid":20610,"stopname":"Malvern Av &amp; 63rd St"},{"lng":-75.227642,"lat":39.930217,"stopid":20716,"stopname":"Woodland Av &amp; 60th St"},{"lng":-75.229287,"lat":39.929041,"stopid":20717,"stopname":"Woodland Av &amp; 61st St"},{"lng":-75.227535,"lat":39.930457,"stopid":20749,"stopname":"Woodland Av &amp; 60th St"},{"lng":-75.229191,"lat":39.929282,"stopid":20750,"stopname":"Woodland Av &amp; 61st St"},{"lng":-75.237763,"lat":39.946431,"stopid":20893,"stopname":"Baltimore Av &amp; 57th St"},{"lng":-75.180734,"lat":39.918137,"stopid":21346,"stopname":"Oregon Av &amp; 20th St"},{"lng":-75.224672,"lat":39.932612,"stopid":21619,"stopname":"58th St &amp; Woodland Av - FS"},{"lng":-75.169468,"lat":39.916472,"stopid":21792,"stopname":"Oregon Av &amp; 13th St"},{"lng":-75.167686,"lat":39.916237,"stopid":21794,"stopname":"Oregon Av &amp; 12th St"},{"lng":-75.144097,"lat":39.92104,"stopid":24268,"stopname":"Snyder Av &amp; Dilworth St - MBNS"},{"lng":-75.161256,"lat":39.915643,"stopid":24308,"stopname":"Oregon Av &amp; 8th St"},{"lng":-75.156503,"lat":39.914803,"stopid":24347,"stopname":"Oregon Av &amp; 5th St - FS"},{"lng":-75.151396,"lat":39.907317,"stopid":24348,"stopname":"Front St &amp; Packer Av - FS"},{"lng":-75.153815,"lat":39.907755,"stopid":24349,"stopname":"Packer Av &amp; 3rd St"},{"lng":-75.152128,"lat":39.907537,"stopid":24350,"stopname":"Packer Av &amp; Front St - MBNS"},{"lng":-75.151417,"lat":39.91439,"stopid":24351,"stopname":"Oregon Av &amp; 2nd St"},{"lng":-75.153045,"lat":39.914581,"stopid":24352,"stopname":"Oregon Av &amp; 3rd St"},{"lng":-75.154933,"lat":39.914817,"stopid":24353,"stopname":"Oregon Av &amp; 4th St"},{"lng":-75.162813,"lat":39.915852,"stopid":24359,"stopname":"Oregon Av &amp; 9th St"},{"lng":-75.16601,"lat":39.916269,"stopid":24360,"stopname":"Oregon Av &amp; 11th St"},{"lng":-75.167532,"lat":39.916451,"stopid":24361,"stopname":"Oregon Av &amp; 12th St"},{"lng":-75.16909,"lat":39.916659,"stopid":24362,"stopname":"Oregon Av &amp; 13th St"},{"lng":-75.172865,"lat":39.917131,"stopid":24363,"stopname":"Oregon Av &amp; 15th St"},{"lng":-75.174446,"lat":39.917339,"stopid":24364,"stopname":"Oregon Av &amp; 16th St"},{"lng":-75.176015,"lat":39.91753,"stopid":24365,"stopname":"Oregon Av &amp; 17th St"},{"lng":-75.177596,"lat":39.917738,"stopid":24366,"stopname":"Oregon Av &amp; 18th St"},{"lng":-75.179519,"lat":39.917983,"stopid":24367,"stopname":"Oregon Av &amp; 19th St - FS"},{"lng":-75.182645,"lat":39.918382,"stopid":24369,"stopname":"Oregon Av &amp; 21st St"},{"lng":-75.184205,"lat":39.918581,"stopid":24407,"stopname":"Oregon Av &amp; 22nd St"},{"lng":-75.186468,"lat":39.918863,"stopid":24408,"stopname":"Oregon Av &amp; 23rd St - FS"},{"lng":-75.216347,"lat":39.917382,"stopid":24424,"stopname":"63rd St &amp; Passyunk Av - FS"},{"lng":-75.219207,"lat":39.918535,"stopid":24426,"stopname":"63rd St &amp; Passyunk Av - MBFS"},{"lng":-75.222655,"lat":39.919963,"stopid":24429,"stopname":"63rd St &amp; Eastwick Av"},{"lng":-75.223997,"lat":39.921018,"stopid":24430,"stopname":"63rd St &amp; Lindbergh Blvd"},{"lng":-75.223497,"lat":39.922722,"stopid":24431,"stopname":"62nd St &amp; Dicks Av"},{"lng":-75.224827,"lat":39.923831,"stopid":24432,"stopname":"62nd St &amp; Buist Av"},{"lng":-75.226217,"lat":39.925065,"stopid":24433,"stopname":"62nd St &amp; Elmwood Av"},{"lng":-75.227819,"lat":39.926049,"stopid":24434,"stopname":"62nd St &amp; Grays Av"},{"lng":-75.22928,"lat":39.927203,"stopid":24435,"stopname":"62nd St &amp; Paschall Av"},{"lng":-75.230505,"lat":39.928133,"stopid":24436,"stopname":"62nd St &amp; Woodland Av"},{"lng":-75.225662,"lat":39.933435,"stopid":24437,"stopname":"58th St &amp; Greenway Av"},{"lng":-75.228618,"lat":39.935912,"stopid":24438,"stopname":"58th St &amp; Chester Av - FS"},{"lng":-75.229607,"lat":39.936762,"stopid":24439,"stopname":"58th St &amp; Springfield Av"},{"lng":-75.230997,"lat":39.937942,"stopid":24441,"stopname":"58th St &amp; Warrington Av"},{"lng":-75.232281,"lat":39.939024,"stopid":24442,"stopname":"58th St &amp; Florence Av"},{"lng":-75.233506,"lat":39.940311,"stopid":24443,"stopname":"58th St &amp; Willows Av"},{"lng":-75.234943,"lat":39.941473,"stopid":24444,"stopname":"58th St &amp; Whitby Av"},{"lng":-75.236321,"lat":39.942645,"stopid":24445,"stopname":"58th St &amp; Thomas Av"},{"lng":-75.237723,"lat":39.943843,"stopid":24446,"stopname":"58th St &amp; Hoffman Av"},{"lng":-75.240044,"lat":39.945774,"stopid":24449,"stopname":"58th St &amp; Baltimore Av"},{"lng":-75.237858,"lat":39.946529,"stopid":24451,"stopname":"57th St &amp; Baltimore Av - FS"},{"lng":-75.237116,"lat":39.950143,"stopid":24453,"stopname":"57th St &amp; Catherine St"},{"lng":-75.236793,"lat":39.951588,"stopid":24455,"stopname":"57th St &amp; Cedar Av"},{"lng":-75.23647,"lat":39.953176,"stopid":24457,"stopname":"57th St &amp; Larchwood Av"},{"lng":-75.236159,"lat":39.954657,"stopid":24458,"stopname":"57th St &amp; Pine St"},{"lng":-75.235932,"lat":39.955719,"stopid":24459,"stopname":"57th St &amp; Spruce St"},{"lng":-75.23568,"lat":39.95695,"stopid":24460,"stopname":"57th St &amp; Locust St"},{"lng":-75.235453,"lat":39.958056,"stopid":24461,"stopname":"57th St &amp; Walnut St"},{"lng":-75.23513,"lat":39.959573,"stopid":24462,"stopname":"57th St &amp; Chestnut St"},{"lng":-75.232477,"lat":39.962407,"stopid":24463,"stopname":"56th St &amp; Arch St"},{"lng":-75.232189,"lat":39.963951,"stopid":24464,"stopname":"56th St &amp; Race St"},{"lng":-75.231878,"lat":39.965369,"stopid":24465,"stopname":"56th St &amp; Vine St"},{"lng":-75.233743,"lat":39.965872,"stopid":24466,"stopname":"Vine St &amp; 57th St"},{"lng":-75.233666,"lat":39.968157,"stopid":24468,"stopname":"57th St &amp; Haverford Av - FS"},{"lng":-75.234108,"lat":39.970433,"stopid":24469,"stopname":"57th St &amp; Girard Av"},{"lng":-75.234376,"lat":39.971951,"stopid":24470,"stopname":"57th St &amp; Thompson St"},{"lng":-75.23462,"lat":39.973219,"stopid":24471,"stopname":"57th St &amp; Master St"},{"lng":-75.234935,"lat":39.974826,"stopid":24472,"stopname":"57th St &amp; Media St"},{"lng":-75.235226,"lat":39.976379,"stopid":24473,"stopname":"57th St &amp; Lansdowne Av"},{"lng":-75.235447,"lat":39.977548,"stopid":24474,"stopname":"57th St &amp; Stewart St - FS"},{"lng":-75.235785,"lat":39.979343,"stopid":24475,"stopname":"57th St &amp; Jefferson St"},{"lng":-75.236384,"lat":39.980834,"stopid":24476,"stopname":"Oxford St &amp; 57th St - FS"},{"lng":-75.23701,"lat":39.985075,"stopid":24479,"stopname":"57th St &amp; Upland Way - FS"},{"lng":-75.237397,"lat":39.986325,"stopid":24480,"stopname":"58th St &amp; Lebanon Av"},{"lng":-75.238386,"lat":39.987558,"stopid":24481,"stopname":"58th St &amp; Malvern  Av"},{"lng":-75.239128,"lat":39.988478,"stopid":24482,"stopname":"58th St &amp; Woodcrest Av"},{"lng":-75.240464,"lat":39.988016,"stopid":24483,"stopname":"Woodcrest Av &amp; Hobart St"},{"lng":-75.241682,"lat":39.987447,"stopid":24484,"stopname":"Woodcrest Av &amp; 59th St"},{"lng":-75.242295,"lat":39.988028,"stopid":24485,"stopname":"59th St &amp; Woodbine Av"},{"lng":-75.243072,"lat":39.989011,"stopid":24486,"stopname":"59th St &amp; Drexel Rd"},{"lng":-75.246312,"lat":39.988301,"stopid":24487,"stopname":"Drexel Rd &amp; Upland Way"},{"lng":-75.250715,"lat":39.989896,"stopid":24488,"stopname":"City Av &amp; 63rd St"},{"lng":-75.253731,"lat":39.988357,"stopid":24490,"stopname":"City Av &amp; Lancaster Av - FS"},{"lng":-75.250963,"lat":39.989656,"stopid":24491,"stopname":"City Av &amp; 63rd St"},{"lng":-75.240217,"lat":39.992157,"stopid":24492,"stopname":"Cardinal Av &amp; Overbrook Av"},{"lng":-75.241518,"lat":39.991409,"stopid":24493,"stopname":"Overbrook Av &amp; 58th St - FS"},{"lng":-75.244014,"lat":39.990271,"stopid":24494,"stopname":"Overbrook Av &amp; 59th St"},{"lng":-75.243332,"lat":39.989154,"stopid":24495,"stopname":"59th St &amp; Drexel Rd"},{"lng":-75.242531,"lat":39.9881,"stopid":24496,"stopname":"59th St &amp; Woodbine Av"},{"lng":-75.241201,"lat":39.986429,"stopid":24497,"stopname":"59th St &amp; Malvern Av"},{"lng":-75.239829,"lat":39.986917,"stopid":24498,"stopname":"Malvern Av &amp; Hobart St"},{"lng":-75.238587,"lat":39.987496,"stopid":24499,"stopname":"Malvern Av &amp; 58th St"},{"lng":-75.237593,"lat":39.987896,"stopid":24500,"stopname":"Malvern Av &amp; 57th St"},{"lng":-75.23729,"lat":39.986485,"stopid":24501,"stopname":"57th St &amp; Lebanon Av"},{"lng":-75.237176,"lat":39.985066,"stopid":24502,"stopname":"57th St &amp; Upland Way"},{"lng":-75.239149,"lat":39.980383,"stopid":24503,"stopname":"Oxford St &amp; 59th St - FS"},{"lng":-75.23623,"lat":39.980718,"stopid":24504,"stopname":"Oxford St &amp; 57th St"},{"lng":-75.234177,"lat":39.980054,"stopid":24505,"stopname":"56th St &amp; Lancaster Av - FS"},{"lng":-75.234133,"lat":39.97884,"stopid":24506,"stopname":"56th St &amp; Jefferson St"},{"lng":-75.234005,"lat":39.977885,"stopid":24507,"stopname":"56th St &amp; Stewart  St"},{"lng":-75.233796,"lat":39.976743,"stopid":24508,"stopname":"56th St &amp; Lansdowne Av"},{"lng":-75.233481,"lat":39.975171,"stopid":24509,"stopname":"56th St &amp; Media St"},{"lng":-75.233214,"lat":39.973591,"stopid":24510,"stopname":"56th St &amp; Master St"},{"lng":-75.232981,"lat":39.972332,"stopid":24511,"stopname":"56th St &amp; Thompson St"},{"lng":-75.23269,"lat":39.970788,"stopid":24512,"stopname":"56th St &amp; Girard Av"},{"lng":-75.232317,"lat":39.968904,"stopid":24513,"stopname":"56th St &amp; Wyalusing Av"},{"lng":-75.232073,"lat":39.967628,"stopid":24514,"stopname":"56th St &amp; Haverford Av"},{"lng":-75.232055,"lat":39.965334,"stopid":24515,"stopname":"56th St &amp; Vine St - FS"},{"lng":-75.232318,"lat":39.964192,"stopid":24516,"stopname":"56th St &amp; Race St"},{"lng":-75.232606,"lat":39.962639,"stopid":24517,"stopname":"56th St &amp; Arch St"},{"lng":-75.233563,"lat":39.958062,"stopid":24518,"stopname":"56th St &amp; Walnut St"},{"lng":-75.233791,"lat":39.956938,"stopid":24519,"stopname":"56th St &amp; Locust St"},{"lng":-75.234042,"lat":39.955707,"stopid":24520,"stopname":"56th St &amp; Spruce St"},{"lng":-75.234281,"lat":39.954654,"stopid":24521,"stopname":"56th St &amp; Pine St"},{"lng":-75.234592,"lat":39.95312,"stopid":24522,"stopname":"56th St &amp; Larchwood Av"},{"lng":-75.234904,"lat":39.951576,"stopid":24523,"stopname":"56th St &amp; Cedar Av"},{"lng":-75.235227,"lat":39.950095,"stopid":24524,"stopname":"56th St &amp; Catherine St"},{"lng":-75.235849,"lat":39.947044,"stopid":24525,"stopname":"56th St &amp; Washington Av"},{"lng":-75.240127,"lat":39.945667,"stopid":24526,"stopname":"58th St &amp; Baltimore Av - FS"},{"lng":-75.237983,"lat":39.943861,"stopid":24527,"stopname":"58th St &amp; Hoffman Av"},{"lng":-75.236581,"lat":39.942681,"stopid":24528,"stopname":"58th St &amp; Thomas Av"},{"lng":-75.235203,"lat":39.941492,"stopid":24529,"stopname":"58th St &amp; Whitby Av"},{"lng":-75.233765,"lat":39.940347,"stopid":24530,"stopname":"58th St &amp; Willows Av"},{"lng":-75.232529,"lat":39.93906,"stopid":24531,"stopname":"58th St &amp; Florence Av"},{"lng":-75.231257,"lat":39.93796,"stopid":24532,"stopname":"58th St &amp; Warrington Av"},{"lng":-75.229855,"lat":39.936789,"stopid":24533,"stopname":"58th St &amp; Springfield Av"},{"lng":-75.228395,"lat":39.935546,"stopid":24535,"stopname":"58th St &amp; Chester Av - FS"},{"lng":-75.227417,"lat":39.934696,"stopid":24536,"stopname":"58th St &amp; Kingsessing Av"},{"lng":-75.226016,"lat":39.933489,"stopid":24537,"stopname":"58th St &amp; Greenway Av"},{"lng":-75.230576,"lat":39.928008,"stopid":24538,"stopname":"62nd St &amp; Woodland Av - FS"},{"lng":-75.229587,"lat":39.927203,"stopid":24539,"stopname":"62nd St &amp; Paschall Av"},{"lng":-75.228103,"lat":39.926076,"stopid":24540,"stopname":"62nd St &amp; Grays Av"},{"lng":-75.226665,"lat":39.924994,"stopid":24541,"stopname":"62nd St &amp; Elmwood Av"},{"lng":-75.225099,"lat":39.923876,"stopid":24542,"stopname":"62nd St &amp; Buist Av"},{"lng":-75.223744,"lat":39.922749,"stopid":24543,"stopname":"62nd St &amp; Dicks Av"},{"lng":-75.222973,"lat":39.919963,"stopid":24544,"stopname":"63rd St &amp; Eastwick Av"},{"lng":-75.216407,"lat":39.917257,"stopid":24545,"stopname":"63rd St &amp; Passyunk Av - 2"},{"lng":-75.209393,"lat":39.91803,"stopid":24546,"stopname":"Passyunk Av &amp; 61st St"},{"lng":-75.193519,"lat":39.921125,"stopid":24547,"stopname":"Passyunk Av &amp; 28th St - FS"},{"lng":-75.18826,"lat":39.919464,"stopid":24548,"stopname":"Oregon Av &amp; 24th St - FS"},{"lng":-75.186386,"lat":39.918639,"stopid":24549,"stopname":"Oregon Av &amp; 23rd St"},{"lng":-75.184805,"lat":39.91844,"stopid":24550,"stopname":"Oregon Av &amp; 22nd St"},{"lng":-75.177844,"lat":39.917552,"stopid":24551,"stopname":"Oregon Av &amp; 18th St"},{"lng":-75.176275,"lat":39.917334,"stopid":24552,"stopname":"Oregon Av &amp; 17th St"},{"lng":-75.174706,"lat":39.917135,"stopid":24553,"stopname":"Oregon Av &amp; 16th St"},{"lng":-75.17322,"lat":39.916962,"stopid":24554,"stopname":"Oregon Av &amp; 15th St"},{"lng":-75.163003,"lat":39.915647,"stopid":24555,"stopname":"Oregon Av &amp; 9th St"},{"lng":-75.161682,"lat":39.915474,"stopid":24556,"stopname":"Oregon Av &amp; 8th St"},{"lng":-75.152241,"lat":39.902718,"stopid":24557,"stopname":"Front St &amp; Pattison Av"},{"lng":-75.154565,"lat":39.902982,"stopid":24558,"stopname":"Pattison Av &amp; 3rd St"},{"lng":-75.156511,"lat":39.903227,"stopid":24559,"stopname":"Pattison Av &amp; Galloway St - FS"},{"lng":-75.158304,"lat":39.903463,"stopid":24560,"stopname":"Pattison Av &amp; Lawrence St"},{"lng":-75.161139,"lat":39.909154,"stopid":24561,"stopname":"7th St &amp; Packer Av"},{"lng":-75.157625,"lat":39.908281,"stopid":24562,"stopname":"Packer Av &amp; Lawrence St"},{"lng":-75.144917,"lat":39.913483,"stopid":24837,"stopname":"Oregon Av &amp; Weccacoe St - MBFS"},{"lng":-75.142924,"lat":39.91322,"stopid":24838,"stopname":"Oregon Av &amp; Weccacoe St - MBFS"},{"lng":-75.221278,"lat":39.914499,"stopid":24894,"stopname":"Essington Av &amp; 67th St - FS"},{"lng":-75.194073,"lat":39.921305,"stopid":24929,"stopname":"Passyunk Av &amp; 28th St - FS"},{"lng":-75.216538,"lat":39.916891,"stopid":24931,"stopname":"Passyunk Av &amp; 63rd St - FS"},{"lng":-75.245782,"lat":39.992112,"stopid":25761,"stopname":"City Av &amp; 59th St"},{"lng":-75.144737,"lat":39.920292,"stopid":28166,"stopname":"Weccacoe Av &amp; Vandalia St"},{"lng":-75.162185,"lat":39.903963,"stopid":28169,"stopname":"Pattison Av &amp; 7th St"},{"lng":-75.161715,"lat":39.90646,"stopid":28170,"stopname":"7th St &amp; Pattison Av - MBFS"},{"lng":-75.19255,"lat":39.921445,"stopid":28171,"stopname":"Passyunk Av &amp; 28th St - MBNS"},{"lng":-75.239279,"lat":39.980491,"stopid":28181,"stopname":"Oxford St &amp; 59th St"},{"lng":-75.241328,"lat":39.982787,"stopid":28199,"stopname":"Lancaster Av &amp; 60th St"},{"lng":-75.249545,"lat":39.98969,"stopid":28270,"stopname":"Overbrook Station"},{"lng":-75.2583,"lat":39.98988,"stopid":28281,"stopname":"Lankenau Dr &amp; Lancaster Av - MBNS"},{"lng":-75.241884,"lat":39.987286,"stopid":28289,"stopname":"59th St &amp; Woodcrest Av"},{"lng":-75.241612,"lat":39.982752,"stopid":28299,"stopname":"Lancaster Av &amp; 60th St"},{"lng":-75.224821,"lat":39.921858,"stopid":28300,"stopname":"Dicks Av &amp; 63rd St"},{"lng":-75.218941,"lat":39.918288,"stopid":28303,"stopname":"63rd St &amp; Passyunk Av - MBNS"},{"lng":-75.140986,"lat":39.913487,"stopid":30088,"stopname":"Weccacoe Av &amp; Oregon Av - FS"},{"lng":-75.142022,"lat":39.915385,"stopid":30089,"stopname":"Weccacoe Av &amp; Oregon Av - MBFS"},{"lng":-75.143108,"lat":39.917307,"stopid":30090,"stopname":"Weccacoe Av &amp; Wolf St - MBNS"},{"lng":-75.145241,"lat":39.921105,"stopid":30091,"stopname":"Weccacoe Av &amp; Snyder Av"},{"lng":-75.143011,"lat":39.920895,"stopid":30092,"stopname":"Snyder Av &amp; Dilworth St - FS"},{"lng":-75.209841,"lat":39.918165,"stopid":30147,"stopname":"Passyunk Av &amp; 61st St - FS"},{"lng":-75.218734,"lat":39.916529,"stopid":30148,"stopname":"Passyunk Av &amp; 63rd St - MBFS"},{"lng":-75.22247,"lat":39.910458,"stopid":30164,"stopname":"Essington Av &amp; 68th St - MBNS"},{"lng":-75.216066,"lat":39.916864,"stopid":30165,"stopname":"Passyunk Av &amp; 63rd St"},{"lng":-75.218605,"lat":39.916359,"stopid":30166,"stopname":"Passyunk Av &amp; 63rd St - MBNS"},{"lng":-75.25843,"lat":39.989898,"stopid":30682,"stopname":"Lankenau &amp; Lancaster - MBFS"},{"lng":-75.246015,"lat":39.984329,"stopid":30857,"stopname":"Lancaster Av &amp; Malvern Av"},{"lng":-75.138047,"lat":39.913726,"stopid":31324,"stopname":"Columbus Blvd &amp; Oregon Av - MBNS"},{"lng":-75.241453,"lat":39.993765,"stopid":31325,"stopname":"Cardinal Av &amp; City Av - FS"},{"lng":-75.248954,"lat":39.989983,"stopid":32277,"stopname":"Drexel Rd &amp; City Line Av - MBNS"}]