[{"lng":-75.101085,"lat":40.029484,"stopid":24,"stopname":"Roosevelt Blvd &amp; Tower Blvd - FS"},{"lng":-75.171649,"lat":40.038722,"stopid":213,"stopname":"Chelten Av &amp; Baynton St"},{"lng":-75.084202,"lat":40.016869,"stopid":220,"stopname":"Arrott Transportation Center"},{"lng":-75.141321,"lat":40.053633,"stopid":222,"stopname":"66th Av &amp; Broad St"},{"lng":-75.178638,"lat":40.031516,"stopid":224,"stopname":"Wayne Av &amp; Chelten Av - FS"},{"lng":-75.194082,"lat":40.008447,"stopid":225,"stopname":"River Rd &amp; Midvale Av"},{"lng":-75.178684,"lat":40.031703,"stopid":227,"stopname":"Wayne Av &amp; Chelten Av"},{"lng":-75.158179,"lat":40.051858,"stopid":228,"stopname":"Chelten Av &amp; Wister St"},{"lng":-75.141972,"lat":40.05359,"stopid":229,"stopname":"66th Av &amp; Old York Rd"},{"lng":-75.188167,"lat":40.017165,"stopid":260,"stopname":"Midvale Av &amp; Henry Av"},{"lng":-75.188464,"lat":40.016844,"stopid":267,"stopname":"Midvale Av &amp; Henry Av"},{"lng":-75.164837,"lat":40.045366,"stopid":497,"stopname":"Chelten Av &amp; Chew Av"},{"lng":-75.128287,"lat":40.045694,"stopid":865,"stopname":"Godfrey Av &amp; 5th St"},{"lng":-75.083895,"lat":40.016939,"stopid":892,"stopname":"Oxford Av &amp; Frankford Av"},{"lng":-75.176726,"lat":40.03402,"stopid":15663,"stopname":"Chelten Av &amp; Greene St - FS"},{"lng":-75.174781,"lat":40.035676,"stopid":15664,"stopname":"Chelten Av &amp; Germantown Av"},{"lng":-75.173891,"lat":40.036549,"stopid":15665,"stopname":"Chelten Av &amp; Kenyon St"},{"lng":-75.172989,"lat":40.037431,"stopid":15666,"stopname":"Chelten Av &amp; Lena St - FS"},{"lng":-75.169869,"lat":40.040486,"stopid":15668,"stopname":"Chelten Av &amp; Morton St"},{"lng":-75.168753,"lat":40.041581,"stopid":15669,"stopname":"Chelten Av &amp; Magnolia St"},{"lng":-75.167211,"lat":40.043086,"stopid":15670,"stopname":"Chelten Av &amp; Musgrave St"},{"lng":-75.166107,"lat":40.044173,"stopid":15671,"stopname":"Chelten Av &amp; McMahon St"},{"lng":-75.177711,"lat":40.032808,"stopid":15672,"stopname":"Chelten Av &amp; Knox St"},{"lng":-75.166071,"lat":40.044351,"stopid":15920,"stopname":"Chelten Av &amp; McMahon St"},{"lng":-75.167175,"lat":40.043265,"stopid":15921,"stopname":"Chelten Av &amp; Musgrave St"},{"lng":-75.16867,"lat":40.041804,"stopid":15922,"stopname":"Chelten Av &amp; Magnolia St"},{"lng":-75.169761,"lat":40.040735,"stopid":15923,"stopname":"Chelten Av &amp; Morton St"},{"lng":-75.171589,"lat":40.038954,"stopid":15924,"stopname":"Chelten Av &amp; Baynton St"},{"lng":-75.173072,"lat":40.03752,"stopid":15925,"stopname":"Chelten Av &amp; Lena St"},{"lng":-75.17389,"lat":40.036763,"stopid":15926,"stopname":"Chelten Av &amp; Kenyon St"},{"lng":-75.177734,"lat":40.033004,"stopid":15929,"stopname":"Chelten Av &amp; Knox St"},{"lng":-75.176549,"lat":40.030467,"stopid":16446,"stopname":"Wayne Av &amp; School House Ln"},{"lng":-75.176833,"lat":40.030495,"stopid":16471,"stopname":"Wayne Av &amp; School House Ln"},{"lng":-75.174744,"lat":40.029277,"stopid":16472,"stopname":"Wayne Av &amp; Coulter St"},{"lng":-75.142663,"lat":40.052279,"stopid":16923,"stopname":"Old York Rd &amp; 65th Av"},{"lng":-75.143603,"lat":40.05088,"stopid":16924,"stopname":"Old York Rd &amp; Chelten Av"},{"lng":-75.086195,"lat":40.017927,"stopid":17615,"stopname":"Arrott St &amp; Leiper St"},{"lng":-75.088446,"lat":40.01921,"stopid":17616,"stopname":"Arrott St &amp; Oakland St"},{"lng":-75.089602,"lat":40.019873,"stopid":17621,"stopname":"Arrott St &amp; Horrocks St"},{"lng":-75.091393,"lat":40.021029,"stopid":17622,"stopname":"Arrott St &amp; Large St"},{"lng":-75.093667,"lat":40.022517,"stopid":17623,"stopname":"Arrott St &amp; Castor Av"},{"lng":-75.126739,"lat":40.045343,"stopid":17930,"stopname":"Godfrey Av &amp; 4th St"},{"lng":-75.125711,"lat":40.045215,"stopid":17931,"stopname":"Godfrey Av &amp; 3rd St"},{"lng":-75.118078,"lat":40.041234,"stopid":17952,"stopname":"Champlost St &amp; A St"},{"lng":-75.165027,"lat":40.045375,"stopid":21228,"stopname":"Chelten Av &amp; Chew Av - FS"},{"lng":-75.193915,"lat":40.009072,"stopid":21229,"stopname":"Midvale Av &amp; Ridge Av"},{"lng":-75.123442,"lat":40.045058,"stopid":21624,"stopname":"Godfrey Av &amp; 2nd St"},{"lng":-75.17656,"lat":40.034002,"stopid":21954,"stopname":"Chelten Av &amp; Greene St"},{"lng":-75.128032,"lat":40.047372,"stopid":22723,"stopname":"5th St &amp; Chelten Av - FS"},{"lng":-75.127694,"lat":40.048915,"stopid":22724,"stopname":"5th St &amp; 64th Av"},{"lng":-75.127417,"lat":40.050119,"stopid":22725,"stopname":"5th St &amp; 65th Av"},{"lng":-75.127546,"lat":40.050289,"stopid":22834,"stopname":"5th St &amp; 65th Av"},{"lng":-75.127835,"lat":40.049005,"stopid":22835,"stopname":"5th St &amp; 64th Av"},{"lng":-75.128221,"lat":40.047265,"stopid":22836,"stopname":"5th St &amp; Chelten Av"},{"lng":-75.098525,"lat":40.027823,"stopid":23292,"stopname":"Roosevelt Blvd &amp; Langdon St"},{"lng":-75.099224,"lat":40.027378,"stopid":23319,"stopname":"Roosevelt Blvd &amp; Langdon St"},{"lng":-75.096559,"lat":40.026006,"stopid":23320,"stopname":"Roosevelt Blvd &amp; Summerdale Av - FS"},{"lng":-75.095058,"lat":40.025993,"stopid":23321,"stopname":"Roosevelt Blvd &amp; Foulkrod St"},{"lng":-75.094799,"lat":40.023261,"stopid":24574,"stopname":"Arrott St &amp; Adams Av"},{"lng":-75.095354,"lat":40.024004,"stopid":24575,"stopname":"Adams Av &amp; Ramona Av"},{"lng":-75.096878,"lat":40.025971,"stopid":24576,"stopname":"Adams Av &amp; Roosevelt Blvd"},{"lng":-75.10415,"lat":40.030792,"stopid":24685,"stopname":"Adams Av &amp; Whitaker Av - FS"},{"lng":-75.10541,"lat":40.031794,"stopid":24686,"stopname":"Adams Av &amp; Montour St"},{"lng":-75.1068,"lat":40.03311,"stopid":24687,"stopname":"Adams Av &amp; Tabor Rd"},{"lng":-75.108409,"lat":40.035283,"stopid":24688,"stopname":"Adams Av &amp; Foulkrod St"},{"lng":-75.109906,"lat":40.039089,"stopid":24689,"stopname":"Adams Av &amp; Rising Sun Av"},{"lng":-75.108909,"lat":40.037239,"stopid":24690,"stopname":"Adams Av &amp; Hill Creek Dr - FS"},{"lng":-75.114018,"lat":40.042384,"stopid":24692,"stopname":"Crescentville Av &amp; Adams Ave - FS"},{"lng":-75.115583,"lat":40.041263,"stopid":24693,"stopname":"Crescentville Av &amp; Hammond Av"},{"lng":-75.119678,"lat":40.043094,"stopid":24694,"stopname":"Front St &amp; Spencer St - FS"},{"lng":-75.119849,"lat":40.044576,"stopid":24695,"stopname":"Godfrey Av &amp; Front St - FS"},{"lng":-75.121314,"lat":40.044794,"stopid":24696,"stopname":"Godfrey Av &amp; Mascher St"},{"lng":-75.125486,"lat":40.045313,"stopid":24697,"stopname":"Godfrey Av &amp; 3rd St"},{"lng":-75.126514,"lat":40.04544,"stopid":24698,"stopname":"Godfrey Av &amp; 4th St"},{"lng":-75.127421,"lat":40.051833,"stopid":24699,"stopname":"66th Av &amp; 5th St - FS"},{"lng":-75.128982,"lat":40.052042,"stopid":24700,"stopname":"66th Av &amp; 6th St"},{"lng":-75.130648,"lat":40.05226,"stopid":24701,"stopname":"66th Av &amp; 7th St"},{"lng":-75.131747,"lat":40.052397,"stopid":24702,"stopname":"66th Av &amp; 8th St"},{"lng":-75.135151,"lat":40.052842,"stopid":24703,"stopname":"66th Av &amp; Lawnton Av"},{"lng":-75.133697,"lat":40.052651,"stopid":24704,"stopname":"66th Av &amp; 10th St"},{"lng":-75.136558,"lat":40.053024,"stopid":24705,"stopname":"66th Av &amp; 11th St"},{"lng":-75.137645,"lat":40.05316,"stopid":24706,"stopname":"66th Av &amp; 12th St"},{"lng":-75.139229,"lat":40.053369,"stopid":24707,"stopname":"66th Av &amp; 13th St"},{"lng":-75.142079,"lat":40.053269,"stopid":24708,"stopname":"Old York Rd &amp; 66th Av - FS"},{"lng":-75.145352,"lat":40.051036,"stopid":24710,"stopname":"Chelten Av 16th St"},{"lng":-75.146877,"lat":40.051227,"stopid":24711,"stopname":"Chelten Av 17th St"},{"lng":-75.148496,"lat":40.051418,"stopid":24712,"stopname":"Chelten Av &amp; 18th St"},{"lng":-75.152882,"lat":40.051793,"stopid":24714,"stopname":"Chelten Av &amp; Limekiln Pk"},{"lng":-75.155247,"lat":40.051897,"stopid":24715,"stopname":"Chelten Av &amp; 21st St"},{"lng":-75.15767,"lat":40.052,"stopid":24716,"stopname":"Chelten Av &amp; Wister St"},{"lng":-75.159021,"lat":40.051218,"stopid":24717,"stopname":"Chelten Av &amp; Anderson St"},{"lng":-75.160493,"lat":40.049775,"stopid":24718,"stopname":"Chelten Av &amp; Ardleigh St"},{"lng":-75.161633,"lat":40.048671,"stopid":24719,"stopname":"Chelten Av &amp; Sprague St"},{"lng":-75.163152,"lat":40.047192,"stopid":24720,"stopname":"Chelten Av &amp; Boyer St"},{"lng":-75.175047,"lat":40.027358,"stopid":24721,"stopname":"Penn St &amp; Pulaski Av - detour"},{"lng":-75.176245,"lat":40.026218,"stopid":24722,"stopname":"Penn St &amp; Morris St - detour"},{"lng":-75.177472,"lat":40.023472,"stopid":24723,"stopname":"King St &amp; Queen Ln - detour"},{"lng":-75.178149,"lat":40.022688,"stopid":24724,"stopname":"Queen Ln &amp; Wissahickon Av - detour"},{"lng":-75.181125,"lat":40.020052,"stopid":24725,"stopname":"Queen Ln &amp; Stokley St - detour"},{"lng":-75.182973,"lat":40.018779,"stopid":24726,"stopname":"Queen Ln &amp; Fox St - detour"},{"lng":-75.173789,"lat":40.028587,"stopid":24727,"stopname":"Penn St &amp; Wayne Av - FS detour"},{"lng":-75.186153,"lat":40.018536,"stopid":24728,"stopname":"Midvale Av &amp; McMichael St"},{"lng":-75.190123,"lat":40.015509,"stopid":24729,"stopname":"Midvale Av &amp; Vaux St - FS"},{"lng":-75.191841,"lat":40.014298,"stopid":24730,"stopname":"Midvale Av &amp; Warden Dr"},{"lng":-75.192996,"lat":40.011605,"stopid":24731,"stopname":"Midvale Av &amp; Cresson St - FS"},{"lng":-75.192831,"lat":40.011587,"stopid":24778,"stopname":"Midvale Av &amp; Cresson St"},{"lng":-75.191842,"lat":40.014102,"stopid":24779,"stopname":"Midvale Av &amp; Conrad St"},{"lng":-75.189982,"lat":40.015437,"stopid":24780,"stopname":"Midvale Av &amp; Vaux St"},{"lng":-75.186178,"lat":40.018339,"stopid":24781,"stopname":"Midvale Av &amp; McMichael St"},{"lng":-75.184389,"lat":40.019585,"stopid":24782,"stopname":"Midvale Av &amp; Fox St"},{"lng":-75.18122,"lat":40.01982,"stopid":24783,"stopname":"Queen Ln &amp; Stokley St - detour"},{"lng":-75.172562,"lat":40.027898,"stopid":24784,"stopname":"Queen Ln &amp; Wayne Av - detour"},{"lng":-75.178149,"lat":40.022474,"stopid":24785,"stopname":"Queen Ln &amp; Wissahickon Av - detour"},{"lng":-75.176762,"lat":40.023819,"stopid":24786,"stopname":"Queen Ln &amp; Laurens St - detour"},{"lng":-75.175184,"lat":40.025359,"stopid":24787,"stopname":"Queen Ln &amp; Morris St - detour"},{"lng":-75.17401,"lat":40.02649,"stopid":24788,"stopname":"Queen Ln &amp; Pulaski Av - detour"},{"lng":-75.174709,"lat":40.029384,"stopid":24789,"stopname":"Wayne Av &amp; Coulter St - FS"},{"lng":-75.163188,"lat":40.046978,"stopid":24791,"stopname":"Chelten Av &amp; Boyer St"},{"lng":-75.161669,"lat":40.048457,"stopid":24792,"stopname":"Chelten Av &amp; Sprague St"},{"lng":-75.160529,"lat":40.049561,"stopid":24793,"stopname":"Chelten Av &amp; Ardleigh St"},{"lng":-75.159058,"lat":40.051004,"stopid":24794,"stopname":"Chelten Av &amp; Anderson St"},{"lng":-75.156685,"lat":40.053123,"stopid":24795,"stopname":"Wyncote Av &amp; 65th Av"},{"lng":-75.15557,"lat":40.053977,"stopid":24796,"stopname":"Wyncote Av &amp; Stenton Av"},{"lng":-75.154514,"lat":40.054796,"stopid":24797,"stopname":"Wyncote Av &amp; 66th Av"},{"lng":-75.152811,"lat":40.054765,"stopid":24798,"stopname":"66th Av &amp; Limekiln Pk"},{"lng":-75.151381,"lat":40.054682,"stopid":24799,"stopname":"66th Av &amp; 20th St"},{"lng":-75.149891,"lat":40.054598,"stopid":24800,"stopname":"66th Av &amp; Ogontz Av"},{"lng":-75.148,"lat":40.05438,"stopid":24801,"stopname":"66th Av &amp; 18th St"},{"lng":-75.146439,"lat":40.054171,"stopid":24802,"stopname":"66th Av &amp; 17th St"},{"lng":-75.144856,"lat":40.053962,"stopid":24803,"stopname":"66th Av &amp; 16th St"},{"lng":-75.143284,"lat":40.053762,"stopid":24804,"stopname":"66th Av &amp; 15th St"},{"lng":-75.139442,"lat":40.053263,"stopid":24805,"stopname":"66th Av &amp; 13th St"},{"lng":-75.13787,"lat":40.053063,"stopid":24806,"stopname":"66th Av &amp; 12th St"},{"lng":-75.136783,"lat":40.052926,"stopid":24807,"stopname":"66th Av &amp; 11th St"},{"lng":-75.135376,"lat":40.052744,"stopid":24808,"stopname":"66th Av &amp; Lawnton Av"},{"lng":-75.133923,"lat":40.052554,"stopid":24809,"stopname":"66th Av &amp; 10th St"},{"lng":-75.131972,"lat":40.052299,"stopid":24810,"stopname":"66th Av &amp; 8th St"},{"lng":-75.130873,"lat":40.052163,"stopid":24811,"stopname":"66th Av &amp; 7th St"},{"lng":-75.129207,"lat":40.051944,"stopid":24812,"stopname":"66th Av &amp; 6th St"},{"lng":-75.127268,"lat":40.05169,"stopid":24813,"stopname":"66th Av &amp; 5th St"},{"lng":-75.128228,"lat":40.045543,"stopid":24814,"stopname":"Godfrey Av &amp; 5th St - FS"},{"lng":-75.121539,"lat":40.044696,"stopid":24815,"stopname":"Godfrey Av &amp; Mascher St"},{"lng":-75.119684,"lat":40.044442,"stopid":24816,"stopname":"Godfrey Av &amp; Front St"},{"lng":-75.119856,"lat":40.043023,"stopid":24817,"stopname":"Front St &amp; Spencer St"},{"lng":-75.119544,"lat":40.041282,"stopid":24818,"stopname":"Champlost Av &amp; Front St - FS"},{"lng":-75.117819,"lat":40.041072,"stopid":24819,"stopname":"Champlost Av &amp; Ella St"},{"lng":-75.115773,"lat":40.041067,"stopid":24820,"stopname":"Champlost Av &amp; Hammond Av"},{"lng":-75.113852,"lat":40.042294,"stopid":24821,"stopname":"Crescentville Rd &amp; Adams Av"},{"lng":-75.109884,"lat":40.03875,"stopid":24823,"stopname":"Adams Av &amp; Rising Sun Av - FS"},{"lng":-75.109157,"lat":40.0374,"stopid":24824,"stopname":"Adams Av &amp; Hill Creek Dr"},{"lng":-75.108669,"lat":40.035507,"stopid":24825,"stopname":"Adams Av &amp; Bingham St"},{"lng":-75.107,"lat":40.033155,"stopid":24826,"stopname":"Adams Av &amp; Tabor Rd"},{"lng":-75.105599,"lat":40.031822,"stopid":24827,"stopname":"Adams Av &amp; Montour St"},{"lng":-75.104092,"lat":40.030586,"stopid":24828,"stopname":"Adams Av &amp; Whitaker Av"},{"lng":-75.094599,"lat":40.025572,"stopid":24829,"stopname":"Foulkrod St &amp; Ramona St - FS"},{"lng":-75.09254,"lat":40.023416,"stopid":24830,"stopname":"Foulkrod St &amp; Castor Av - FS"},{"lng":-75.091562,"lat":40.02286,"stopid":24831,"stopname":"Foulkrod St &amp; Rutland St"},{"lng":-75.090501,"lat":40.02225,"stopid":24832,"stopname":"Foulkrod St &amp; Large St"},{"lng":-75.088756,"lat":40.021245,"stopid":24833,"stopname":"Foulkrod St &amp; Horrocks St"},{"lng":-75.087436,"lat":40.02051,"stopid":24834,"stopname":"Foulkrod St &amp; Oakland St"},{"lng":-75.085196,"lat":40.01921,"stopid":24835,"stopname":"Foulkrod St &amp; Leiper St"},{"lng":-75.084465,"lat":40.018815,"stopid":24836,"stopname":"Foulkrod St &amp; Penn St"},{"lng":-75.184223,"lat":40.019665,"stopid":25821,"stopname":"Fox St &amp; Midvale Av - detour"},{"lng":-75.149679,"lat":40.051385,"stopid":27748,"stopname":"Stenton Av &amp; Chelten Av"},{"lng":-75.141239,"lat":40.05349,"stopid":27750,"stopname":"66th Av &amp; Broad St - FS"},{"lng":-75.193121,"lat":40.00982,"stopid":27752,"stopname":"Midvale Av &amp; Creswell St"},{"lng":-75.193262,"lat":40.00991,"stopid":27755,"stopname":"Midvale Av &amp; Creswell St"},{"lng":-75.119969,"lat":40.041462,"stopid":30226,"stopname":"Champlost St &amp; Front St"},{"lng":-75.102089,"lat":40.029171,"stopid":30824,"stopname":"Roosevelt Blvd &amp; Adams Av"},{"lng":-75.174685,"lat":40.035944,"stopid":31000,"stopname":"Chelten Av &amp; Germantown Av"},{"lng":-75.123655,"lat":40.04496,"stopid":31349,"stopname":"Godfrey Av &amp; 2nd St"},{"lng":-75.151818,"lat":40.051773,"stopid":31351,"stopname":"20th St &amp; Chelten Av"},{"lng":-75.128261,"lat":40.046248,"stopid":31433,"stopname":"5th St &amp; Medary Av"},{"lng":-75.194153,"lat":40.00859,"stopid":31448,"stopname":"Midvale Av &amp; River Rd - FS"},{"lng":-75.150446,"lat":40.05177,"stopid":31479,"stopname":"Stenton Av &amp; Ogontz Av - FS"},{"lng":-75.18321,"lat":40.01861,"stopid":31727,"stopname":"Fox St &amp; Queen Ln - detour"}]